Borough,Location Name,Type,latitude,longitude,Rating,Overall Sentiment Score,Negative Score,Neutral Score,Positive Score,Main Issues,Emotion Keywords,Review Count
Enfield,Aldersbrook Avenue Recreation Ground,Park,51.65869679999999,-0.075011,4.5,0.5735476851463318,0.0,0.6,0.4,"Maintenance, Atmosphere, Aesthetics, General, Traffic, Safety","safe (18), lovely (12), modern (9), fantastic (9), excellent (9), parking (9), good (9), perfect (9), busy (9), noisy (6), tidy (3)",196
Enfield,Town Park,Park,51.6496331,-0.0857231,4.5,0.6076386074225107,0.0,0.5333333333333333,0.4666666666666667,"Maintenance, Aesthetics, Atmosphere, General, Accessibility, Traffic, Safety, Cleanliness","parking (36), good (27), clean (27), safe (15), lovely (12), beautiful (9), busy (9), great (6), relaxing (3), walking (3), old (3), tidy (3), updated (3), near (3)",708
Enfield,The Millennium Fountain,Park,51.6536899,-0.08789459999999999,4.6,0.6983190596103668,0.0,0.4,0.6,"Maintenance, Atmosphere, Aesthetics, General, Cleanliness","lovely (24), old (18), relaxing (12), safe (12), good (9), new (9), rubbish (9), clean (9), stunning (9), walking (6), tidy (3), parking (3)",82
Enfield,The Livia Memorial Garden,Park,51.653547,-0.09047759999999999,5.0,0.4419354895750682,0.5,0.5,0.0,"Atmosphere, Aesthetics, Noise, Traffic","safe (12), walking (9), beautiful (9), peaceful (9), noisy (3), vehicle (3)",2
Enfield,Crawford Circle,Park,51.6550105,-0.07180939999999998,5.0,0.5437673595216539,0.2222222222222222,0.4444444444444444,0.3333333333333333,General,great (9),4
Enfield,Enfield ay allotments,Park,51.6545879,-0.0689844,5.0,0.0,0.0,0.0,0.0,,,2
Enfield,Lloyds Bank,Bank,51.6524256,-0.08041240000000001,3.4,0.7461021661758422,0.0,0.0,1.0,"Maintenance, General, Accessibility","far (18), tidy (12), perfect (9), updated (9), messy (7), safe (6), improved (3), active (3), noisy (3)",98
Enfield,Enfield County Upper School,School,51.65430569999999,-0.0832719,3.1,0.48301414450009666,0.3333333333333333,0.6,0.06666666666666667,"General, Cleanliness","good (18), great (12), rubbish (9), bad (9), tidy (6), messy (3), lovely (3)",19
Enfield,Palace Gardens Shopping Centre,Shopping Mall,51.6511338,-0.0836375,4.1,0.5732138693332672,0.0,0.6,0.4,"Maintenance, Aesthetics, General, Safety, Cleanliness","great (18), clean (18), good (9), security (9), lovely (9), parking (6), safe (6), walking (6), noisy (3), cars (3)",2416
Enfield,Nationwide Building Society,Bank,51.6523861,-0.08485820000000001,4.5,0.7777270634969076,0.0,0.13333333333333333,0.8666666666666667,"Maintenance, General","fantastic (18), excellent (18), messy (12), amazing (9), good (6), old (3), safe (3), noisy (3)",33
Enfield,HSBC Enfield,Bank,51.65193250000001,-0.08103970000000002,4.0,0.9096296509106954,0.0,0.0,1.0,"Aesthetics, General, Accessibility","great (18), wonderful (9), amazing (9), easy (9), tidy (6), safe (6), messy (3), peaceful (3)",85
Enfield,Barclays Bank,Bank,51.65242369999999,-0.08191329999999998,3.3,0.9080608924229939,0.0,0.0,1.0,"Aesthetics, General","messy (33), bad (9), good (9), excellent (9), amazing (9), lovely (6), safe (3), improved (3), noisy (3)",82
Enfield,Enfield Town Library,Library,51.65169239999999,-0.0862059,4.4,0.6586849610010783,0.0,0.2,0.8,"Maintenance, Traffic, General, Cleanliness","clean (21), amazing (15), safe (9), messy (9), good (9), modern (9), parking (9), roomy (3), lovely (3), noisy (3), cars (3)",232
Enfield,"Champneys City Spa, Enfield",Beauty Salon,51.6517814,-0.08199980000000001,4.6,0.6539618174235026,0.0,0.4,0.6,"Maintenance, Atmosphere, General, Aesthetics","amazing (36), lovely (18), relaxing (18), great (18), good (9), safe (9), dead (9), horrible (9), hectic (9), dark (6), tidy (6), noisy (6), lighting (3), messy (3)",376
Enfield,Jark (Tottenham) Ltd,Point Of Interest,51.65242809999999,-0.08008729999999999,2.8,0.7073872884114584,0.0,0.2,0.8,"Maintenance, Accessibility, General","excellent (9), messy (9), easy (9), good (9), great (9), tidy (6), noisy (6), parking (3), safe (3), dead (3), dark (3), near (3), bad (3)",58
Enfield,The Dr Sergis Academy,Point Of Interest,51.6522397,-0.0724521,5.0,0.8397932966550191,0.0,0.0,1.0,"Maintenance, General","good (18), improved (18), excellent (18), amazing (9), great (9), messy (6), wonderful (6), safe (3), tidy (3), fantastic (3)",24
Enfield,Enfield Town,Transit Station,51.65208370000001,-0.07933299999999999,3.4,0.49951919515927634,0.13333333333333333,0.8,0.06666666666666667,"Maintenance, Traffic, General, Cleanliness","good (12), parking (9), noisy (6), clean (6), busy (3)",7
Enfield,Enfield Town,Transit Station,51.65210709999999,-0.0793673,3.5,0.5370405505100886,0.2,0.4,0.4,"Maintenance, Aesthetics, Atmosphere, Accessibility, General, Safety, Cleanliness","bad (18), updated (18), lovely (12), safe (12), good (12), tidy (9), crowded (9), clean (6), messy (6), lighting (3), noisy (3), far (3), shouting (1)",72
Enfield,Enfield Civic Centre,Transit Station,51.6535606,-0.0806645,1.0,0.692066490650177,0.0,0.0,1.0,,safe (3),1
Enfield,Enfield Police Station,Transit Station,51.65571200000001,-0.080374,3.6,0.4291830062866211,0.3333333333333333,0.6666666666666666,0.0,"Safety, General","crime (27), police (18), good (15), safe (12), great (9), messy (5), tidy (3)",10
Enfield,Enfield War Memorial,Transit Station,51.6540395,-0.08830199999999999,4.0,0.0,0.0,0.0,0.0,,,1
Enfield,Enfield Town Station (Stop V),Transit Station,51.65195070000001,-0.08080049999999998,4.0,0.3617613762617111,0.8333333333333334,0.0,0.16666666666666666,Accessibility,"busy (6), safe (3), far (3)",5
Enfield,Enfield Town / Silver Street (Stop H),Bus Station,51.6528612,-0.080526,4.5,0.6226691603660583,0.0,0.0,1.0,General,"great (9), busy (3)",2
Enfield,Enfield Town / Church Street (Stop E),Transit Station,51.65220249999999,-0.08291920000000001,3.7,0.7657553454240164,0.0,0.5,0.5,General,"terrible (6), busy (3), awful (3)",3
Enfield,Palace Exchange Shopping Centre,Shopping Mall,51.65170369999999,-0.0820115,4.2,0.6236862937609354,0.0,0.6,0.4,"Aesthetics, Traffic, General, Cleanliness","safe (15), clean (9), good (9), parking (9), beautiful (9), cars (6), tidy (3), walking (3), lovely (3), relaxing (3)",3296
Enfield,Enfield Town Station,Shopping Mall,51.65207220000001,-0.0793337,4.2,0.5967438280582428,0.0,0.6,0.4,"Maintenance, Atmosphere, Accessibility, Comfort, Noise, Traffic, Cleanliness","clean (12), new (9), pleasant (9), busy (9), buzzing (9), safe (6), noisy (6), near (3), active (3), roomy (3)",942
Enfield,Enfield Shopping Centre,Shopping Mall,51.6521396,-0.08488369999999999,4.3,0.4793082296848297,0.2,0.7333333333333333,0.06666666666666667,"Maintenance, Aesthetics, Accessibility, General, Traffic","good (30), parking (18), lovely (12), new (9), relaxing (6), far (3), bad (3), busy (3), safe (3), noisy (3), dead (3), dark (3)",101
Enfield,Enfield Museum,Museum,51.6505231,-0.0805643,3.5,0.5427695254484812,0.0,0.7333333333333333,0.26666666666666666,"Comfort, General","enjoyable (9), excellent (9), tidy (3)",22
Enfield,Jaywalks,Tourist Attraction,51.6535231,-0.0773452,5.0,0.6033811767896017,0.0,0.6666666666666666,0.3333333333333333,,walking (1),1
Enfield,Enfield Town Park Boating Lake,Natural Feature,51.64911069999999,-0.08529769999999999,4.5,0.5407377481460571,0.3333333333333333,0.3333333333333333,0.3333333333333333,,parking (3),2
Enfield,Enfield Baptist Church,Church,51.65087390000001,-0.08462680000000002,4.7,0.6734396517276764,0.0,0.4666666666666667,0.5333333333333333,"Cleanliness, Comfort, General, Traffic","great (18), parking (15), spacious (9), clean (9), welcoming (9), cars (6), safe (3), roomy (3), noisy (3), good (3), lovely (3), tidy (3)",60
Enfield,Holy Family Convent,Church,51.6496531,-0.079726,5.0,0.7252321541309357,0.0,0.5,0.5,General,wonderful (9),4
Enfield,Revival Christian Church of Enfield - a parish of the Redeemed Christian Church of God (RCCG).,Church,51.6495142,-0.0802624,5.0,0.607963087161382,0.2,0.4,0.4,"Maintenance, Atmosphere, General, Comfort, Noise","welcoming (18), messy (12), amazing (9), peaceful (9), lovely (6), safe (6), great (2)",42
Enfield,St John of God Hospitaller Services,Church,51.6526289,-0.0732242,3.0,0.6402897636095682,0.0,0.0,1.0,"Maintenance, Safety, Accessibility, General","tidy (12), messy (12), good (9), terrible (9), far (9), threatening (9), difficult (6)",2
Enfield,"Our Lady of Mount Carmel & St George RC Church, Enfield",Church,51.6498541,-0.08033359999999999,4.8,0.6380869646867117,0.0,0.4,0.6,"Maintenance, Aesthetics, Accessibility, Comfort, Traffic","parking (18), safe (15), lovely (12), near (9), welcoming (9), beautiful (9), peaceful (3), good (3)",169
Enfield,"St Andrew's Church, Enfield",Church,51.6530003,-0.08200949999999999,4.3,0.5624282399813334,0.0,0.7333333333333333,0.26666666666666666,"Maintenance, Atmosphere, Aesthetics, General, Cleanliness","beautiful (18), messy (15), good (12), safe (9), old (9), lively (9), fantastic (9), wonderful (9), lovely (3), peaceful (3)",32
Enfield,Enfield Town Community Church,Church,51.65028239999999,-0.0839233,4.8,0.7158742129802704,0.0,0.4,0.6,"Maintenance, Aesthetics, Accessibility, General, Comfort","new (36), amazing (36), wonderful (18), lovely (16), difficult (9), modern (9), welcoming (9), fantastic (9), safe (6), messy (3), good (3), tidy (3)",43
Enfield,St Andrew’s Parish Office,Church,51.6533935,-0.0807845,5.0,0.0,0.0,0.0,0.0,,,1
Enfield,London Miracle Center (AFM) Apostolic Faith Missions UK,Church,51.6542722,-0.08327799999999999,4.9,0.7154568155606588,0.0,0.2,0.8,General,"lovely (9), wonderful (9), great (9)",18
Enfield,Trinity Church,Church,51.6529184,-0.0868075,4.7,0.5748303671677907,0.06666666666666667,0.6,0.3333333333333333,"Maintenance, General, Comfort, Traffic, Cleanliness","parking (15), wonderful (9), maintained (9), good (9), great (6), noisy (3), busy (3), welcoming (3)",20
Enfield,Chase Family Church,Church,51.6524945,-0.0900862,4.8,0.6392506192127864,0.2,0.13333333333333333,0.6666666666666666,"Maintenance, Aesthetics, General","great (18), lovely (9), safe (6), messy (4)",11
Enfield,"Christ Church URC, Enfield",Church,51.65808200000001,-0.08846470000000001,4.4,0.5758217682441076,0.2,0.3333333333333333,0.4666666666666667,"Maintenance, Atmosphere, Aesthetics, General, Comfort, Noise","safe (12), peaceful (12), great (9), beautiful (9), stunning (9), serene (9), welcoming (9), lovely (9), tidy (3), noisy (3), connected (3), good (3), messy (2)",17
Enfield,Car Parking - Enfield Council,Parking,51.65385860000001,-0.0845995,2.7,0.45131427645683286,0.4,0.6,0.0,"Maintenance, Accessibility","easy (9), tidy (9), convenient (9), near (9), safe (6), parking (6), cars (6), noisy (6), old (3)",11
Enfield,New River Loop,Parking,51.6525389,-0.0794429,4.3,0.4619089861710866,0.3333333333333333,0.6666666666666666,0.0,"Aesthetics, Atmosphere, Accessibility, General, Noise, Traffic","parking (21), good (18), great (9), busy (9), easy (9), quiet (6), lovely (3), walking (3), cars (3)",6
Enfield,Genotin Road Car Park,Parking,51.65108420000001,-0.07921000000000002,5.0,0.4814610183238983,0.0,1.0,0.0,,,2
Enfield,Church Ln Parking,Parking,51.6537424,-0.08112699999999998,3.7,0.44113537669181824,0.0,1.0,0.0,"Accessibility, Traffic","parking (9), difficult (9)",3
Enfield,Palace Exchange Parking,Parking,51.6501247,-0.0815717,4.0,0.5571877638498942,0.0,0.9333333333333333,0.06666666666666667,"Atmosphere, Accessibility, General, Comfort, Traffic","parking (21), tight (9), difficult (9), busy (9), great (6), good (3), cars (3), safe (3)",35
Enfield,Sydney Road (Small) Car Park,Parking,51.6497454,-0.0819096,4.2,0.47850610613822936,0.4,0.4,0.2,"Accessibility, General","good (18), great (9), easy (9), parking (6), near (3), cars (3)",9
Enfield,Little Park Gardens,Parking,51.65369399999999,-0.08438849999999999,4.4,0.598928282658259,0.0,0.6,0.4,"Aesthetics, General","lovely (12), great (9), good (9), busy (6), parking (3)",17
Enfield,YourParkingSpace,Parking,51.6515213,-0.07622980000000001,5.0,0.0,0.0,0.0,0.0,,,2
Enfield,"NCP Car Park, Enfield",Parking,51.65197629999999,-0.0760343,5.0,0.0,0.0,0.0,0.0,,,1
Enfield,Palace Gardens Car Park,Parking,51.65172099999999,-0.0856909,3.3,0.6351357420285543,0.2,0.2,0.6,"Maintenance, Aesthetics, Accessibility, General, Traffic","parking (75), cars (36), safe (15), convenient (9), vehicle (9), great (9), noisy (9), bad (6), walking (6), tidy (3), good (3)",51
Enfield,Kings Garden Design,General Contractor,51.65428379999999,-0.1035756,5.0,0.5604382356007894,0.0,0.6666666666666666,0.3333333333333333,General,amazing (3),3
Enfield,Bush Hill Park,Park,51.6482129,-0.0675675,4.3,0.6802336414655049,0.0,0.2,0.8,"Maintenance, Atmosphere, Aesthetics, General, Traffic, Cleanliness","good (36), parking (18), maintained (18), great (18), relaxing (9), new (9), amazing (9), lovely (6), bikes (3), flow (3), messy (2)",546
Enfield,Enfield Playing Fields Football Pitches and outdoor gym,Park,51.6532812,-0.06248169999999999,4.3,0.624112743139267,0.0,0.4,0.6,"Maintenance, Atmosphere, Aesthetics, General, Comfort, Traffic, Cleanliness","great (27), parking (21), beautiful (18), lovely (12), excellent (9), rubbish (9), crowded (9), good (9), walking (9), tight (9), busy (9), safe (3), old (3)",196
Enfield,"New river path, short scenic riverside walk",Park,51.6387328,-0.08733170000000001,4.2,0.48508504033088684,0.2222222222222222,0.7777777777777778,0.0,Aesthetics,"walking (6), safe (3), lovely (3)",9
Enfield,Bush Hill Gardens,Park,51.6373948,-0.0814929,3.6,0.6315900733073553,0.0,0.3333333333333333,0.6666666666666666,"Maintenance, General, Cleanliness","parking (15), walking (12), maintained (9), rubbish (9), great (6), safe (3), tidy (3), good (3)",5
Enfield,North Enfield recreation ground,Park,51.6668209,-0.07862659999999998,4.4,0.5320875326792399,0.0,0.8,0.2,"Maintenance, Aesthetics, Atmosphere, General, Noise, Traffic, Cleanliness","great (54), good (36), parking (15), walking (12), lovely (12), old (9), noisy (9), muddy (9), busy (9), tidy (6), quiet (6), poor (3), safe (3)",168
Enfield,Greenfields Landscapes,General Contractor,51.66113970000001,-0.09963490000000001,5.0,0.0,0.0,0.0,0.0,,,1
Enfield,Cineworld - Enfield,Movie Theater,51.6501849,-0.06088419999999999,4.1,0.6132442553838094,0.2,0.26666666666666666,0.5333333333333333,"Maintenance, Atmosphere, General, Accessibility, Comfort, Traffic, Cleanliness","parking (21), great (18), tidy (18), improved (9), enjoyable (9), filthy (9), dirty (9), fantastic (9), clean (9), awful (9), comfortable (9), far (9), noisy (3)",5066
Enfield,Ladbrokes,Point Of Interest,51.6468796,-0.0649092,5.0,0.8386607766151428,0.0,0.0,1.0,General,amazing (6),2
Enfield,William Hill,Point Of Interest,51.6418572,-0.06858620000000001,4.0,0.0,0.0,0.0,0.0,,,1
Enfield,Waterhouse Photography,Point Of Interest,51.6422929,-0.0964167,5.0,0.9224431951840718,0.0,0.0,1.0,"Maintenance, Aesthetics, General, Accessibility, Comfort","comfortable (27), gorgeous (9), wonderful (9), stunning (9), tidy (9), amazing (9), great (9), easy (9), beautiful (3), messy (3), safe (3), noisy (3)",18
Enfield,Supreme,General Contractor,51.66602,-0.08318679999999999,3.3,0.7876302083333333,0.2,0.0,0.8,"Cleanliness, Noise, General, Traffic","noisy (18), parking (9), spotless (9), terrible (6), shouting (3), dead (3), dark (3), awful (3)",10
Enfield,Ladybird hair and beauty,Beauty Salon,51.642409,-0.067688,4.5,0.9033913453420003,0.0,0.0,1.0,"Maintenance, Aesthetics, Accessibility, General, Traffic","amazing (27), good (24), lovely (12), walking (9), excellent (9), old (9), great (9), far (9), safe (3), tidy (3)",37
Enfield,Gordon Hill,Transit Station,51.663048,-0.09424529999999999,3.8,0.6170194486776988,0.0,0.26666666666666666,0.7333333333333333,"Atmosphere, General, Noise, Traffic, Cleanliness","great (18), clean (18), tidy (18), parking (12), excellent (9), noisy (6), quiet (6), good (3), cars (3), safe (3), walking (3), pretty (3), roomy (3)",29
Enfield,Enfield Chase Station,Transit Station,51.6532271,-0.0899591,2.6,0.5902482191721599,0.2,0.2,0.6,"Maintenance, Aesthetics, Accessibility, General","new (18), busy (12), noisy (12), messy (12), old (9), tidy (9), far (9), excellent (9), lovely (9), fantastic (9), great (9), walking (3), safe (3), good (3), easy (1)",16
Enfield,Private Road,Transit Station,51.64468949999999,-0.07496399999999999,1.0,0.0,0.0,0.0,0.0,,,1
Enfield,Colosseum Retail Park,Shopping Mall,51.6509199,-0.05898879999999999,4.2,0.5378633777300517,0.0,0.7333333333333333,0.26666666666666666,"Atmosphere, Aesthetics, General, Noise, Traffic, Cleanliness","good (18), noisy (6), quiet (6), clean (6), tidy (3), safe (3)",641
Enfield,Hilly Fields Park,Park,51.66906979999999,-0.08814749999999999,4.6,0.7346482276916504,0.0,0.26666666666666666,0.7333333333333333,"Atmosphere, Aesthetics, Accessibility, General, Noise, Traffic","great (54), walking (42), amazing (18), lovely (18), parking (18), near (18), safe (12), beautiful (9), bad (9), wonderful (9), perfect (9), music (9), busy (9), easy (9), noisy (6), quiet (3)",572
Enfield,Adath Yisroel Burial Ground (בית החיים ענפילד),Cemetery,51.6621233,-0.06724089999999999,4.9,0.4084970951080322,0.6,0.4,0.0,"Maintenance, Atmosphere, General, Cleanliness","clean (9), maintained (9), dead (9), good (9), safe (3), tidy (3)",13
Enfield,Lavender Hill Cemetery,Cemetery,51.66641809999999,-0.09376939999999999,4.8,0.5991307616233825,0.0,0.7333333333333333,0.26666666666666666,"Maintenance, Atmosphere, General, Noise, Traffic, Cleanliness","clean (27), maintained (27), great (15), safe (12), walking (9), busy (7), quiet (6), messy (3)",23
Enfield,The Church of Jesus Christ of Latter-day Saints,Church,51.655033,-0.097643,4.7,0.6214931825796763,0.13333333333333333,0.4,0.4666666666666667,"Maintenance, Atmosphere, Noise, General","good (18), peaceful (18), old (9), calm (9), great (9), lovely (3)",14
Enfield,St Mark's Church,Church,51.6449142,-0.0664216,4.3,0.5160642703374226,0.3333333333333333,0.3333333333333333,0.3333333333333333,"Maintenance, Aesthetics, General","new (9), good (9), safe (3), lovely (3)",19
Enfield,Lancaster Road UR Church,Church,51.6641643,-0.0821866,4.8,0.5776953051487604,0.16666666666666666,0.3333333333333333,0.5,,safe (3),8
Enfield,Bush Hill Park Community Church,Church,51.643125,-0.06635959999999999,4.6,0.5818082888921102,0.06666666666666667,0.5333333333333333,0.4,"Aesthetics, Comfort, General","great (18), welcoming (9), lovely (6)",10
Enfield,Beacon of Light Spiritualist Church Enfield,Church,51.66380729999999,-0.0668782,4.7,0.6881497780481974,0.13333333333333333,0.26666666666666666,0.6,"Maintenance, Atmosphere, Aesthetics, General, Comfort, Safety","amazing (24), welcoming (18), messy (12), good (12), tidy (12), ugly (12), dangerous (9), bad (9), dead (9), worst (9), enjoyable (9), relaxing (9), cozy (9), lively (6), lovely (4), great (3), walking (3)",26
Enfield,Enfield Vineyard Church,Gym,51.6650525,-0.08732580000000001,4.7,0.6292409519354503,0.13333333333333333,0.4666666666666667,0.4,"Safety, Comfort, Accessibility, General","great (18), safe (12), good (12), lovely (10), convenient (9), welcoming (9), peaceful (3), cars (3), parking (3), messy (2)",44
Enfield,Polska Parafia św. Rodziny Enfield,Church,51.66178009999999,-0.09714659999999999,4.6,0.45431966582934064,0.4,0.4,0.2,"Maintenance, Atmosphere, Aesthetics, General, Accessibility, Noise, Traffic","parking (21), beautiful (9), peaceful (9), quiet (9), old (9), lovely (9), amazing (9), roomy (3), cars (3), lively (3)",58
Enfield,Suffolks Baptist Church,Church,51.6602682,-0.0575678,4.4,0.5016330828269323,0.0,1.0,0.0,General,"good (21), excellent (9), wonderful (9)",7
Enfield,Bury Street Community Church,Church,51.6345944,-0.0765394,5.0,0.6921894470850627,0.0,0.4,0.6,"Aesthetics, General","lovely (15), great (9)",14
Enfield,Jubilee Church London,Church,51.6501797,-0.0604494,4.7,0.6093785484631856,0.2,0.4,0.4,"Maintenance, Aesthetics, Atmosphere, General, Comfort, Noise","safe (15), beautiful (9), wonderful (9), vibrant (9), welcoming (9), loud (9), damaged (9), new (9), walking (6), lively (6), lovely (3), dead (3), dark (3), modern (3), active (3), connected (3), messy (3), pleasant (3), good (3)",184
Enfield,Bush Hill Park United Reformed Church,Church,51.6449684,-0.06769309999999999,4.8,0.5810833990573883,0.0,0.6,0.4,"Maintenance, Aesthetics, General, Comfort, Traffic","parking (21), lovely (15), good (9), old (9), welcoming (9), safe (6), spacious (6), roomy (3), cars (3), active (1)",18
Enfield,Bush Hill Park Station Car Park,Parking,51.6418643,-0.069788,5.0,0.0,0.0,0.0,0.0,,,1
Enfield,Sainsbury's,Parking,51.6526632,-0.0581486,4.5,0.4651000400384267,0.16666666666666666,0.8333333333333334,0.0,,"safe (3), neat (1), near (1), new (1)",11
Enfield,David Lloyd Car Park,Parking,51.6602261,-0.06226509999999999,4.0,0.5603620857000351,0.16666666666666666,0.3333333333333333,0.5,,"tidy (3), cars (3), parking (3)",2
Enfield,Lee Valley Regional Park Authority,Park,51.67495,-0.0610306,4.5,0.7482707103093466,0.0,0.2,0.8,"Aesthetics, Atmosphere, General, Accessibility, Noise, Traffic, Cleanliness","lovely (27), parking (27), good (18), quiet (18), clean (9), walking (9), beautiful (9), easy (9), noisy (6), safe (6), cars (3), dirty (3), flow (3), dead (3), dark (3), peaceful (3)",2471
Enfield,"Winchmore Hill Sports Club,The Paulin Ground",Park,51.6324804,-0.0894919,4.3,0.5804810484250387,0.0,0.8,0.2,"Maintenance, Aesthetics, Accessibility, General","lovely (24), near (12), great (9), safe (6), tidy (3), noisy (3), neat (3), new (3)",196
Enfield,Forty Hall Estate,Tourist Attraction,51.66994209999999,-0.06887289999999999,4.6,0.5868372182051341,0.0,0.4666666666666667,0.5333333333333333,"Maintenance, Aesthetics, Atmosphere, Accessibility, General, Traffic, Cleanliness","parking (21), clean (15), great (15), cars (12), walking (12), good (12), maintained (9), stunning (9), amazing (9), busy (9), terrible (9), lovely (6), far (6), safe (3)",2733
Enfield,Kaplan Drive / Pennington Drive Public Open Space,Park,51.6455699,-0.1154114,4.0,0.2553658187389374,1.0,0.0,0.0,,,10
Enfield,Woodcroft Wildspace,Park,51.631508,-0.1059125,4.7,0.7112571159998576,0.0,0.2,0.8,"Atmosphere, Accessibility, General","great (9), easy (9), accessible (9), safe (6), tidy (6), amazing (3), good (3), cozy (3), far (3), parking (3)",83
Enfield,Firs Farm Wetlands Park & Playing Fields,Park,51.6256632,-0.08830059999999999,4.5,0.6608554303646088,0.0,0.5333333333333333,0.4666666666666667,"Maintenance, Aesthetics, Accessibility, General, Comfort, Traffic, Cleanliness","lovely (21), parking (18), pleasant (9), excellent (9), easy (9), maintained (9), wonderful (9), beautiful (9), walking (6), tidy (3), improved (3), relaxing (3)",573
Enfield,Jubilee Park,Park,51.6353437,-0.0582025,4.4,0.6911073009173075,0.0,0.2,0.8,"Maintenance, Atmosphere, Aesthetics, General, Accessibility, Noise, Comfort, Traffic, Safety, Cleanliness","parking (68), great (36), lovely (27), peaceful (18), rubbish (18), walking (15), relaxing (12), charming (9), maintained (9), perfect (9), safe (9), serene (9), lively (9), calm (9), busy (9), accessible (9), pleasant (9), secure (9), easy (9), cars (6), beautiful (3), flow (3)",772
Enfield,Ladbrokes,Point Of Interest,51.63499040000001,-0.093377,1.0,0.4700380166371663,0.0,1.0,0.0,,,1
Enfield,Chase Farm Hospital,Hospital,51.66689239999999,-0.1028125,3.8,0.6799125870068868,0.06666666666666667,0.4,0.5333333333333333,"Maintenance, Aesthetics, Atmosphere, Accessibility, General, Cleanliness","clean (30), good (18), wonderful (18), messy (12), maintained (9), excellent (9), calm (9), far (6), spotless (6), roomy (3), noisy (3), bad (3)",495
Enfield,Enfield Bus Garage (Arriva),Bus Station,51.6476312,-0.05068460000000001,5.0,0.788888951142629,0.0,0.0,1.0,,busy (3),2
Enfield,Whitewebbs Park,Park,51.6751632,-0.08523900000000001,4.5,0.5707493801911672,0.2,0.2,0.6,"Maintenance, Aesthetics, Noise, General","lovely (27), great (27), parking (21), beautiful (18), old (9), amazing (9), music (9), tidy (6), protected (3), wonderful (3), safe (3), walking (3)",170
Enfield,Woodlands Lake,Tourist Attraction,51.67525769999999,-0.0703014,4.7,0.5193532903989156,0.26666666666666666,0.4666666666666667,0.26666666666666666,"Atmosphere, Noise, General, Aesthetics","peaceful (12), beautiful (9), relaxing (9), wonderful (9), pretty (9), tidy (3), safe (3), good (3)",18
Enfield,Flash Lane Aqueduct,Tourist Attraction,51.6775974,-0.08795029999999998,4.2,0.5211040198802948,0.26666666666666666,0.3333333333333333,0.4,"Maintenance, Aesthetics, General, Accessibility, Noise, Traffic","old (36), new (18), flow (12), music (9), safe (9), walking (9), beautiful (6), amazing (6), near (3), muddy (3), parking (3), good (3)",15
Enfield,Grovelands Park,Natural Feature,51.6336609,-0.1101954,4.7,0.6446735858917236,0.0,0.3333333333333333,0.6666666666666666,"Aesthetics, Accessibility, General, Comfort, Traffic","parking (31), walking (15), lovely (15), enjoyable (9), great (6), good (6), noisy (3), near (3)",78
Enfield,Boxer's Lake,Natural Feature,51.6496208,-0.1145042,4.6,0.495017143090566,0.13333333333333333,0.6666666666666666,0.2,"Maintenance, Aesthetics, Accessibility, General","beautiful (18), lovely (15), old (9), bad (9), pretty (9), far (6), busy (6), safe (6), poor (3), noisy (3), good (3), parking (3), messy (3)",15
Enfield,Whitewebbs Wood,Natural Feature,51.6794431,-0.087099,4.7,0.6672266092565324,0.2222222222222222,0.1111111111111111,0.6666666666666666,"Maintenance, Aesthetics, General, Traffic, Cleanliness","lovely (12), great (9), walking (9), new (9), good (9), muddy (9)",6
Enfield,Boxer's Lake,Natural Feature,51.6502803,-0.1133993,4.0,0.3008292019367218,1.0,0.0,0.0,,,1
Enfield,Williams Wood,Natural Feature,51.6616272,-0.1247123,5.0,0.3535943627357483,1.0,0.0,0.0,Maintenance,old (7),1
Enfield,Edmonton Cemetery,Cemetery,51.63033219999999,-0.07935949999999999,3.9,0.6078640083471935,0.0,0.5333333333333333,0.4666666666666667,"Maintenance, Aesthetics, Atmosphere, Accessibility, General, Safety, Cleanliness","beautiful (27), empty (18), maintained (18), tidy (15), safe (12), accessible (9), neglected (9), neat (9), unsafe (9), terrible (9), clean (6), noisy (3), dead (3), dark (3), new (3), muddy (3), good (3)",30
Enfield,Hertford Road Cemetery,Cemetery,51.65541630000001,-0.0476388,3.9,0.4909656047821045,0.3333333333333333,0.4166666666666667,0.25,"Accessibility, Traffic","vehicle (9), convenient (9)",7
Enfield,Strayfield Road Cemetery,Cemetery,51.67192739999999,-0.09925249999999998,4.2,0.49291835029919945,0.26666666666666666,0.5333333333333333,0.2,"Maintenance, General, Traffic, Safety, Cleanliness","maintained (15), unsafe (9), driving (9), safe (6), noisy (6), walking (3), poor (3), damaged (3), vehicle (3), messy (3), flow (3), peaceful (3)",11
Enfield,Ponders End Methodist Church,Church,51.6496249,-0.0466147,4.8,0.6435058752695719,0.0,0.4,0.6,"Maintenance, Aesthetics, General, Comfort, Cleanliness","lovely (18), new (12), great (9), modern (9), wonderful (9), beautiful (9), spacious (6), clean (6), neat (3), near (3)",12
Enfield,Lincoln Road Chapel,Church,51.6436439,-0.0485849,4.7,0.6891952772935231,0.0,0.3333333333333333,0.6666666666666666,"Maintenance, Aesthetics, General, Comfort, Noise, Cleanliness","great (18), tidy (12), wonderful (9), pleasant (9), new (9), clean (9), amazing (9), excellent (9), music (9), lovely (9), perfect (3)",15
Enfield,Ponders End URC Church,Church,51.6447703,-0.0475767,4.4,0.6087689618269603,0.06666666666666667,0.4,0.5333333333333333,"Maintenance, Aesthetics, General, Accessibility","great (18), near (9), lovely (6), cars (3), parking (3), old (2)",15
Enfield,Victory in Christ Ministries,Church,51.64572039999999,-0.04629229999999999,3.7,0.5968722701072693,0.0,0.5,0.5,General,"great (9), safe (3)",3
Enfield,Jesus Church Forty Hill,Church,51.6708884,-0.0634911,5.0,0.47588516771793365,0.25,0.5,0.25,"Atmosphere, Noise, Accessibility, General","quiet (9), easy (9), perfect (3), parking (3), connected (3)",8
Enfield,Trent Park,Park,51.66009479999999,-0.1345135,4.6,0.5757110595703125,0.0,0.6666666666666666,0.3333333333333333,"Maintenance, Atmosphere, Aesthetics, Accessibility, General, Comfort, Traffic, Cleanliness","parking (45), new (36), lovely (12), busy (9), beautiful (9), tidy (9), spacious (9), cyclists (9), near (9), easy (9), renovated (9), maintained (9), cars (6), safe (6), good (3), walking (3), dirty (3), poor (3)",2983
Enfield,Wildlife Rescue & Ambulance Service (Enfield),Tourist Attraction,51.65746199999999,-0.139431,4.5,0.5687033116817475,0.0,0.6666666666666666,0.3333333333333333,"Maintenance, Aesthetics, Atmosphere, Accessibility, General, Traffic, Cleanliness","lovely (27), parking (18), great (9), safe (9), old (9), busy (9), wonderful (9), amazing (9), far (8), maintained (6), noisy (6), roomy (3), good (3)",421
Enfield,Enfield Distribution Park,Park,51.6462764,-0.0304398,4.0,0.41626836111148197,0.4166666666666667,0.5833333333333334,0.0,"Maintenance, General","modern (9), good (9), parking (3)",29
Enfield,JJL Trees LTD,Storage,51.68365339999999,-0.0990977,5.0,0.7699862202008565,0.06666666666666667,0.06666666666666667,0.8666666666666667,"Aesthetics, General, Cleanliness","great (24), pristine (9), excellent (9), tidy (6), clean (6), dead (3), dark (3)",38
Enfield,Enfield Distribution Park,Park,51.6631997,-0.0272053,4.7,0.3983593185742696,0.5,0.5,0.0,,,3
Enfield,Conway Road Recreation Ground,Park,51.62328619999999,-0.1188227,4.5,0.5478149612744649,0.06666666666666667,0.7333333333333333,0.2,"Aesthetics, Atmosphere, Accessibility, General, Comfort, Noise, Cleanliness","lovely (18), great (9), near (9), peaceful (9), good (9), enjoyable (9), tidy (9), clean (6), walking (3)",44
Enfield,Southgate Green,Park,51.6245955,-0.1254691,4.3,0.5873175660769144,0.0,0.6666666666666666,0.3333333333333333,"Maintenance, Aesthetics, Accessibility, General, Traffic","lovely (33), great (18), safe (9), good (9), parking (9), lively (3), near (3), old (3)",97
Enfield,Tottenhall Recreation Ground,Park,51.61056019999999,-0.095211,4.3,0.612423304716746,0.13333333333333333,0.4666666666666667,0.4,"Maintenance, Safety, General, Traffic","great (27), walking (18), good (15), messy (12), noisy (9), old (9), parking (6), safe (6), wonderful (3), bikes (3)",241
Enfield,Garden of Remembrance,Park,51.6165868,-0.1179233,4.7,0.6245107471942901,0.0,0.4,0.6,"Atmosphere, Aesthetics, General, Accessibility, Noise, Traffic, Safety","quiet (27), good (9), wonderful (9), difficult (9), beautiful (9), security (9), parking (3), flow (3), noisy (3), lovely (2)",45
Enfield,William Hill,Point Of Interest,51.64759830000001,-0.034403,3.0,0.6339330342080858,0.2222222222222222,0.0,0.7777777777777778,General,great (9),6
Enfield,High Street Car Park,Transit Station,51.6847232,-0.03413249999999999,5.0,0.5561655163764954,0.0,1.0,0.0,"General, Traffic","parking (9), bad (9)",1
Enfield,Oakwood,Subway Station,51.6476401,-0.1318275,4.3,0.5195728321870168,0.26666666666666666,0.5333333333333333,0.2,"Maintenance, Aesthetics, Accessibility, General, Traffic, Safety","central (18), safe (18), beautiful (18), perfect (9), bikes (9), updated (4), walking (3), near (3), busy (1)",143
Enfield,Southgate,Subway Station,51.632317,-0.12779,4.3,0.6252813875675202,0.13333333333333333,0.26666666666666666,0.6,"Maintenance, Aesthetics, General, Accessibility, Cleanliness","old (21), excellent (18), tidy (9), elegant (9), central (9), clean (9), noisy (9), poor (9), messy (3), parking (3), beautiful (3), roomy (3)",90
Enfield,Cockfosters,Subway Station,51.6516667,-0.1497377,4.0,0.6170145193735759,0.0,0.6,0.4,"Maintenance, Aesthetics, Atmosphere, General, Accessibility, Comfort, Traffic, Safety, Cleanliness","safe (21), beautiful (18), good (18), clean (12), neglected (9), busy (9), awful (9), easy (9), old (9), cars (6), spacious (6), roomy (3), noisy (3), tidy (3), parking (3)",94
Enfield,Edmonton Green Shopping Centre,Shopping Mall,51.6247756,-0.0573816,3.9,0.7075873732566833,0.0,0.2,0.8,"Maintenance, General, Accessibility","noisy (12), outdated (9), modern (9), tidy (9), excellent (9), good (9), great (9), bad (9), difficult (9), amazing (9), safe (6), pretty (3)",7755
Enfield,South Mall,Shopping Mall,51.62364150000001,-0.058619,4.0,0.6657291849454244,0.0,0.4,0.6,"Maintenance, Atmosphere, Accessibility, General, Comfort, Traffic, Cleanliness","good (15), convenient (9), easy (9), perfect (9), pleasant (9), maintained (9), accessible (9), busy (9), safe (6), near (6), tidy (6)",1884
Enfield,Empire House,Shopping Mall,51.60849959999999,-0.08592859999999998,3.0,0.4290696382522583,0.5,0.5,0.0,"Accessibility, General, Comfort, Traffic, Safety","security (9), parking (9), convenient (9), great (9), near (9), spacious (9), modern (3), busy (3), safe (3)",2
Enfield,Whitewebbs Museum of Transport,Museum,51.6813431,-0.09507639999999999,4.8,0.8582692623138428,0.0,0.0,1.0,"Maintenance, Aesthetics, General, Accessibility, Comfort, Noise","old (18), lovely (15), perfect (9), welcoming (9), good (9), buzzing (9), wonderful (9), fantastic (6), near (3), tidy (3)",310
Enfield,"All Saints Church, Edmonton",Tourist Attraction,51.6258502,-0.0655293,4.4,0.6042703032493592,0.2,0.13333333333333333,0.6666666666666666,"Maintenance, Atmosphere, General, Comfort, Noise","renovated (9), active (9), great (9), fantastic (9), welcoming (9), quiet (9), good (3), safe (3), old (3), peaceful (3)",64
Enfield,Rumiؒ Mosque,Mosque,51.62074459999999,-0.0622832,4.8,0.7490177969137828,0.0,0.26666666666666666,0.7333333333333333,"Maintenance, Atmosphere, Aesthetics, General, Accessibility, Comfort, Noise, Traffic, Cleanliness","peaceful (27), clean (27), wonderful (18), welcoming (18), easy (18), maintained (12), serene (9), stunning (9), parking (9), near (9), convenient (9), messy (6), beautiful (6), roomy (6), busy (6), safe (6), noisy (3), good (3), connected (3)",468
Enfield,Go Ape Cockfosters London,Tourist Attraction,51.65421449999999,-0.1518371,4.7,0.7602911432584126,0.0,0.2,0.8,"Aesthetics, Accessibility, General, Safety, Cleanliness","good (30), safe (18), difficult (12), amazing (9), fantastic (9), lovely (9), dark (9), dirty (9), parking (6), tidy (6)",1188
Enfield,"George Grey, Earl of Harold Memorial-Obelisk",Tourist Attraction,51.6665296,-0.1425315,4.7,0.5060326516628265,0.4,0.2,0.4,"Atmosphere, Comfort, Noise","safe (12), pleasant (9), walking (6), parking (3)",36
Enfield,Pymmes Park,Park,51.6177077,-0.069621,4.2,0.5469371140003204,0.0,0.8666666666666667,0.13333333333333333,"Maintenance, Aesthetics, Atmosphere, Accessibility, General, Comfort, Noise, Traffic, Safety, Cleanliness","parking (33), good (27), lovely (18), safe (18), maintained (18), dangerous (9), near (9), terrible (9), loud (9), music (9), pleasant (9), great (9), empty (9), walking (9), beautiful (9), trash (6), tidy (6), rubbish (3)",1853
Enfield,Grovelands Park,Park,51.62986959999999,-0.1170059,4.7,0.6411853770414988,0.0,0.6,0.4,"Maintenance, Aesthetics, Accessibility, General, Traffic, Cleanliness","parking (36), lovely (18), perfect (18), near (18), beautiful (15), convenient (12), safe (9), great (9), clean (9), charming (9), gorgeous (9), maintained (6), tidy (6), walking (3), spotless (3), poor (3)",2300
Enfield,Capel Manor Gardens,Park,51.680121,-0.0553427,4.6,0.7750985344250997,0.0,0.0,1.0,"Maintenance, Aesthetics, Accessibility, General, Comfort, Traffic, Cleanliness","lovely (45), perfect (27), excellent (18), old (18), good (9), parking (9), beautiful (9), amazing (9), clean (9), pleasant (9), easy (9), stunning (6), tidy (6), wonderful (6), walking (6), safe (6), fantastic (6), flow (3), cozy (3)",1466
Enfield,Oak Wood,Natural Feature,51.6589658,-0.1483485,5.0,0.0,0.0,0.0,0.0,,,1
Enfield,King George's Reservoir,Natural Feature,51.6439141,-0.0206271,4.8,0.6106359362602234,0.0,0.0,1.0,"Atmosphere, General, Aesthetics","beautiful (9), calm (9), relaxing (9), great (9)",13
Enfield,William Girling Reservoir,Natural Feature,51.62943139999999,-0.0250353,4.3,0.5516059160232544,0.3333333333333333,0.2,0.4666666666666667,"Aesthetics, Accessibility","beautiful (9), good (3), near (3)",12
Enfield,Boating Lake,Natural Feature,51.6318475,-0.1136933,4.3,0.5678117126226425,0.0,0.6666666666666666,0.3333333333333333,General,"good (9), safe (3), tidy (3), dead (3), dark (3), walking (3), parking (3)",3
Enfield,Cat Hill Chase Side Pond,Natural Feature,51.6448938,-0.1470731,5.0,0.0,0.0,0.0,0.0,,,2
Enfield,Ride Wood,Natural Feature,51.6655703,-0.1321205,5.0,0.0,0.0,0.0,0.0,,,1
Enfield,Shaws Wood,Natural Feature,51.6580027,-0.1272819,4.0,0.0,0.0,0.0,0.0,,,1
Enfield,South Osiers,Natural Feature,51.68702949999999,-0.0704982,4.2,0.496963232755661,0.0,1.0,0.0,General,good (9),6
Enfield,Square Planting,Natural Feature,51.68834330000001,-0.0764121,4.1,0.6800330777963003,0.0,0.0,1.0,"Atmosphere, Aesthetics","beautiful (9), relaxing (6)",16
Enfield,Home Plantation,Natural Feature,51.6906454,-0.0819607,5.0,0.0,0.0,0.0,0.0,,,1
Enfield,Western Cemetery (Cheshunt),Cemetery,51.68482780000001,-0.0598683,4.3,0.5099664529164633,0.25,0.5,0.25,"Maintenance, Atmosphere, Noise, Aesthetics","peaceful (9), beautiful (9), lovely (3)",9
Enfield,Jewish Joint Burial Society,Cemetery,51.6861858,-0.0679632,4.8,0.730923056602478,0.0,0.0,1.0,Aesthetics,beautiful (9),4
Enfield,Western & West End Great Synagogue,Cemetery,51.6850385,-0.059945,5.0,0.0,0.0,0.0,0.0,,,1
Enfield,Edmonton Federation Cemetery Chapel (Jewish),Cemetery,51.6201513,-0.0538762,4.2,0.6059540410836538,0.5,0.0,0.5,Traffic,"walking (9), noisy (3)",5
Enfield,Tottenham Park Cemetery,Cemetery,51.62097410000001,-0.05027040000000001,4.1,0.7901318709055583,0.0,0.06666666666666667,0.9333333333333333,"Maintenance, Atmosphere, Aesthetics, General, Accessibility, Noise, Safety, Cleanliness","new (63), safe (21), neglected (18), tidy (12), improved (12), horrible (9), peaceful (9), excellent (9), fantastic (9), far (9), worst (9), damaged (9), noisy (6), parking (3), good (3), protected (3), muddy (3), lovely (1)",58
Enfield,Federation of Synagogues,Cemetery,51.62044340000001,-0.0503229,3.3,0.2846148908138275,1.0,0.0,0.0,,,6
Enfield,Western Cemetery (Edmonton),Cemetery,51.61959519999999,-0.0523513,5.0,0.25480398535728455,1.0,0.0,0.0,General,great (9),2
Enfield,Southgate Cemetery,Cemetery,51.625858,-0.1322929,4.7,0.5760724047819773,0.06666666666666667,0.5333333333333333,0.4,"Maintenance, Atmosphere, Aesthetics, Accessibility, Noise, Traffic, Cleanliness","easy (9), traffic (9), busy (9), maintained (9), beautiful (9), new (9), noisy (3)",9
Enfield,Trent Park Cemetery,Cemetery,51.6529348,-0.1499561,2.6,0.580566958586375,0.2,0.3333333333333333,0.4666666666666667,"Maintenance, Aesthetics, Atmosphere, Accessibility, Traffic, Cleanliness","lovely (18), beautiful (9), messy (9), tidy (9), empty (9), filthy (9), old (9), central (9), flow (6), noisy (6), safe (3), dead (3), dark (3), parking (3), clean (3), broken (3)",10
Enfield,"St Thomas's Church, Oakwood",Church,51.6451448,-0.126217,4.8,0.7516272902488709,0.0,0.26666666666666666,0.7333333333333333,"Maintenance, Aesthetics, General, Comfort, Traffic","welcoming (27), lovely (27), wonderful (18), good (18), beautiful (9), modern (9), great (9), safe (3), fantastic (3)",40
Enfield,St Edmunds R C Church,Church,51.62911769999999,-0.05652409999999999,4.5,0.5626011411348979,0.06666666666666667,0.4666666666666667,0.4666666666666667,"Maintenance, Atmosphere, Aesthetics, General, Noise, Cleanliness","lovely (36), messy (27), quiet (12), peaceful (9), old (9), maintained (9), bad (9), safe (6), good (6), ugly (6), neat (3), near (3), new (3), cozy (3)",107
Enfield,"St Paul's Church, Winchmore Hill",Church,51.6354656,-0.1059373,4.6,0.6047858685255051,0.2,0.4,0.4,"Aesthetics, Accessibility, General, Noise, Comfort","safe (21), wonderful (18), beautiful (9), silent (9), music (9), welcoming (9), good (3), pretty (3), cars (3), parking (3), lovely (3), near (3)",33
Enfield,Winchmore Hill United Reformed Church,Church,51.6322576,-0.1012923,4.3,0.6745323459307353,0.0,0.3333333333333333,0.6666666666666666,"Maintenance, Aesthetics, Accessibility, General, Noise, Comfort, Traffic","new (45), lovely (24), old (18), great (18), parking (12), central (9), good (9), welcoming (9), amazing (9), safe (6), near (6), music (3), roomy (3), cars (3), dead (3), dark (3), noisy (3), appealing (3), wonderful (3), fantastic (3)",15
Enfield,Tramway Christian Fellowship,Church,51.6355429,-0.05111719999999999,5.0,0.7470289667447408,0.1111111111111111,0.0,0.8888888888888888,"Aesthetics, Comfort, General","great (18), welcoming (12), excellent (9), beautiful (9)",4
Enfield,St Peter's Church,Church,51.6284889,-0.0506525,4.3,0.5603209833304087,0.0,0.6666666666666666,0.3333333333333333,"Maintenance, Atmosphere, Aesthetics, Accessibility, General, Comfort","welcoming (15), near (12), new (12), fantastic (9), vibrant (9), lovely (9), beautiful (6), calm (6), messy (3), tidy (3), neat (3)",50
Enfield,Holy Trinity Winchmore Hill,Church,51.6304019,-0.09640739999999996,4.5,0.5459110200405121,0.0,0.6666666666666666,0.3333333333333333,"Aesthetics, Accessibility, Traffic, General","lovely (27), parking (9), beautiful (9), good (9), near (3), cars (3), pristine (3)",14
Enfield,Dudrich (Holdings) Limited,Parking,51.63404449999999,-0.1269949,2.8,0.7413362781206767,0.0,0.2,0.8,"Maintenance, Traffic, General, Cleanliness","good (30), damaged (22), new (18), parking (15), messy (12), tidy (12), disappointing (9), poor (9), cars (9), maintained (9), terrible (9), safe (3), risky (3), threatening (3), repaired (3), active (3)",78
Enfield,Albany Pool Car Park,Parking,51.66850909999999,-0.04083209999999999,3.8,0.5503476386268934,0.08333333333333333,0.6666666666666666,0.25,"Maintenance, Aesthetics, General, Traffic, Cleanliness","parking (15), safe (12), damaged (9), rubbish (9), horrible (9), old (9), lovely (3), tidy (3), noisy (3), ugly (3), cars (3)",4
Enfield,Oakwood Station Parking,Parking,51.6477898,-0.1310715,3.9,0.5283421158790589,0.0,0.8666666666666667,0.13333333333333333,"Safety, Accessibility, Traffic","parking (33), secure (18), convenient (18), safe (12), messy (12), tidy (9), near (6), noisy (3), old (3)",15
