Borough,Location Name,Type,latitude,longitude,Rating,Overall Sentiment Score,Negative Score,Neutral Score,Positive Score,Main Issues,Emotion Keywords,Review Count
Bexley,Town Park (King George's Playing Fields),Park,51.4583466,0.1414979,3.4,0.40165555477142334,0.5555555555555556,0.4444444444444444,0.0,"Cleanliness, Aesthetics, Safety","safe (12), clean (12), parking (9), messy (9), tidy (9), lovely (9), police (9), beautiful (6), neat (2), near (2), new (2)",10
Bexley,Palmar Gardens,Park,51.4637571,0.1431165,4.3,0.46396190524101255,0.4,0.4,0.2,"Noise, Maintenance, Atmosphere, Safety","quiet (21), walking (3), relaxing (3), safe (3)",15
Bexley,Hall Place & Gardens,Tourist Attraction,51.4471009,0.160306,4.6,0.7596235970656077,0.0,0.26666666666666666,0.7333333333333333,"Accessibility, Noise, Comfort, Cleanliness, Atmosphere, Maintenance, Aesthetics, Traffic, General","wonderful (27), great (27), fantastic (18), relaxing (18), beautiful (15), safe (15), lovely (15), walking (10), stunning (9), vibrant (9), busy (9), crowded (9), bad (9), accessible (9), peaceful (9), renovated (9), enjoyable (9), old (9), clean (6), roomy (6), tidy (3), dark (3), dead (3), cars (3), parking (3), flow (3)",3450
Bexley,Danson Park Adventures,Park,51.4543412,0.1218903,4.5,0.6995180090268452,0.0,0.3333333333333333,0.6666666666666666,"Accessibility, Noise, Comfort, Maintenance, General","great (27), old (18), welcoming (9), buzzing (9), good (9), amazing (9), safe (3), neat (3), near (3), new (3), bad (3), busy (3), parking (3), pretty (3), walking (3), easy (3)",95
Bexley,Gravel Hill Green,Park,51.450939,0.1460885,4.0,0.4970894753932953,0.0,1.0,0.0,"Traffic, Aesthetics, General","walking (10), great (9), good (9), lovely (3), parking (3)",3
Bexley,The Warren,Park,51.4504342,0.1465049,5.0,0.4978623588879903,0.0,1.0,0.0,Aesthetics,lovely (9),2
Bexley,Martens Grove Park,Park,51.4570313,0.1610661,4.4,0.5535696307818095,0.0,0.8,0.2,"Accessibility, Noise, Cleanliness, Atmosphere, Maintenance, Traffic, Aesthetics, General","good (54), parking (50), quiet (18), walking (18), bad (9), noisy (9), great (9), clean (9), lovely (9), old (9), safe (6), perfect (3), near (3), cars (3)",249
Bexley,Russell Park,Park,51.46204040000001,0.1498741,4.1,0.6285923441251119,0.0,0.6,0.4,"Maintenance, Atmosphere, Traffic, General","great (27), good (21), busy (12), walking (9), old (9), noisy (6), lovely (6), parking (6), lively (3), safe (3)",240
Bexley,"Hall Place, North Park",Park,51.45051039999999,0.1606821,4.3,0.6083113332589467,0.0,0.6,0.4,"Cleanliness, Traffic, Aesthetics, General","beautiful (45), good (18), walking (16), lovely (12), neglected (9), safe (3), flow (3), noisy (3)",44
Bexley,London Butterfly Gardens,Park,51.44883269999999,0.1605195,5.0,0.8393235524495443,0.0,0.0,1.0,"Noise, Comfort, Atmosphere, Maintenance, Aesthetics, Traffic, General","walking (30), beautiful (27), lovely (18), calm (18), great (18), good (12), safe (12), wonderful (9), renovated (9), relaxing (9), enjoyable (9), old (9), amazing (9), parking (6), stunning (6), noisy (3), tidy (3)",87
Bexley,Hall Place,Park,51.447917,0.1593297,4.3,0.710237177213033,0.0,0.2,0.8,"Accessibility, Maintenance, Traffic, Aesthetics, General","beautiful (27), parking (27), good (18), great (12), lovely (9), safe (6), walking (3), tidy (3), near (3)",15
Bexley,Jambs Owls,Park,51.4481024,0.1618907,4.8,0.7589392145474751,0.0,0.2,0.8,"Maintenance, Aesthetics, General","wonderful (18), great (18), fantastic (9), excellent (9), lovely (9), safe (3), updated (3)",111
Bexley,The Golden Acre,Park,51.44198040000001,0.1445238,4.4,0.6000572959582011,0.0,0.4666666666666667,0.5333333333333333,"Cleanliness, Aesthetics, Accessibility, General","good (21), beautiful (9), excellent (9), great (9), tidy (3), parking (3), near (3), lovely (3)",61
Bexley,The Green,Park,51.46923149999999,0.1471659,4.2,0.5567243218421936,0.26666666666666666,0.3333333333333333,0.4,"Aesthetics, Safety","beautiful (18), dangerous (9), walking (6), safe (3), lovely (3)",17
Bexley,Yorkshire Building Society,Finance,51.4567373,0.1448785,5.0,0.6134504556655884,0.0,0.6,0.4,"Maintenance, Comfort, Accessibility, General","old (27), good (18), far (9), welcoming (9), pleasant (9), great (9), modern (9), fantastic (9), amazing (3)",5
Bexley,Ladbrokes,Point Of Interest,51.456872,0.1419555,3.0,0.4619700064261754,0.25,0.75,0.0,Aesthetics,"lovely (6), safe (6), tidy (3)",6
Bexley,Ladbrokes,Point Of Interest,51.4659336,0.1457313,3.6,0.6030797561009725,0.5,0.0,0.5,General,excellent (9),5
Bexley,Matisse Salon,Hair Care,51.4657272,0.1576641,4.9,0.893112854162852,0.0,0.0,1.0,"Maintenance, Comfort, Aesthetics, General","amazing (42), lovely (21), welcoming (18), messy (18), comfortable (18), safe (6), stunning (3), tidy (3)",110
Bexley,National Trust - Red House,Tourist Attraction,51.4554789,0.1303488,4.4,0.6852006296316783,0.0,0.2,0.8,"Accessibility, Cleanliness, Atmosphere, Maintenance, Traffic, Aesthetics, General","lovely (33), beautiful (27), wonderful (18), old (12), great (9), safe (9), parking (9), near (9), difficult (9), maintained (9), pretty (9), empty (9), good (9), flow (3), roomy (3), busy (3), relaxing (3)",601
Bexley,Bexleyheath Library (Stop E),Transit Station,51.4558528,0.1439452,3.0,0.4561476359764735,0.5,0.5,0.0,,busy (12),2
Bexley,Hall Place Car Park,Transit Station,51.4485776,0.1607253,4.5,0.0,0.0,0.0,0.0,,,2
Bexley,Asda Car Park,Transit Station,51.45832189999999,0.1425629,5.0,0.47351886828740436,0.0,1.0,0.0,,,1
Bexley,Oaklands Road Car Park,Transit Station,51.45668639999999,0.1393074,3.5,0.53640016913414,0.0,1.0,0.0,,"cars (3), parking (3)",4
Bexley,Market Place Clock Tower,Transit Station,51.45651400000001,0.1469235,5.0,0.6566700339317322,0.0,0.0,1.0,"Noise, Atmosphere, General","quiet (9), great (9), safe (3)",1
Bexley,Bexleyheath Library,Transit Station,51.455874,0.1439466,5.0,0.5417655110359192,0.0,1.0,0.0,,,3
Bexley,Trinity Place,Transit Station,51.4571669,0.1408853,5.0,0.0,0.0,0.0,0.0,,,1
Bexley,Bexley Library (Stop G),Bus Station,51.44232900000001,0.150935,5.0,0.502054492632548,0.0,1.0,0.0,,"safe (3), busy (3)",1
Bexley,Bexleyheath Station (Stop BF),Bus Station,51.464695,0.132853,3.0,0.518274744351705,0.5,0.25,0.25,"Maintenance, Traffic, General","busy (12), parking (9), safe (9), good (9), noisy (3), walking (3), tidy (3)",5
Bexley,Broadway Shopping Centre,Shopping Mall,51.4559773,0.1467615,4.1,0.6772158900896709,0.0,0.4666666666666667,0.5333333333333333,"Accessibility, Safety, Comfort, Cleanliness, Atmosphere, Maintenance, Traffic, General","good (27), convenient (18), safe (15), busy (15), cars (10), relaxing (9), clean (9), spacious (9), vibrant (9), easy (9), walking (3), parking (3), attractive (3)",6733
Bexley,Bexleyheath Clock Tower,Tourist Attraction,51.456468,0.1466136,4.2,0.556211405992508,0.0,0.8,0.2,"Accessibility, Noise, Cleanliness, Atmosphere, Maintenance, Aesthetics, Traffic, General","good (27), great (18), lively (9), maintained (9), charming (9), vehicle (9), traffic (9), central (9), easy (9), lovely (6), relaxing (3), safe (3), walking (3)",1207
Bexley,Boating Pool,Natural Feature,51.4528849,0.1190159,4.0,0.0,0.0,0.0,0.0,,,1
Bexley,Martens Grove,Natural Feature,51.4561113,0.165256,5.0,0.0,0.0,0.0,0.0,,,1
Bexley,Eighty Oak Wood,Natural Feature,51.44873920000001,0.1558559,5.0,0.7391322056452433,0.0,0.0,1.0,Aesthetics,beautiful (9),2
Bexley,Bursted Wood,Natural Feature,51.465973,0.1550344,4.4,0.641855525970459,0.0,0.4,0.6,"Accessibility, Cleanliness, Atmosphere, Traffic, Aesthetics, General","walking (18), good (18), tidy (18), beautiful (15), parking (15), great (9), busy (9), lovely (9), pretty (9), safe (6), relaxing (3), poor (3), near (3), messy (3)",16
Bexley,Bigs Hill Wood,Natural Feature,51.4521716,0.1659667,4.0,0.0,0.0,0.0,0.0,,,1
Bexley,Bexley Woods,Natural Feature,51.4426956,0.133269,4.6,0.6493139147758484,0.0,0.4,0.6,"Accessibility, Noise, Atmosphere, Aesthetics, Traffic, General","walking (27), relaxing (16), wonderful (15), amazing (9), beautiful (9), easy (9), great (9), good (6), parking (3), peaceful (3), flow (3), fantastic (3), lovely (1)",14
Bexley,Churchfield Wood,Natural Feature,51.4415109,0.1620514,4.0,0.48889288306236267,0.0,1.0,0.0,Cleanliness,clean (3),1
Bexley,Bexleyheath Cemetery,Cemetery,51.458414,0.1401248,4.8,0.6266955385605494,0.08333333333333333,0.5833333333333334,0.3333333333333333,"Noise, Atmosphere, Maintenance, Aesthetics, General","beautiful (18), quiet (9), old (9), great (9), walking (5), calm (3), relaxing (3), peaceful (3), noisy (3)",5
Bexley,Geddes Place United Reformed Church,Church,51.4570443,0.1470382,4.4,0.5269062638282775,0.13333333333333333,0.5333333333333333,0.3333333333333333,"Maintenance, Comfort, Noise, General","great (36), good (24), welcoming (18), comfortable (18), amazing (12), awful (9), safe (6), roomy (6), dark (3), dead (3), old (3), tidy (3), messy (3)",20
Bexley,Bexley Christian Life Centre,Church,51.46045300000001,0.139207,4.8,0.5789139171441396,0.2,0.4,0.4,"Comfort, Aesthetics, General","lovely (21), good (18), great (18), welcoming (9), lively (3), safe (3)",41
Bexley,Bethany Hall,Church,51.4588544,0.1474693,5.0,0.2644551396369934,1.0,0.0,0.0,,good (3),2
Bexley,New Covenant Church,Church,51.4548382,0.1521587,5.0,0.0,0.0,0.0,0.0,,,1
Bexley,RCCG Zone Of Resurrection,Church,51.45739769999999,0.1419692,5.0,0.4616510768731435,0.3333333333333333,0.6666666666666666,0.0,,"safe (3), lovely (3)",1
Bexley,Christ Embassy Bexleyheath,Church,51.4505044,0.1401541,4.7,0.7677802244822184,0.0,0.0,1.0,,messy (3),3
Bexley,Barnehurst Methodist Church,Church,51.463081,0.1589479,4.4,0.4951088676850001,0.2,0.6,0.2,General,"good (21), great (15)",10
Bexley,Salvation Army Church,Church,51.45752520000001,0.1360271,4.7,0.7621189733346303,0.06666666666666667,0.13333333333333333,0.8,"Maintenance, Aesthetics, General","great (27), lovely (15), new (9), messy (5), appealing (3)",12
Bexley,Bexley United Reformed Church,Church,51.4415054,0.1460974,4.1,0.5885346670945485,0.13333333333333333,0.6,0.26666666666666666,"Noise, Maintenance, Comfort, Aesthetics","welcoming (15), beautiful (9), gorgeous (9), music (9), messy (6), good (3), old (3), safe (3), noisy (3), lovely (2)",8
Bexley,Saint Mary of the Crays Catholic Church,Church,51.4538362,0.1726459,4.8,0.6384368141492208,0.0,0.4,0.6,"Comfort, Aesthetics, General","lovely (21), beautiful (15), great (9), safe (3), welcoming (3)",23
Bexley,Bexley Baptist Chapel,Church,51.44240779999999,0.1505277,5.0,0.7159610589345297,0.0,0.0,1.0,,,4
Bexley,St John Fisher R C Church,Church,51.4423249,0.1488385,4.7,0.7324756860733033,0.0,0.13333333333333333,0.8666666666666667,"Accessibility, Comfort, Atmosphere, Maintenance, Aesthetics, General","welcoming (36), lovely (18), good (9), relaxing (9), new (9), lively (8), messy (3), tidy (3), safe (3), difficult (3), remote (3)",39
Bexley,Crayford Baptist Church,Church,51.45215279999999,0.1736768,5.0,0.6249625583489736,0.0,0.5,0.5,"Cleanliness, Atmosphere, Aesthetics, Traffic, General","lovely (9), clean (9), parking (9), lively (9), amazing (6), safe (3), good (3)",6
Bexley,"St Mary the Virgin, Bexley",Church,51.4401875,0.153755,4.8,0.6924943367640177,0.2,0.0,0.8,"Maintenance, Aesthetics, General","amazing (9), great (9), lovely (9), old (9), safe (3), walking (3)",13
Bexley,"St Peter's, Bexleyheath",Church,51.46889229999999,0.1347421,4.7,0.575207112232844,0.0,0.6666666666666666,0.3333333333333333,"Noise, Comfort, Cleanliness, Atmosphere, Aesthetics, General","good (27), lovely (15), welcoming (9), beautiful (9), peaceful (9), neat (9), clean (9)",23
Bexley,"St John Vianney RC Church, Bexleyheath",Church,51.4557624,0.1375345,4.6,0.6293609420458476,0.0,0.4,0.6,"Noise, Atmosphere, Aesthetics, General","good (18), lovely (9), peaceful (9)",34
Bexley,Christ Church Bexleyheath,Church,51.45748749999999,0.1411335,4.6,0.7564403653144837,0.0,0.0,1.0,"Accessibility, Comfort, Cleanliness, Aesthetics, General","wonderful (63), welcoming (18), good (15), lovely (15), safe (12), tidy (12), messy (9), beautiful (9), great (9), perfect (9), clean (9), easy (9), comfortable (9), appealing (9), dark (6), dead (6), busy (3), peaceful (3), near (3)",75
Bexley,Grace Baptist Church Bexleyheath,Church,51.45443479999999,0.1493114,4.7,0.6533594528834025,0.0,0.4,0.6,"Comfort, Aesthetics, General","great (27), lovely (12), welcoming (9), good (9), messy (3), safe (3)",9
Bexley,"Redeemed Christian Church of God, Winners Pavilion",Church,51.45504019999999,0.1520906,5.0,0.8857645392417908,0.0,0.0,1.0,General,"excellent (9), lovely (3)",1
Bexley,Broadway Square Car Park - Highland Road,Parking,51.4552883,0.1490789,3.8,0.5312987069288889,0.13333333333333333,0.6666666666666666,0.2,"Accessibility, Atmosphere, Maintenance, Traffic, Aesthetics, General","parking (57), cars (15), new (9), great (9), convenient (9), busy (9), perfect (9), noisy (6), safe (6), tidy (6), messy (3), good (3)",54
Bexley,Albion Road Car Park,Parking,51.45478680000001,0.1506563,4.3,0.44001098970572156,0.4166666666666667,0.5,0.08333333333333333,"Accessibility, Noise, Cleanliness, Atmosphere, Traffic","cars (12), rubbish (9), quiet (9), parking (6), empty (3), near (3)",6
Bexley,Marriot Hotel car park and Broadway car park,Parking,51.45527999999999,0.1516984,3.2,0.5467662637432417,0.25,0.5,0.25,"Safety, Cleanliness, Maintenance, Traffic, General","parking (81), vehicle (18), cars (9), safe (9), clean (9), great (9), messy (6), tidy (6), good (3), walking (3)",6
Bexley,Bexley Council Multistorey Car Park,Parking,51.4558711,0.1509106,3.5,0.5395660122235616,0.26666666666666666,0.4666666666666667,0.26666666666666666,"Accessibility, Comfort, Cleanliness, Maintenance, Traffic","parking (36), rubbish (9), easy (9), clean (9), near (9), improved (9), convenient (9), noisy (6), cars (6), spacious (6), good (3), safe (3)",11
Bexley,Cinema Car Park,Parking,51.4560494,0.151107,4.0,0.5601239502429962,0.0,1.0,0.0,"Traffic, General","good (9), parking (9)",4
Bexley,Broadway Shopping Centre,Parking,51.4556861,0.1484659,3.0,0.0,0.0,0.0,0.0,,,1
Bexley,Car Park The Broadway Shopping Centre | APCOA,Parking,51.455438,0.1449125,4.2,0.5435892403125763,0.13333333333333333,0.4,0.4666666666666667,"Maintenance, Traffic, Accessibility, General","parking (57), good (21), easy (21), cars (15), broken (9), great (9), safe (3), tidy (3)",29
Bexley,NCP Bexleyheath Royal Oak Road,Parking,51.456086,0.1427585,3.4,0.5949049770832062,0.2,0.26666666666666666,0.5333333333333333,"Accessibility, Cleanliness, Maintenance, Traffic, General","parking (24), cars (21), clean (18), tidy (12), amazing (9), dirty (9), easy (9), messy (8), great (6), safe (3), good (3), bad (3), busy (3)",11
Bexley,Oaklands Car Park,Parking,51.45668639999999,0.1393074,3.8,0.565589169661204,0.2,0.6,0.2,"Traffic, General","parking (24), good (18), terrible (9), tidy (3), cars (3)",8
Bexley,Bowling Centre,Parking,51.4565707,0.137798,4.1,0.5768241027990977,0.0,0.4,0.6,"Maintenance, General, Safety","good (9), old (9), dark (9), worst (9), great (9)",14
Bexley,Hall Place Car Park,Parking,51.44857269999999,0.1609453,5.0,0.4863317807515462,0.0,1.0,0.0,"Traffic, Atmosphere","parking (12), busy (9), cars (3), noisy (3)",1
Bexley,Barnehurst Station Car Park,Parking,51.4652336,0.1605657,5.0,0.9222182234128317,0.0,0.0,1.0,,"tidy (3), cars (3)",2
Bexley,Bexley carpark,Parking,51.442195,0.1497594,3.6,0.4539961536725362,0.3333333333333333,0.6666666666666666,0.0,"Aesthetics, Accessibility, General","convenient (9), cars (9), parking (9), good (9), noisy (3), messy (3), tidy (3), safe (3)",8
Bexley,Thanet Road Car Park,Parking,51.4421844,0.1498296,5.0,0.3754698981841405,0.5,0.5,0.0,,"cars (3), parking (3), messy (1)",3
Bexley,Bexley Central Library,Library,51.45567,0.1436749,4.5,0.6123505791028341,0.0,0.5333333333333333,0.4666666666666667,"Traffic, Accessibility, General","parking (9), convenient (9), great (9), safe (3), tidy (3)",64
Bexley,Bexley Village Community Library,Library,51.44271519999999,0.1508227,4.6,0.7280749215020074,0.0,0.0,1.0,"Aesthetics, General","lovely (12), great (9), safe (6)",8
Bexley,Library Plus,Library,51.4557421,0.1437447,5.0,0.7886590560277303,0.0,0.0,1.0,,,2
Bexley,Crook Log Leisure Centre,Gym,51.4600742,0.1251232,3.9,0.486045695344607,0.2,0.6,0.2,"Accessibility, Cleanliness, Maintenance, Aesthetics, General","good (36), clean (29), safe (21), great (18), bad (9), accessible (9), tidy (6), messy (6), lovely (3)",981
Bexley,Schools-Plus,School,51.4595023,0.1451817,2.3,0.967453529437383,0.0,0.0,1.0,,"messy (6), noisy (3), tidy (3)",3
Bexley,Bexley Guitar Lessons,School,51.4530338,0.1460438,5.0,0.6826151609420776,0.0,0.0,1.0,,,1
Bexley,Kumon Maths & English,School,51.45423570000001,0.1566741,5.0,0.7307246128718058,0.0,0.2,0.8,"Maintenance, Aesthetics, Accessibility, General","great (18), excellent (18), safe (9), wonderful (9), lovely (9), easy (9), amazing (9), old (9), fantastic (6), tidy (3), noisy (3)",21
Bexley,Bright Horizons Bexleyheath Day Nursery and Preschool,School,51.46220939999999,0.1283865,4.4,0.7676947712898254,0.0,0.2,0.8,"Maintenance, Accessibility, Safety, General","good (27), excellent (18), old (18), safe (12), difficult (9), new (9), great (9), tidy (9), poor (9), messy (5), perfect (3), lovely (3)",12
Bexley,Bexleyheath Academy,School,51.459789,0.144416,3.1,0.7961740295092264,0.0,0.2,0.8,"Safety, Comfort, Maintenance, Aesthetics, General","tidy (39), safe (30), noisy (18), old (18), good (15), poor (12), security (9), police (9), horrible (9), welcoming (9), modern (9), excellent (9), bad (6), dark (6), dead (6), lovely (6), messy (3), walking (3), fantastic (3)",95
Bexley,Risedale Pre-school,School,51.46294289999999,0.1583008,4.0,0.4969632923603058,0.0,1.0,0.0,General,good (9),1
Bexley,Tiny Explorer Kids Nursery Limited,School,51.4653095,0.1580514,4.7,0.7600975453853607,0.0,0.2,0.8,"Accessibility, Safety, Comfort, Cleanliness, Maintenance, Aesthetics, General","great (36), safe (18), old (18), amazing (18), good (9), pleasant (9), lovely (9), clean (9), improved (9), excellent (9), fantastic (6), shouting (3), tidy (3), noisy (3), messy (3), difficult (3), lively (2)",15
Bexley,Danson Aunties Pre School,School,51.4615555,0.1268348,4.0,0.6557947968443235,0.0,0.3333333333333333,0.6666666666666666,"Accessibility, Comfort, Cleanliness, Maintenance, Aesthetics, General","safe (18), comfortable (18), old (12), amazing (9), awful (9), improved (9), lovely (9), welcoming (9), difficult (9), clean (9), great (9), near (6), messy (3), tidy (3), neglected (3), walking (3)",4
Bexley,Jack and Jill’s Preschool ltd,School,51.4689829,0.134633,5.0,0.8134991774956385,0.0,0.0,1.0,"Maintenance, Aesthetics, Accessibility, General","fantastic (15), lovely (7), far (6), good (3), pretty (3)",6
Bexley,Ice Tickles Childcare Services,School,51.44636449999999,0.1747503,4.4,0.8114589552084605,0.0,0.2,0.8,"Accessibility, Safety, Comfort, Cleanliness, Maintenance, Aesthetics, General","clean (18), comfortable (18), messy (18), excellent (18), safe (15), lovely (12), peaceful (3), noisy (3), convenient (2), updated (1)",7
Bexley,Learning & Enterprise College Bexley,University,51.46098980000001,0.1262218,3.9,0.652039353052775,0.06666666666666667,0.4666666666666667,0.4666666666666667,"Maintenance, Cleanliness, Accessibility, General","clean (18), great (18), good (12), tidy (9), difficult (9), central (9), worst (9), near (6), noisy (6), messy (3), safe (3), bad (3)",56
Bexley,Bursted Wood Surgery,Hospital,51.4657716,0.1534135,3.2,0.798395057519277,0.0,0.0,1.0,"Accessibility, Noise, Comfort, Cleanliness, Maintenance, Aesthetics, General","safe (12), tidy (9), unpleasant (9), bad (9), modern (9), outdated (9), lovely (9), amazing (9), loud (6), roomy (6), near (3), risky (3), good (3)",53
Bexley,The Lodge,Museum,51.4486164,0.1598174,5.0,0.0,0.0,0.0,0.0,,,1
Bexley,Bexley Allotments - Valentine Ave,Park,51.43728170000001,0.1326934,4.0,0.4356526732444763,0.6666666666666666,0.0,0.3333333333333333,"Aesthetics, General","great (9), lovely (6), safe (3)",9
Bexley,Bexley Allotments - Lesney Farm,Park,51.475583,0.1635678,4.2,0.4800018091996511,0.2,0.6,0.2,"Maintenance, Cleanliness","new (12), maintained (3), safe (3), tidy (3)",45
Bexley,Bexley Allotments - Sherwood Park Avenue,Park,51.4458353,0.1122049,4.4,0.6213938355445862,0.0,0.6,0.4,"Maintenance, General","broken (9), worst (9), wonderful (9), amazing (9), safe (6), tidy (3), noisy (3), lively (3)",15
Bexley,Stevens Park,Park,51.4706088,0.1212929,4.2,0.7055089076360067,0.0,0.13333333333333333,0.8666666666666667,"Cleanliness, Aesthetics, General","good (30), great (27), trash (9), parking (9), lovely (9), walking (6), tidy (6), noisy (6), poor (3), pretty (3), safe (3)",136
Bexley,Old English Garden,Park,51.4570979,0.1185556,4.9,0.6856218059857686,0.0,0.3333333333333333,0.6666666666666666,"Cleanliness, Maintenance, Aesthetics, Traffic, General","great (27), maintained (18), charming (18), lovely (9), relaxing (9), gorgeous (9), wonderful (9), flow (6), beautiful (6)",19
Bexley,Danson Park,Park,51.4551228,0.1175883,4.6,0.737727040052414,0.0,0.2,0.8,"Accessibility, Cleanliness, Atmosphere, Maintenance, Traffic, Aesthetics, General","parking (30), beautiful (27), tidy (18), walking (15), safe (15), lovely (12), near (9), perfect (9), old (9), clean (9), busy (9), maintained (9), good (3), flow (3), cars (3), relaxing (1)",2547
Bexley,Bexley Allotments,Park,51.4297316,0.1355893,4.3,0.7247116963068644,0.0,0.2222222222222222,0.7777777777777778,"Noise, Atmosphere, General","peaceful (12), wonderful (9), excellent (9), good (3)",11
Bexley,Erith Park Estate,Park,51.4739192,0.1795974,4.1,0.5665633837381999,0.0,0.8666666666666667,0.13333333333333333,"Maintenance, Traffic, Accessibility, General","new (27), parking (27), easy (18), near (11), great (9), improved (9), good (9), fantastic (6), amazing (6), lively (3), safe (3), noisy (3)",36
Bexley,The Dell,Park,51.4744726,0.1796849,4.0,0.5523443669080734,0.0,0.6666666666666666,0.3333333333333333,,"good (3), relaxing (3)",4
Bexley,Wilmot Park,Park,51.4505931,0.1955541,4.2,0.6699769616127014,0.0,0.26666666666666666,0.7333333333333333,"Maintenance, Comfort, Safety, General","great (18), parking (12), safe (12), good (9), fantastic (9), secure (9), pleasant (9), new (9), lovely (3), walking (3), bikes (3), peaceful (3)",155
Bexley,Thames Road Wetland,Park,51.4560455,0.1976639,4.2,0.5659622748692831,0.0,0.6,0.4,"Cleanliness, Maintenance, Aesthetics, Traffic, General","walking (19), safe (15), maintained (9), new (9), pretty (9), beautiful (9), good (9), great (9), disappointing (7), lovely (3)",17
Bexley,Bexley Allotments - Lesnes Abbey,Park,51.488154,0.1406477,4.6,0.676392424106598,0.0,0.4,0.6,"Aesthetics, General","lovely (18), great (18), wonderful (15), beautiful (9), safe (9), fantastic (3)",23
Bexley,Bexley Allotments - Ripley Road,Park,51.489579,0.1444526,4.4,0.6030625760555267,0.3333333333333333,0.2,0.4666666666666667,General,"excellent (9), good (9), great (9), safe (3)",14
Bexley,Foots Cray Meadows,Park,51.4242681,0.1223231,4.6,0.6887859145800272,0.0,0.26666666666666666,0.7333333333333333,"Accessibility, Safety, Noise, Comfort, Cleanliness, Atmosphere, Maintenance, Aesthetics, Traffic, General","amazing (54), good (51), safe (36), great (33), lovely (18), perfect (18), walking (15), ugly (12), beautiful (9), relaxing (9), easy (9), parking (9), comfortable (9), old (9), new (9), traffic (9), secure (9), tidy (3), roomy (3), cozy (3), dark (3), dead (3)",1413
Bexley,Bracton Centre,Transit Station,51.43377479999999,0.1790627,1.8,0.7234737649559975,0.25,0.0,0.75,"Maintenance, Comfort, General","safe (39), good (18), horrible (18), unpleasant (18), messy (18), old (9), terrible (9), tidy (6), noisy (6), lively (3)",4
Bexley,Crayford Bridge (Stop D),Bus Station,51.4510343,0.1795528,4.0,0.0,0.0,0.0,0.0,,,1
Bexley,Crayford Town Hall (Stop M),Bus Station,51.4503545,0.1804923,4.0,0.3417195876439412,1.0,0.0,0.0,,,4
Bexley,Crayford Town Hall (Stop E),Bus Station,51.4503848,0.1809978,4.0,0.0,0.0,0.0,0.0,,,2
Bexley,Canterbury Avenue (Stop F),Bus Station,51.43658800000001,0.119543,3.0,0.39101513226826984,0.6666666666666666,0.3333333333333333,0.0,,"safe (3), busy (3)",1
Bexley,"Tower Retail Park, Crayford",Shopping Mall,51.4503736,0.1817619,4.1,0.5764200588067373,0.13333333333333333,0.26666666666666666,0.6,"Accessibility, Noise, Comfort, Atmosphere, Maintenance, Traffic, General","good (39), parking (21), busy (18), bad (9), tight (9), traffic (9), excellent (9), new (9), old (9), cars (6), safe (6), tidy (6), near (3)",1222
Bexley,Erith Riverside Shopping Centre,Shopping Mall,51.48028559999999,0.1805674,3.8,0.5316764056682587,0.2,0.6,0.2,"Accessibility, Atmosphere, Maintenance, Traffic, General","parking (42), empty (27), old (18), great (12), good (9), near (6), cars (3), noisy (3), safe (3)",2478
Bexley,Danson House / Bexley Register Office,Tourist Attraction,51.4568778,0.118352,4.5,0.7262501935164134,0.0,0.26666666666666666,0.7333333333333333,"Maintenance, Comfort, Aesthetics, General","beautiful (30), perfect (25), elegant (18), lovely (12), charming (9), welcoming (9), stunning (9), fantastic (9), enjoyable (9), parking (9), amazing (9), comfortable (9), great (9), old (9), lighting (6), messy (6), roomy (3), safe (3), cars (3)",363
Bexley,Lesnes Abbey Wood Fossil Park,Tourist Attraction,51.4874257,0.1305524,4.6,0.7101081291834513,0.0,0.2,0.8,"Noise, Atmosphere, Maintenance, Aesthetics, General","beautiful (24), safe (18), lovely (18), good (12), wonderful (9), perfect (9), peaceful (9), old (9), parking (6), walking (6), tidy (3)",107
Bexley,"Braeburn Park, London Wildlife Trust",Tourist Attraction,51.4438835,0.1736763,4.5,0.5911275883515675,0.06666666666666667,0.4666666666666667,0.4666666666666667,"Noise, Atmosphere, Traffic, Aesthetics, General","great (24), walking (18), good (15), lovely (9), quiet (9)",63
Bexley,Bexley’s Charter Oak,Tourist Attraction,51.454899,0.1180558,5.0,0.6523598167631361,0.0,0.4444444444444444,0.5555555555555556,"Maintenance, Aesthetics, General","fantastic (18), stunning (9), great (9), old (9), parking (3)",3
Bexley,Ancient Tree,Tourist Attraction,51.43436089999999,0.1724351,5.0,0.27947025497754413,1.0,0.0,0.0,Maintenance,"old (9), safe (3)",1
Bexley,Christmas Lights Fundraising,Tourist Attraction,51.45799599999999,0.1100029,4.8,0.752663379907608,0.06666666666666667,0.06666666666666667,0.8666666666666667,"Maintenance, Cleanliness, Aesthetics, General","great (18), amazing (9), old (9), rubbish (9), fantastic (9), lighting (6), clean (6), lovely (6), noisy (3), loud (3), active (3)",18
Bexley,Lamorbey Park (The Glades),Park,51.4375924,0.105669,4.5,0.5992180248101552,0.0,0.4666666666666667,0.5333333333333333,"Accessibility, Comfort, Traffic, Aesthetics, General","parking (30), lovely (24), gorgeous (18), noisy (9), near (9), pleasant (9), scenic (9), amazing (6), safe (3), relaxing (3), lively (3), walking (3)",295
Bexley,Frank's Park,Park,51.4874982,0.1595665,4.3,0.544484390815099,0.0,0.8,0.2,"Comfort, Aesthetics, General","great (18), pleasant (18), lovely (18), walking (15), parking (15), amazing (9), fantastic (9), good (9), safe (3)",317
Bexley,The chalk pit,Tourist Attraction,51.4863136,0.1334828,4.0,0.4156948169072469,0.5333333333333333,0.4,0.06666666666666667,"Safety, Aesthetics, Accessibility, General","good (12), scenic (9), dangerous (9), tidy (6), near (6), safe (3), walking (3), noisy (3)",6
Bexley,Lesnes Abbey Woods,Park,51.4859648,0.1315379,4.7,0.7533536513646444,0.0,0.2,0.8,"Noise, Comfort, Atmosphere, Maintenance, Aesthetics, Traffic, General","parking (21), new (21), peaceful (21), good (21), beautiful (18), serene (18), stunning (18), perfect (18), tidy (9), wonderful (9), inviting (9), great (9), walking (9), safe (6), charming (6), old (3), dark (3), dead (3)",142
Bexley,Wooden Hurricane sculpture,Tourist Attraction,51.42179669999999,0.1576442,5.0,0.0,0.0,0.0,0.0,,,2
Bexley,Danson Park,Natural Feature,51.45748589999999,0.1131684,4.6,0.6813333193461101,0.0,0.26666666666666666,0.7333333333333333,"Accessibility, Cleanliness, Atmosphere, Aesthetics, General","parking (21), lovely (15), great (12), near (9), beautiful (9), stunning (9), safe (6), crowded (6), clean (3), walking (3), messy (3)",35
Bexley,Lesnes Abbey Wood,Natural Feature,51.48734140000001,0.1334823,4.7,0.6770197312037151,0.0,0.26666666666666666,0.7333333333333333,"Noise, Cleanliness, Atmosphere, Maintenance, Traffic, Aesthetics, General","beautiful (36), walking (18), old (18), amazing (12), great (9), maintained (9), peaceful (9), parking (6), good (6), tidy (3), flow (3)",52
Bexley,Abbey Woods,Natural Feature,51.4840741,0.1180478,4.8,0.5478131671746572,0.0,1.0,0.0,Aesthetics,stunning (6),5
Bexley,Anchor Bay,Natural Feature,51.480194,0.1910586000000001,5.0,0.0,0.0,0.0,0.0,,,1
Bexley,Joyden's Wood,Natural Feature,51.4269166,0.1566507,4.8,0.6803923368453979,0.2,0.0,0.8,"Accessibility, Noise, Atmosphere, Aesthetics, General","lovely (9), stunning (9), beautiful (9), calm (9), gorgeous (9), noisy (9), isolated (9), great (9), walking (6), relaxing (3), lively (3), safe (3)",64
Bexley,Lime Wood,Natural Feature,51.4791791,0.1614437,5.0,0.0,0.0,0.0,0.0,,,1
Bexley,Bostall Woods,Natural Feature,51.4821117,0.1099654,4.6,0.5228488961855571,0.2,0.6,0.2,"Traffic, Aesthetics, General","great (36), lovely (27), walking (27), amazing (9), cars (6), parking (6), good (6), bikes (3)",48
Bexley,North Cray Wood,Natural Feature,51.4272828,0.1247684,4.0,0.0,0.0,0.0,0.0,,,2
Bexley,Gattons Wood,Natural Feature,51.425301,0.1427715,4.0,0.0,0.0,0.0,0.0,,,1
Bexley,Frank's Park,Natural Feature,51.4879681,0.1577284,4.8,0.5065699736277263,0.0,1.0,0.0,"Accessibility, Cleanliness, Atmosphere, Aesthetics, Traffic, General","rubbish (18), great (18), walking (12), parking (9), clean (9), good (9), busy (9), pretty (9), near (9), lovely (9), tidy (6), noisy (3), safe (3), lively (3)",16
Bexley,Erith Cemetery,Cemetery,51.47976420000001,0.1536419,3.0,0.3627513647079468,1.0,0.0,0.0,Accessibility,"near (3), dark (3), dead (3)",2
Bexley,Sidcup Cemetery,Cemetery,51.43566249999999,0.1218192,4.9,0.7719340274731318,0.0,0.25,0.75,"Noise, Atmosphere, Traffic, General","parking (9), fantastic (9), peaceful (6), safe (3), flow (3)",7
Bexley,Plumstead Cemetery,Cemetery,51.4761993,0.1121436,3.9,0.6235085308551789,0.13333333333333333,0.3333333333333333,0.5333333333333333,"Noise, Cleanliness, Atmosphere, Aesthetics, General","peaceful (15), safe (12), lovely (9), good (9), great (9), neglected (9), beautiful (9), calm (9), dead (9), clean (9), noisy (3)",9
Bexley,"St James the Great Church, Blendon",Church,51.44383829999999,0.119906,4.6,0.5440410137176513,0.13333333333333333,0.4666666666666667,0.4,"Comfort, Aesthetics, General","great (18), safe (9), good (9), lovely (9), pleasant (9), plain (3)",18
Bexley,Capuchin Franciscan Friars,Church,51.477726,0.1626917,5.0,0.7438697020212809,0.0,0.0,1.0,"Noise, Atmosphere, General","peaceful (9), great (9)",6
Bexley,Rccg Covenant Of Peace,Church,51.4483722,0.1178127,5.0,0.5811611950397492,0.0,0.4666666666666667,0.5333333333333333,"Aesthetics, General","safe (18), good (18), lovely (10), wonderful (9)",8
Bexley,Pantiles Methodist Church,Church,51.4740805,0.141938,4.4,0.6826545000076294,0.0,0.16666666666666666,0.8333333333333334,"Comfort, Aesthetics, General","tight (9), lovely (9), great (6), safe (3), good (3)",8
Bexley,"St Barnabas Church, Joydens Wood",Church,51.4314475,0.1672101,4.8,0.5916293495231204,0.0,0.2222222222222222,0.7777777777777778,"Accessibility, Safety, Comfort, Traffic, Aesthetics, General","lovely (24), spacious (12), lighting (9), good (9), parking (9), remote (9), great (9), safe (6), noisy (3), cars (3)",5
Bexley,North Heath Community Library,Library,51.473189,0.1610178,4.4,0.5293380002180735,0.0,1.0,0.0,"Aesthetics, Accessibility, General","lovely (12), safe (9), central (9), good (9), poor (6), noisy (3)",15
Bexley,Summerhouse Drive Library,Library,51.42619520000001,0.1667274000000001,4.1,0.6165107687314352,0.0,0.4666666666666667,0.5333333333333333,"Comfort, Aesthetics, General","lovely (18), good (9), welcoming (6), safe (3)",8
Bexley,Erith Library,Library,51.4794227,0.181308,4.4,0.6305246988932292,0.13333333333333333,0.4666666666666667,0.4,"Accessibility, Noise, Atmosphere, Maintenance, Aesthetics, Traffic, General","lovely (24), safe (12), easy (9), excellent (9), old (9), loud (9), busy (9), worst (9), peaceful (9), great (9), good (6), messy (3), active (3)",48
Bexley,Slade Green and Howbury Community Centre and Library,Library,51.47351020000001,0.1909101,4.2,0.5999978284041086,0.0,0.4,0.6,"Accessibility, Cleanliness, Atmosphere, Maintenance, Traffic, General","good (27), clean (18), parking (18), safe (12), great (9), difficult (9), noisy (9), easy (9), calm (9), old (9), messy (6), tidy (3)",45
Bexley,Crayford Library,Library,51.44993460000001,0.1801064,4.5,0.719923754533132,0.0,0.0,1.0,"Accessibility, Noise, Comfort, Atmosphere, Maintenance, Aesthetics, Traffic, General","near (18), busy (18), messy (15), quiet (15), lovely (12), amazing (9), safe (9), wonderful (9), excellent (9), welcoming (9), calm (9), pleasant (9), great (6), roomy (6), tidy (3), noisy (3), dark (3), dead (3)",35
Bexley,Ashen Drive Library,Library,51.4439825,0.1902284,4.2,0.6658864766359329,0.0,0.5,0.5,"Maintenance, General","excellent (18), disappointing (9), safe (9), tidy (6)",5
Bexley,Welling Library,Library,51.46252249999999,0.1062255,4.8,0.5739288230737051,0.2,0.26666666666666666,0.5333333333333333,"Cleanliness, Aesthetics, Accessibility, General","clean (18), lovely (15), convenient (9), safe (9), good (9), tidy (6), near (3), relaxing (3)",20
Bexley,Libraryplus,Library,51.4626073,0.1062123,5.0,0.5193125903606415,0.0,0.6666666666666666,0.3333333333333333,,,1
Bexley,Upper Belvedere Library,Library,51.4840412,0.1452834,4.4,0.6674273669719696,0.13333333333333333,0.26666666666666666,0.6,"Accessibility, Cleanliness, Maintenance, Traffic, Aesthetics, General","parking (21), great (18), convenient (18), good (18), new (18), amazing (15), lovely (12), tidy (12), central (9), neat (9), updated (3), vehicle (3), wonderful (3)",23
Bexley,Rose Bruford College,University,51.4383328,0.107549,4.6,0.7161091248194377,0.0,0.2,0.8,"Safety, Comfort, Maintenance, Aesthetics, General","lovely (18), excellent (9), improved (9), beautiful (9), welcoming (9), great (9), amazing (9), safe (3), parking (3), old (3), dark (3), tidy (3)",32
Bexley,London South East Colleges: Bexley,University,51.4817543,0.1770958,3.5,0.7349319219589233,0.0,0.4,0.6,"Accessibility, Cleanliness, Atmosphere, Maintenance, Traffic, General","good (33), old (24), bad (18), new (18), tidy (12), safe (9), messy (9), busy (9), worst (9), rubbish (9), great (9), easy (9), noisy (6), wonderful (3), upgraded (3), roomy (3)",51
Bexley,Bird College,University,51.4317111,0.1074946,4.6,0.7265899062156678,0.0,0.26666666666666666,0.7333333333333333,"Maintenance, Aesthetics, General","old (18), amazing (18), bad (12), good (9), great (9), cars (3), calm (3), cozy (3), lovely (3)",20
Bexley,London South East Colleges: Bexley (Construction Skills Campus),University,51.4839326,0.1555757,3.7,0.6020365595817566,0.0,0.4,0.6,Safety,"security (9), noisy (6), messy (3)",18
Bexley,Wina Tutorial College,University,51.4387616,0.1244307,5.0,0.7766114274660746,0.0,0.0,1.0,General,"great (9), excellent (9), amazing (6), good (3)",8
Bexley,Slade Green Medical Centre,Hospital,51.47080589999999,0.1908276,2.3,0.8000966866811117,0.0,0.2,0.8,"Accessibility, Comfort, Maintenance, Aesthetics, General","messy (36), easy (15), awful (9), ugly (9), improved (9), comfortable (9), terrible (9), worst (6), noisy (6), good (6), tidy (6), neat (3), near (3), new (3), bad (3)",104
Bexley,Erith and District Hospital,Hospital,51.476933,0.1673859,3.1,0.7199925025304158,0.0,0.06666666666666667,0.9333333333333333,"Noise, Atmosphere, Maintenance, Aesthetics, General","excellent (18), wonderful (9), old (9), empty (9), buzzing (9), poor (9), good (6), easy (6), noisy (3), safe (3), tidy (3), walking (3), messy (3), cars (3), parking (3)",150
Bexley,Cygnet Bostall House,Hospital,51.48277,0.1208819,4.3,0.4851400852203369,0.0,1.0,0.0,General,good (9),3
Bexley,Belvedere Medical Centre,Hospital,51.4821811,0.1446424,2.3,0.6874053875605265,0.0,0.2,0.8,"Accessibility, Noise, Comfort, Aesthetics, General","comfortable (18), great (18), welcoming (15), difficult (9), loud (9), tidy (6), messy (6), safe (3), good (3)",239
Bexley,Colyers Lane Medical Centre,Hospital,51.4712326,0.1733569,2.5,0.6775806347529093,0.06666666666666667,0.2,0.7333333333333333,"Noise, Comfort, Maintenance, Aesthetics, General","old (18), tidy (15), messy (9), lovely (9), poor (9), comfortable (9), great (9), silent (9), wonderful (6), safe (6), dark (3), dead (3), noisy (3), improved (3), easy (1)",22
Bexley,Belvedere Clinic,Hospital,51.48354389999999,0.1219242,2.9,0.7905471384525299,0.06666666666666667,0.13333333333333333,0.8,"Aesthetics, Accessibility","ugly (15), lovely (9), far (9), stunning (9), messy (3), tidy (3), safe (3)",79
Bexley,Bexley Camhs,Hospital,51.4769555,0.1666651,2.3,0.6610248486200968,0.5,0.0,0.5,"Aesthetics, General","tidy (9), pretty (9), terrible (9), safe (3)",3
Bexley,Bracton Centre,Hospital,51.4341008,0.1785416,3.0,0.7174991567929586,0.0,0.0,1.0,,,2
Bexley,Ultraworld Scanning Services,Hospital,51.47995720000001,0.180161,5.0,0.8122807184855143,0.0,0.0,1.0,"Accessibility, Comfort, Atmosphere, Aesthetics, General","welcoming (27), beautiful (21), fantastic (18), great (18), easy (9), lovely (9), messy (9), calm (9), amazing (9), comfortable (9), lighting (3), roomy (3), tidy (3)",145
Bexley,Sidcup Medical Centre,Hospital,51.4452844,0.1051193,2.2,0.5661093612511953,0.2,0.6,0.2,"Maintenance, Aesthetics, Accessibility, General","safe (21), noisy (21), good (18), easy (12), great (9), lovely (9), far (9), bad (9), amazing (9), tidy (6), messy (6), shouting (3), wonderful (3), dark (3), dead (3)",39
Bexley,First Tribunal,Museum,51.46101530000001,0.1129841,1.0,0.0,0.0,0.0,0.0,,,1
Bexley,Central Park,Park,51.4401667,0.220013,4.5,0.6882201611995697,0.0,0.26666666666666666,0.7333333333333333,"Accessibility, Safety, Noise, Comfort, Cleanliness, Atmosphere, Maintenance, Aesthetics, Traffic, General","safe (45), amazing (24), lovely (21), central (18), fantastic (18), clean (18), parking (15), walking (12), relaxing (12), beautiful (9), great (9), peaceful (9), perfect (9), vibrant (9), maintained (9), welcoming (9), spacious (9), wonderful (9), tidy (6)",1972
Bexley,Swanley Park,Park,51.4061444,0.1711185,4.5,0.6736621002356211,0.0,0.6,0.4,"Accessibility, Cleanliness, Maintenance, Aesthetics, Traffic, General","great (33), parking (30), safe (30), amazing (18), maintained (18), perfect (18), beautiful (18), lovely (12), convenient (9), good (9), new (9), scenic (9), walking (9), tidy (6), near (3), messy (3), dark (3), dead (3), lighting (3), charming (3)",2723
Bexley,Sidcup Delivery Office,Point Of Interest,51.4359,0.1014,3.7,0.6955818216005961,0.0,0.3333333333333333,0.6666666666666666,"Maintenance, General","messy (12), noisy (9), good (6), tidy (6), updated (5), poor (3), safe (3), walking (1)",76
Bexley,Main Road Car Park,Transit Station,51.42579240000001,0.0997095,3.0,0.0,0.0,0.0,0.0,,,1
Bexley,Abbey Wood,Transit Station,51.491091,0.1215603,3.6,0.5685991227626801,0.0,0.7333333333333333,0.26666666666666666,"Maintenance, Cleanliness, Traffic, General","clean (36), modern (18), disappointing (9), walking (9), new (9), tidy (3), safe (3), updated (3), noisy (3), lively (3)",33
Bexley,Abbey Wood,Transit Station,51.49109130000001,0.1213421,4.3,0.585911758740743,0.0,0.6666666666666666,0.3333333333333333,"Comfort, Cleanliness, Maintenance, Aesthetics, General","safe (15), clean (15), spacious (9), beautiful (9), poor (9), lovely (9), good (9), parking (6), tidy (3), walking (3), roomy (3)",206
Bexley,Dartford,Transit Station,51.4471578,0.2190307,3.7,0.5801864504814148,0.0,0.5333333333333333,0.4666666666666667,"Cleanliness, Safety, General","good (12), clean (12), dark (9), messy (3), walking (3), tidy (3), noisy (3), upgraded (3)",171
Bexley,The Priory Shopping Centre,Shopping Mall,51.44379280000001,0.2155444,3.9,0.6587864538033803,0.0,0.4,0.6,"Maintenance, Cleanliness, Atmosphere, General","good (24), old (18), clean (18), tidy (12), awful (9), empty (9), bad (9), great (9), safe (6), lovely (3)",2045
Bexley,Prospect Place,Shopping Mall,51.4477515,0.215389,4.1,0.6325648645559947,0.0,0.6,0.4,"Accessibility, Cleanliness, Atmosphere, Maintenance, Traffic, General","poor (18), parking (18), excellent (9), relaxing (9), far (9), inaccessible (9), new (9), accessible (9), safe (9), easy (9), great (9), clean (3), tidy (3), bad (3), busy (3)",2591
Bexley,The Orchards Shopping Centre,Shopping Mall,51.4447009,0.2187953,4.0,0.5621161917845409,0.0,0.6,0.4,"Accessibility, Comfort, Cleanliness, Atmosphere, Maintenance, Traffic, General","tidy (27), great (27), parking (21), clean (18), busy (18), empty (18), safe (18), good (9), convenient (9), easy (9), updated (9), new (9), enjoyable (9), cars (3), improved (3)",272
Bexley,Birchmere Park Bootsale,Shopping Mall,51.5009092,0.1124106,4.1,0.5571888486544291,0.5,0.0,0.5,"Maintenance, General","great (9), good (3)",7
Bexley,Eltham Park North,Park,51.4588334,0.06845849999999999,4.5,0.5994635144869487,0.0,0.4,0.6,"Accessibility, Noise, Comfort, Cleanliness, Atmosphere, Maintenance, Traffic, General","parking (45), traffic (18), walking (15), busy (12), maintained (9), peaceful (9), easy (9), new (9), near (9), pleasant (9), pedestrian (9), perfect (7), cars (3), flow (3), messy (3)",205
Bexley,Eaglesfield Park,Park,51.4705662,0.070293,4.4,0.5883621990680694,0.0,0.6,0.4,"Accessibility, Safety, Comfort, Cleanliness, Maintenance, Aesthetics, Traffic, General","parking (30), safe (12), easy (9), plain (9), far (9), rubbish (9), comfortable (9), lovely (9), maintained (9), central (9), old (9), walking (6), busy (3), cars (3), charming (3), great (3)",245
Bexley,Oxleas Woods,Park,51.465523,0.0763142,4.7,0.6101032058397929,0.0,0.4666666666666667,0.5333333333333333,"Accessibility, Comfort, Cleanliness, Atmosphere, Maintenance, Aesthetics, Traffic, General","lovely (15), walking (15), parking (12), beautiful (9), wonderful (9), easy (9), maintained (9), accessible (9), pleasant (9), calm (9), enjoyable (9), far (3), safe (3), charming (3)",1442
Bexley,Oxleas Wood,Natural Feature,51.46375159999999,0.0776318,4.8,0.5976056456565857,0.0,0.6,0.4,"Cleanliness, Maintenance, Aesthetics, Traffic, General","beautiful (36), maintained (12), walking (10), gorgeous (9), muddy (9), great (9), old (9), good (9), cars (3), parking (3), safe (3)",34
Bexley,Brooklands Lake,Natural Feature,51.4366547,0.2220279,4.3,0.61294966340065,0.2,0.4,0.4,"Accessibility, Noise, Atmosphere, Maintenance, Aesthetics, General","beautiful (27), walking (24), peaceful (18), great (18), old (18), parking (12), near (12), tidy (12), accessible (9), excellent (9), difficult (9), far (9), good (9), dark (6), dead (6), risky (3), cars (3), noisy (3), lively (3)",65
Bexley,South Mere,Natural Feature,51.5001583,0.1258291,4.3,0.6921216169993083,0.0,0.4,0.6,"Noise, Cleanliness, Atmosphere, Maintenance, Traffic","new (9), parking (9), peaceful (9), clean (6), lovely (3), walking (3)",26
Bexley,Chalk Wood,Natural Feature,51.41643,0.1477975,4.9,0.5239352732896805,0.25,0.4166666666666667,0.3333333333333333,"Aesthetics, General","beautiful (9), good (6), peaceful (3), tidy (3), fantastic (3), walking (3), safe (3)",8
Bexley,Dartford Heath,Natural Feature,51.43178529999999,0.1922579,3.5,0.6918911437193552,0.0,0.0,1.0,"Noise, Atmosphere, Aesthetics, Traffic, General","parking (21), walking (12), lovely (9), busy (9), beautiful (9), good (9), great (9), noisy (6), quiet (3), cars (3)",4
Bexley,East Hill Cemetery,Cemetery,51.4431478,0.2304813,5.0,0.4461990197499593,0.0,1.0,0.0,"Maintenance, Cleanliness",maintained (6),5
Bexley,Chislehurst Cemetery,Cemetery,51.41984180000001,0.0891476,4.8,0.7836656371752421,0.0,0.0,1.0,"Noise, Atmosphere, General","peaceful (9), wonderful (3)",4
Bexley,Woolwich Cemetery,Cemetery,51.4761921,0.09859430000000001,5.0,0.636860583225886,0.2,0.2,0.6,"Noise, Cleanliness, Atmosphere, Maintenance, Aesthetics, General","maintained (27), peaceful (21), wonderful (9), beautiful (9), quiet (9)",9
Bexley,Eltham Cemetery and Crematorium,Cemetery,51.4569025,0.0805057,4.3,0.5650673349698384,0.0,0.7333333333333333,0.26666666666666666,"Maintenance, Cleanliness, Aesthetics, General","lovely (18), old (9), clean (9), good (9), tidy (3), messy (3), noisy (3), beautiful (3), safe (3), loud (3)",70
Bexley,Hillview Cemetery,Cemetery,51.468051,0.09254290000000003,4.8,0.6483318408330282,0.0,0.0,1.0,"Maintenance, Cleanliness, Aesthetics","tidy (9), clean (9), lovely (9), maintained (6)",10
Bexley,GreenAcres Kemnal Park,Cemetery,51.4277916,0.0832749,4.4,0.7519221782684327,0.0,0.2,0.8,"Accessibility, Noise, Comfort, Cleanliness, Atmosphere, Maintenance, Aesthetics, General","good (30), lovely (18), clean (18), safe (15), modern (9), accessible (9), beautiful (9), perfect (9), welcoming (9), peaceful (9), noisy (3), messy (3)",65
Bexley,Jannatul Baqi,Cemetery,51.4280044,0.0827065,5.0,0.5685323377450308,0.0,0.6666666666666666,0.3333333333333333,"Traffic, Accessibility","easy (9), parking (9)",3
Bexley,Parish Church of the Ascension Plumstead Common,Church,51.4765342,0.09057059999999999,3.9,0.5368967791398366,0.2,0.6,0.2,"Noise, Atmosphere, Aesthetics, General","music (18), lovely (9), safe (9), excellent (9), peaceful (3), dark (3), dead (3)",7
Bexley,The Light on the Hill Spiritual Sanctuary,Church,51.4448473,0.2070387,4.9,0.752118984858195,0.13333333333333333,0.06666666666666667,0.8,"Noise, Comfort, Atmosphere, Maintenance, Aesthetics, General","lovely (15), peaceful (12), old (9), comfortable (9), welcoming (9), amazing (9), good (3), messy (3), beautiful (3)",7
Bexley,"New Community Church, Sidcup",Church,51.428189,0.101525,4.7,0.7828615625699361,0.0,0.06666666666666667,0.9333333333333333,"Accessibility, Comfort, Maintenance, Aesthetics, General","great (27), lovely (18), beautiful (9), modern (9), comfortable (9), good (9), accessible (9), amazing (9), lighting (3), near (2)",57
Bexley,Welling Methodist Church,Church,51.46399770000001,0.09683610000000001,4.6,0.5793215215206147,0.13333333333333333,0.4,0.4666666666666667,"Maintenance, Comfort, Aesthetics, General","lovely (24), safe (12), wonderful (9), pleasant (9), fantastic (9), new (9), good (3)",15
Bexley,"Greek Orthodox Church of Christ the Saviour, Bexley & district",Church,51.4724898,0.1119475,4.6,0.6073961575826009,0.2,0.13333333333333333,0.6666666666666666,"Comfort, Cleanliness, Aesthetics, General","great (9), lovely (9), clean (6), cozy (6), good (3)",90
Bexley,River Church,Church,51.4451152,0.2059135,4.7,0.695638241370519,0.06666666666666667,0.13333333333333333,0.8,"Aesthetics, Accessibility, General","great (54), lovely (23), excellent (9), isolated (9), tidy (6), connected (3), safe (3)",20
Bexley,Welling Evangelical Free Church,Church,51.46712669999999,0.1106697,4.9,0.8283728241920472,0.0,0.0,1.0,"Accessibility, Comfort, Atmosphere, Maintenance, General","great (27), new (21), welcoming (18), vibrant (18), amazing (15), messy (11), good (9), far (9), safe (6), tidy (6), walking (6), wonderful (3), roomy (3), cars (3), parking (3)",140
Bexley,Riverway Seventh-day Adventist Church,Church,51.4264947,0.1360101,5.0,0.5998308877150218,0.0,0.6,0.4,"Comfort, Aesthetics, Accessibility, General","lovely (24), amazing (12), welcoming (9), lively (5), near (3), dark (3), dead (3)",16
Bexley,Bishop Ridley Church,Church,51.45686389999999,0.09264710000000001,4.9,0.7482000390688578,0.0,0.2,0.8,"Safety, Comfort, Maintenance, Aesthetics, General","good (18), beautiful (18), great (9), modern (9), lighting (7), welcoming (6), lovely (3), tidy (3)",11
Bexley,Freedom Centre International,Church,51.4637115,0.1081757,4.7,0.7286337415377299,0.0,0.2,0.8,"Aesthetics, Traffic, General","great (54), walking (9), beautiful (9), lovely (3), tidy (3)",43
Bexley,Queen Street Baptist Church,Church,51.4790935,0.1802902,4.3,0.5911913414796194,0.2,0.26666666666666666,0.5333333333333333,"Maintenance, Cleanliness, Accessibility, General","messy (12), good (12), tidy (9), bad (9), great (9), clean (9), fantastic (6), near (5), safe (3), lovely (3)",18
Bexley,Old Farm Ave Car Park,Parking,51.4356746,0.100579,3.7,0.6664433320363362,0.0,0.26666666666666666,0.7333333333333333,"Maintenance, Traffic, Safety","parking (24), broken (9), police (9), noisy (3), safe (3), cars (3)",18
Bexley,"Car Park Victoria Road, Dartford Station - APCOA",Parking,51.4492135,0.2151537,2.9,0.5467965086301168,0.06666666666666667,0.6,0.3333333333333333,"Maintenance, Traffic, Accessibility","parking (60), broken (9), cars (6), noisy (3), near (3), safe (3)",19
Bexley,Car Park The Priory Centre - Dartford | APCOA,Parking,51.4438082,0.2166098,3.0,0.7974680662155151,0.0,0.13333333333333333,0.8666666666666667,"General, Traffic, Accessibility, Safety","parking (66), cars (15), tidy (12), bad (9), dark (9), worst (9), far (9), awful (9), great (6), maintained (3), appealing (3), safe (3), good (3), noisy (3)",41
Bexley,Temple Hill Library,Library,51.4505536,0.2274681,3.3,0.4873105188210805,0.25,0.5833333333333334,0.16666666666666666,"Maintenance, Aesthetics","lovely (15), old (9), tidy (6), noisy (6)",9
Bexley,Dartford Library,Library,51.4431015,0.2190266,4.6,0.5942552149295807,0.0,0.6,0.4,"Accessibility, Noise, Atmosphere, Maintenance, Aesthetics, General","safe (24), good (18), excellent (18), easy (9), beautiful (9), great (9), silent (9), quiet (9), tidy (9), new (9), lovely (6), messy (3), noisy (3)",93
Bexley,Plumstead Centre Library,Library,51.48646519999999,0.09638149999999998,4.2,0.6345141728719076,0.0,0.4,0.6,"Noise, Comfort, Cleanliness, Atmosphere, Maintenance, General","poor (18), modern (9), great (9), safe (9), comfortable (9), cozy (9), good (9), clean (9), quiet (9), tidy (6), charming (3), fantastic (3), new (3), noisy (3)",50
Bexley,Sidcup Library,Library,51.4262169,0.1011099,4.0,0.5362285137176513,0.0,0.7333333333333333,0.26666666666666666,"Maintenance, Comfort, Accessibility, General","new (36), great (18), safe (15), difficult (12), uncomfortable (9), welcoming (9), inconvenient (9), disappointing (9), spacious (9), wonderful (3), noisy (3), tidy (3), relaxing (3), lovely (3), old (3), upgraded (3)",20
Bexley,Thamesmead Library,Library,51.49760440000001,0.1230079,4.7,0.619975374142329,0.2,0.26666666666666666,0.5333333333333333,"Noise, Comfort, Cleanliness, Atmosphere, Maintenance, Aesthetics, General","new (45), amazing (18), good (18), great (18), lovely (15), safe (12), wonderful (9), fantastic (9), peaceful (9), welcoming (9), perfect (9), relaxing (9), pleasant (9), old (9), clean (6), beautiful (3), tidy (3), updated (3)",38
Bexley,Dartford Science and Technology College,School,51.441061,0.2102548,3.8,0.6427258491516114,0.0,0.4,0.6,"Accessibility, Safety, Comfort, Cleanliness, Maintenance, General","good (24), excellent (18), great (9), easy (9), bad (9), maintained (9), lighting (9), welcoming (9), safe (6), tidy (3), fantastic (3)",39
Bexley,Harris Academy Falconwood,School,51.45833859999999,0.0869891,2.9,0.777273420492808,0.2,0.0,0.8,"Noise, Maintenance, Traffic, Aesthetics, General","good (48), bad (27), tidy (18), noisy (12), worst (9), traffic (9), awful (9), new (9), old (9), damaged (3), wonderful (3), pretty (3)",48
Bexley,North Kent College,University,51.43197319999999,0.2046036,3.3,0.615842471520106,0.2,0.13333333333333333,0.6666666666666666,"Accessibility, Safety, Atmosphere, Maintenance, Aesthetics, General","good (72), worst (27), excellent (18), safe (15), tidy (12), messy (9), new (9), poor (9), perfect (9), pretty (9), modern (9), accessible (9), improved (9), security (9), great (9), convenient (9), wonderful (9), noisy (6), busy (6), protected (3), old (3), dark (3), dead (3), broken (3)",79
Bexley,Greenwich Students' Union (Avery Hill campus),University,51.44602799999999,0.077865,4.3,0.5934426228205363,0.06666666666666667,0.5333333333333333,0.4,Comfort,"pleasant (9), parking (6), tidy (3)",51
Bexley,University of Greenwich Southwood Site,University,51.4457337,0.0797343,4.5,0.5955716013908386,0.0,0.6,0.4,"Comfort, Atmosphere, Maintenance, Aesthetics, General","great (36), old (9), modern (9), lovely (9), calm (9), relaxing (9), safe (6), pleasant (6), dark (6), dead (6), improved (3), cozy (3), cars (3), parking (3), walking (3)",92
Bexley,Royal Borough of Greenwich Equestrian Centre,University,51.4675634,0.0803235,4.7,0.6482287479771508,0.0,0.4444444444444444,0.5555555555555556,Accessibility,"easy (9), safe (3), roomy (3), lovely (3)",9
Bexley,Avery Hill Campus Mansion House,University,51.450623,0.0765279,3.8,0.610851397116979,0.16666666666666666,0.16666666666666666,0.6666666666666666,"Cleanliness, General","good (36), worst (9), great (9), roomy (6), clean (3), tidy (3)",17
Bexley,Tutor-Toi,University,51.44411289999999,0.2139484999999999,5.0,0.6707563440004984,0.0,0.4,0.6,"Maintenance, General","improved (15), fantastic (9), excellent (9), good (9), messy (9), safe (6), dark (3), dead (3)",8
Bexley,"Bronte Building, University of Greenwich",University,51.44752099999999,0.0808136,5.0,0.0,0.0,0.0,0.0,,,1
Bexley,David Fussey Building,University,51.4455967,0.07997119999999998,4.6,0.6123353143533071,0.2222222222222222,0.3333333333333333,0.4444444444444444,"Noise, Cleanliness, Atmosphere, Aesthetics, General","beautiful (9), peaceful (9), good (9), clean (6), amazing (3)",12
Bexley,Adult Education College,University,51.4971794,0.1250741,5.0,0.0,0.0,0.0,0.0,,,3
Bexley,Queen Mary's Hospital,Hospital,51.4186353,0.1034504,3.7,0.7303573846817016,0.2,0.0,0.8,"Maintenance, Traffic, Aesthetics, General","walking (9), poor (9), noisy (6), safe (6), lovely (6), good (3), ugly (2)",387
Bexley,Redwood Practice,Hospital,51.4458899,0.2070977,2.2,0.743838886419932,0.0,0.0,1.0,"Maintenance, Accessibility, General","broken (27), terrible (9), new (9), difficult (9), excellent (9), good (6), messy (6), tidy (6), safe (3), easy (3)",101
Bexley,Waverley Practice,Hospital,51.4831885,0.0831074,2.0,0.6386910478274027,0.13333333333333333,0.4666666666666667,0.4,"Maintenance, Accessibility, General","excellent (18), tidy (12), connected (9), old (9), great (9), awful (9), worst (9), updated (9), disappointing (9), messy (6), difficult (3), good (3), lively (3), walking (3), noisy (3), safe (3)",56
Bexley,Bexley Group Practice (Station Road branch),Hospital,51.49147250000001,0.1517022,1.8,0.7228419959545136,0.2,0.2,0.6,General,"tidy (12), poor (9), noisy (3), dark (3), dead (3), good (3)",17
Bexley,Sidcup Medical Centre,Hospital,51.4238241,0.1074537,1.4,0.7947058280309042,0.0,0.0,1.0,"Aesthetics, Maintenance, Traffic, General","old (18), tidy (12), messy (12), bad (12), good (12), flow (9), new (9), awful (9), noisy (6), updated (3), busy (3), cars (3), calm (3), cozy (3)",82
Bexley,The Trinity Medical Centre,Hospital,51.47885789999999,0.08580120000000001,2.4,0.615631510814031,0.0,0.4,0.6,"Comfort, Aesthetics, General","good (18), amazing (9), welcoming (9), lovely (9), great (6), safe (3), messy (3), tidy (3)",40
Bexley,Lakeside Medical Practice,Hospital,51.4965214,0.122507,3.3,0.568021708726883,0.2,0.4,0.4,"Comfort, Aesthetics, General","good (21), lovely (18), messy (15), amazing (9), comfortable (9), horrible (9), welcoming (9), dark (3), dead (3)",274
Bexley,Lowfield Medical Centre,Hospital,51.4420797,0.2156954,3.3,0.7352393567562103,0.0,0.2,0.8,"Maintenance, Cleanliness, Aesthetics, General","neat (12), great (9), terrible (6), peaceful (3), near (3), new (3), noisy (3), safe (3), awful (3)",71
Bexley,Metropolitan Police Museum,Museum,51.43358990000001,0.1019407,4.2,0.5271940330664316,0.0,1.0,0.0,"General, Safety","police (18), great (9), excellent (9)",6
Bexley,Dartford Borough Museum,Museum,51.4432607,0.21909,4.5,0.5826083183288574,0.0,0.7333333333333333,0.26666666666666666,"Aesthetics, Accessibility, General","great (18), safe (9), lovely (6), easy (6), good (3), roomy (3)",57
Bexley,Crossness Engines,Museum,51.50487589999999,0.1354692,4.8,0.67654363711675,0.0,0.4,0.6,"Accessibility, Atmosphere, Traffic, Aesthetics, General","amazing (18), beautiful (9), great (9), busy (9), far (9), dark (3), dead (3)",40
Bexley,Stephen Oliver Studio & Gallery,Art Gallery,51.44468800000001,0.2191914,4.9,0.6564223090807597,0.13333333333333333,0.26666666666666666,0.6,"Aesthetics, General","great (24), lovely (12), beautiful (9), easy (3)",9
Bexley,Harlequin Gallery,Art Gallery,51.4774922,0.0834641,5.0,0.6863565544287363,0.0,0.5,0.5,"Maintenance, General, Safety","excellent (9), perfect (9), damaged (9), great (9), safe (3), noisy (3), tidy (3)",3
Bexley,Central Park Arena,Park,51.4385278,0.2208913,4.3,0.6071015655994415,0.2,0.4,0.4,"Maintenance, Aesthetics, General","old (9), bad (9), good (9), wonderful (9), lovely (9), tidy (3), relaxing (3)",27
Bexley,Bexley Allotments - Longlands Road,Park,51.4320694,0.09347029999999998,4.0,0.5851700623830159,0.0,0.4666666666666667,0.5333333333333333,,,23
Bexley,Bexley Allotments - Knoll Road,Park,51.4218809,0.1135736,4.3,0.6060717379053434,0.25,0.08333333333333333,0.6666666666666666,"Atmosphere, General","safe (12), amazing (9), relaxing (9), good (9), great (9), tidy (3), messy (3), lovely (3), dirty (1)",7
Bexley,Woolwich,Train Station,51.49201900000001,0.0704643,4.2,0.7188590844472249,0.2,0.0,0.8,"Accessibility, Comfort, Cleanliness, Maintenance, Traffic, Aesthetics, General","spacious (9), good (9), convenient (9), central (9), comfortable (9), messy (9), rubbish (9), beautiful (9), new (9), tidy (6), walking (6), lighting (3)",300
Bexley,Stone Crossing Station,Transit Station,51.4521409,0.2646161999999999,2.2,0.7826403578122457,0.0,0.13333333333333333,0.8666666666666667,"Accessibility, Noise, Cleanliness, Atmosphere, Maintenance, Traffic, General","noisy (33), good (18), near (12), tidy (9), quiet (9), traffic (9), rubbish (9), filthy (9), safe (6), messy (6), lovely (3), new (3), old (3), walking (3), busy (3)",13
Bexley,Stone Crossing,Transit Station,51.4513377,0.2645006,3.5,0.5834672609965007,0.26666666666666666,0.26666666666666666,0.4666666666666667,"General, Accessibility, Safety","noisy (24), good (12), accessible (9), unsafe (9), tidy (9), horrible (9), dark (9), safe (6)",29
Bexley,Orchards Shopping Centre Car Park,Bus Station,51.44507910000001,0.2185467,2.2,0.537832248210907,0.0,0.6666666666666666,0.3333333333333333,"Accessibility, Safety, Noise, Atmosphere, Aesthetics, Traffic, General","parking (78), cars (33), noisy (15), tidy (15), safe (12), pretty (9), busy (9), poor (9), accessible (9), traffic (9), near (3), good (3), wonderful (3), walking (3), messy (3), lovely (3), peaceful (3)",20
Bexley,Arriva Bus Depot,Bus Station,51.4501344,0.2207445,2.7,0.7342245678106943,0.2,0.06666666666666667,0.7333333333333333,"Maintenance, General","worst (18), busy (18), messy (12), tidy (9), old (9), safe (6), parking (6), flow (3), far (3)",20
Bexley,Joyce Dawson Way Shopping Centre,Shopping Mall,51.5068592,0.1065457,4.0,0.6343488415082296,0.0,0.4,0.6,"Noise, Cleanliness, Atmosphere, Maintenance, Traffic, Aesthetics, General","parking (9), dirty (9), great (9), beautiful (9), quiet (6), roomy (3), noisy (3), safe (3)",722
Bexley,Nugent Shopping Park,Shopping Mall,51.392867,0.1126601,4.0,0.5999122401078542,0.0,0.5333333333333333,0.4666666666666667,"Accessibility, Safety, Comfort, Cleanliness, Atmosphere, Maintenance, Traffic, Aesthetics, General","parking (41), safe (36), good (30), great (18), spacious (9), maintained (9), busy (9), calm (9), old (9), tidy (9), disappointing (9), cars (6), near (6), noisy (3), pretty (3), appealing (2)",3395
Bexley,Cannon Retail Park,Shopping Mall,51.50610080000001,0.1043161,4.1,0.5181905190149944,0.26666666666666666,0.6,0.13333333333333333,"Accessibility, Noise, Atmosphere, Traffic, General","good (39), parking (27), great (12), bad (9), peaceful (9), accessible (9), quiet (6), easy (3)",1011
Bexley,Shopping Point,Shopping Mall,51.43963969999999,0.05094169999999999,5.0,0.0,0.0,0.0,0.0,,,1
Bexley,Eltham Palace,Tourist Attraction,51.4470096,0.0485118,4.6,0.7068824768066406,0.0,0.4,0.6,"Accessibility, Noise, Comfort, Atmosphere, Maintenance, Aesthetics, General","lovely (37), beautiful (36), good (30), great (21), amazing (18), safe (15), roomy (15), accessible (9), gorgeous (9), tidy (9), wonderful (9), easy (9), peaceful (9), relaxing (9), charming (9), near (9), old (9), new (9), pretty (9), welcoming (9), walking (3)",4595
Bexley,Greenwich Islamic Centre,Mosque,51.49045100000001,0.0826469,4.8,0.7187047004699707,0.0,0.0,1.0,"Accessibility, Noise, Comfort, Cleanliness, Atmosphere, Maintenance, Traffic, Aesthetics, General","parking (18), clean (15), great (9), central (9), good (9), updated (9), comfortable (9), easy (9), beautiful (9), peaceful (9), maintained (9), serene (9), welcoming (6)",992
Bexley,St Pauls Cray Hill Country Park,Park,51.3983795,0.1287809,3.4,0.6077508807182312,0.2,0.2,0.6,"Safety, Noise, Cleanliness, Atmosphere, Traffic, Aesthetics, General","good (27), police (18), bikes (15), parking (9), beautiful (9), walking (9), threatening (9), quiet (9), muddy (9), fantastic (9), great (9), calm (9), safe (6), shouting (6), tidy (6), dusty (3), messy (3), broken (3), crowded (3), relaxing (3)",61
Bexley,Equitable House,Tourist Attraction,51.4903154,0.06877290000000001,4.0,0.5191461543242136,0.0,1.0,0.0,"Accessibility, Noise, Comfort, Cleanliness, Atmosphere, Maintenance, Aesthetics, General","great (27), tidy (21), old (18), music (18), safe (12), lovely (12), accessible (9), welcoming (9), relaxing (9), awful (9), clean (9), bad (9), good (3), dark (3), dead (3), near (3), upgraded (3)",64
Bexley,"St George's Garrison Church, Woolwich",Tourist Attraction,51.4852934,0.0633167,4.6,0.737188188234965,0.0,0.06666666666666667,0.9333333333333333,"Noise, Atmosphere, Aesthetics, General","great (18), amazing (9), fantastic (9), beautiful (9), calm (9), peaceful (9), tidy (6), wonderful (6), good (3), safe (3)",62
Bexley,National Trust - Rainham Hall,Museum,51.5179295,0.1907754,4.5,0.5960602839787801,0.0,0.5333333333333333,0.4666666666666667,"Accessibility, Comfort, Traffic, Aesthetics, General","lovely (18), parking (12), excellent (9), amazing (9), beautiful (9), pleasant (9), wonderful (9), safe (6), great (6), tidy (3), roomy (3), noisy (3), cars (3), near (3), messy (2)",453
Bexley,National Trust - Petts Wood and Hawkwood,Tourist Attraction,51.39631560000001,0.08668529999999999,4.7,0.7329960942268372,0.0,0.2,0.8,"Accessibility, Noise, Cleanliness, Atmosphere, Maintenance, Traffic, Aesthetics, General","parking (30), walking (18), easy (18), lovely (18), good (12), maintained (9), amazing (9), great (9), perfect (9), muddy (9), busy (9), loud (9), noisy (6), near (3)",198
Bexley,Chislehurst Common,Natural Feature,51.4138769,0.07164029999999999,4.1,0.6198496480782827,0.2,0.3333333333333333,0.4666666666666667,"Comfort, Aesthetics, Accessibility, General","lovely (12), enjoyable (9), beautiful (9), great (6), walking (6), relaxing (3), stunning (1)",17
Bexley,Maryon WIlson Park,Natural Feature,51.48445359999999,0.0435932,4.8,0.6491457283496856,0.06666666666666667,0.3333333333333333,0.6,"Atmosphere, Traffic, Aesthetics, Accessibility","lovely (15), parking (15), beautiful (15), busy (9), gorgeous (9), good (3), far (3)",17
Bexley,Mulgrave Pond,Natural Feature,51.4885518,0.0588138,4.3,0.5114416380723318,0.5,0.0,0.5,Aesthetics,"stunning (9), tidy (3)",6
Bexley,Dagenham Breach,Natural Feature,51.5231217,0.153145,4.0,0.4239329993724823,0.3333333333333333,0.6666666666666666,0.0,"Cleanliness, Accessibility","rubbish (9), inaccessible (9), safe (3)",4
Bexley,Balancing Pond,Natural Feature,51.38942549999999,0.1956764,4.1,0.0,0.0,0.0,0.0,,,9
Bexley,Shepherdleas Wood,Natural Feature,51.4604723,0.0724927,4.7,0.3951711455980937,0.6666666666666666,0.3333333333333333,0.0,Aesthetics,"lovely (6), walking (3)",3
Bexley,Ruxley Wood,Natural Feature,51.4118609,0.1279951,4.8,0.676198681195577,0.0,0.1111111111111111,0.8888888888888888,General,"good (9), great (9), lovely (3)",5
Bexley,"Church of the Annunciation, Chislehurst",Church,51.4191167,0.0672083,4.8,0.5224499026934306,0.26666666666666666,0.4,0.3333333333333333,"Cleanliness, Atmosphere, Maintenance, Aesthetics, General","active (9), maintained (9), lovely (9), amazing (6)",16
Bexley,"St Mary Magdalene Church, Woolwich",Church,51.4929574,0.05917330000000001,4.4,0.5520877023537953,0.0,0.8666666666666667,0.13333333333333333,"Aesthetics, General","lovely (18), good (18)",31
Bexley,"St Michael & All Angels Church, Abbey Wood",Church,51.4898196,0.1179285,4.4,0.7236039479573567,0.0,0.2,0.8,"Noise, Comfort, Atmosphere, Maintenance, Aesthetics, General","good (23), beautiful (18), old (9), stunning (9), pleasant (9), music (9), amazing (9), great (9), calm (6), wonderful (3), tidy (3)",44
Bexley,Spital Street Methodist Church,Church,51.44500499999999,0.2146288,4.7,0.5509452899297078,0.13333333333333333,0.6666666666666666,0.2,"Maintenance, Comfort, Aesthetics, General","good (18), wonderful (10), old (9), lovely (9), comfortable (9), great (9), lighting (3)",15
Bexley,St Mary's Church Car Park,Parking,51.3975778,0.1722083,4.3,0.5025364418824514,0.13333333333333333,0.8666666666666667,0.0,"Traffic, Accessibility, General","parking (21), great (18), walking (12), cars (9), fantastic (9), easy (9), safe (6), tidy (6), lively (3), roomy (3), loud (3)",18
Bexley,Bevan Place Car Park,Parking,51.39454079999999,0.1773517,3.4,0.5258524914582571,0.16666666666666666,0.5833333333333334,0.25,"Noise, Cleanliness, Atmosphere, Aesthetics, General","good (12), pretty (9), empty (9), clean (9), noisy (9), cars (6), parking (6), crowded (6), walking (3)",5
Bexley,Monk Street Car Park,Parking,51.4915191,0.06250329999999998,3.3,0.5977861046791076,0.13333333333333333,0.26666666666666666,0.6,"Accessibility, Noise, Comfort, Atmosphere, Maintenance, Traffic","cars (15), parking (15), noisy (12), busy (9), convenient (9), loud (9), music (9), tight (9), safe (3), messy (3)",36
Bexley,Travelodge Carpark,Parking,51.4924641,0.06267240000000002,3.3,0.570922464132309,0.4,0.0,0.6,"Atmosphere, Traffic, General","parking (21), good (9), busy (9), ugly (8), cars (6), safe (6), tidy (3), neat (3), near (3), new (3), lighting (3)",18
Bexley,Eltham Library,Library,51.4509091,0.05792209999999999,4.3,0.5842883845170339,0.0,0.6,0.4,"Accessibility, Safety, Comfort, Maintenance, Aesthetics, General","great (45), safe (12), beautiful (9), gorgeous (9), near (9), lighting (9), spacious (9), bad (9), charming (9), old (9), cramped (7), lovely (6), dark (3), messy (3), relaxing (3)",89
Bexley,Thamesmere Library,Library,51.50780210000001,0.1087918,4.1,0.6901991248130799,0.0,0.4,0.6,"Noise, Comfort, Cleanliness, Atmosphere, Maintenance, Aesthetics, General","good (30), great (18), lovely (18), safe (9), screaming (9), cramped (9), bad (9), music (9), loud (9), quiet (9), clean (9), new (9), ugly (9), messy (6), tidy (3)",19
Bexley,North Woolwich Library,Library,51.50105130000001,0.06275329999999998,4.8,0.6422973831494649,0.0,0.6,0.4,"Maintenance, Cleanliness, Aesthetics, General","lovely (30), clean (9), tidy (9), great (9), new (9), good (9), safe (3)",31
Bexley,Fleetdown Library,Library,51.43492500000001,0.2461181,4.6,0.6014971633752187,0.06666666666666667,0.5333333333333333,0.4,"Aesthetics, Accessibility, General","great (18), lovely (12), tidy (9), terrible (9), good (9), connected (9), noisy (3), messy (3), lively (3)",11
Bexley,Woolwich Centre Library,Library,51.4893466,0.0658322,3.9,0.6290325939655304,0.2,0.2,0.6,"Noise, Comfort, Atmosphere, Maintenance, Aesthetics, General","music (36), loud (27), great (18), noisy (15), good (9), safe (9), new (9), calm (9), perfect (9), tidy (6), comfortable (6), messy (3), old (3)",172
Bexley,Thamesmere Leisure Centre,Library,51.5075766,0.1088464,3.9,0.6094845414161683,0.0,0.4,0.6,"Maintenance, Cleanliness, Aesthetics, Safety","tidy (18), clean (18), safe (12), old (9), spotless (9), pretty (9), lovely (6), good (6), messy (6), noisy (3), updated (3), maintained (3)",511
Bexley,St Paul’s Cray Library,Library,51.4045663,0.1032614,4.8,0.6621673663457235,0.0,0.6,0.4,"Noise, Comfort, General","great (18), safe (12), good (12), comfortable (9), spacious (9), soundproof (9), loud (9), perfect (9), messy (3)",16
Bexley,Bright Horizons New Eltham Day Nursery and Preschool,School,51.43653879999999,0.06191029999999999,4.6,0.9191278219223022,0.0,0.0,1.0,"Accessibility, Cleanliness, Maintenance, Aesthetics, General","wonderful (27), great (27), clean (18), new (18), fantastic (18), modern (9), lovely (9), amazing (9), tidy (9), perfect (9), far (6), lighting (3), safe (3), noisy (3), near (3), poor (3), messy (3), neglected (3)",18
Bexley,Saint Anselm's Roman Catholic Primary School,School,51.4512179,0.2315065,4.1,0.8085534671942393,0.0,0.0,1.0,"Aesthetics, General","horrible (9), great (9), lovely (9), amazing (6), tidy (3)",14
Bexley,"Dawn to Dusk Day Nursery, Swanley Ltd",School,51.402935,0.1756832,4.9,0.7904372135798137,0.0,0.0,1.0,"Maintenance, Cleanliness, General","amazing (27), great (18), good (15), old (9), clean (9), updated (9), tidy (6), improved (3)",23
Bexley,London South East Colleges: Greenwich,University,51.48990980000001,0.07927420000000002,3.9,0.7338929375012716,0.0,0.2,0.8,"Maintenance, Aesthetics, General","messy (21), good (12), lovely (9), terrible (9), tidy (9), bad (9), great (3), safe (3)",91
Bexley,Capital College UK,University,51.4598306,0.05919679999999999,5.0,0.0,0.0,0.0,0.0,,,3
Bexley,SupaJam Education in Music and Media,University,51.39661019999999,0.1705245,4.8,0.5994586169719696,0.0,0.6666666666666666,0.3333333333333333,"Noise, Comfort, Maintenance, Aesthetics, General","good (21), welcoming (9), lovely (9), music (9), excellent (9), great (9), safe (6), tidy (6), repaired (3), ugly (3), jammed (3), roomy (3)",24
Bexley,I U A,University,51.49135589999999,0.06962159999999999,5.0,0.0,0.0,0.0,0.0,,,2
Bexley,Queen Elizabeth Hospital,Hospital,51.4778139,0.05055869999999999,2.7,0.8191889802614848,0.0,0.0,1.0,"Maintenance, Traffic, Atmosphere, General","awful (21), amazing (18), easy (18), tidy (12), perfect (9), busy (9), great (9), messy (9), bad (9), safe (6), terrible (6), noisy (3), roomy (3)",1239
Bexley,Darent Valley Hospital,Hospital,51.43522460000001,0.25865,3.2,0.6292427480220795,0.4,0.0,0.6,"Accessibility, Safety, Atmosphere, Maintenance, Traffic, General","messy (24), parking (21), excellent (18), good (18), safe (14), easy (9), busy (9), calm (9), fantastic (9), bad (9), security (9), walking (9), difficult (3), noisy (3), cars (3), tidy (3), neglected (3), roomy (3)",721
Bexley,Everest Health Partnership - Coldharbour Surgery,Hospital,51.43128280000001,0.05829139999999999,2.1,0.7633396089076996,0.0,0.2,0.8,"Maintenance, Aesthetics","noisy (18), tidy (15), safe (12), good (6), jammed (3)",42
Bexley,Little Brook Hospital,Hospital,51.4467592,0.2436573,2.2,0.5967964649200439,0.2,0.4,0.4,"Accessibility, Safety, Noise, Comfort, Cleanliness, Atmosphere, Maintenance, Traffic, Aesthetics, General","messy (39), good (30), tidy (21), noisy (18), busy (18), amazing (18), safe (15), near (15), wonderful (12), shouting (9), screaming (9), empty (9), difficult (9), walking (9), music (9), enjoyable (9), terrible (9), parking (6), easy (3), active (3), police (3), roomy (3), clean (3), neat (3), new (3), bad (3)",34
Bexley,Broomwood Health Centre,Hospital,51.40279899999999,0.1087616,2.2,0.64008047580719,0.2,0.4,0.4,"Maintenance, Accessibility, General","poor (18), tidy (12), easy (9), bad (9), new (9), worst (9), safe (6), good (3), messy (3)",29
Bexley,Crossness Pumping Station,Museum,51.5088757,0.1381945,4.8,0.5711237967014313,0.0,0.8,0.2,"Maintenance, Aesthetics, Accessibility, General","safe (12), good (9), beautiful (9), new (9), great (9), amazing (9), wonderful (9), noisy (6), busy (3), walking (3), near (3)",556
Bexley,Purfleet Heritage & Military Centre,Museum,51.4844386,0.2293774999999999,4.6,0.5981734176476796,0.0,0.8,0.2,"Maintenance, Comfort, Aesthetics, General","lovely (9), enjoyable (9), good (9), safe (6), lively (3)",160
Bexley,Capital Art Gallery,Art Gallery,51.4565339,0.05086069999999999,4.8,0.5601147909959158,0.4,0.2,0.4,"Maintenance, Comfort","new (18), tight (9), lovely (3), good (3), jammed (3)",39
Bexley,"'The Power of Colour' Palette knife painting Art Classes with Zsuzsanna Pataki, artist",Art Gallery,51.3944008,0.09763510000000002,5.0,0.6123788078625997,0.13333333333333333,0.4,0.4666666666666667,"Atmosphere, Maintenance, Aesthetics, Traffic, General","busy (18), messy (15), safe (12), tidy (9), fantastic (9), great (9), beautiful (9), lovely (3), noisy (3), perfect (3), relaxing (3)",23
Bexley,Henry Hate Fine Art Prints and Originals,Art Gallery,51.4914458,0.0621144,5.0,0.8305933475494385,0.0,0.0,1.0,General,excellent (9),1
Bexley,Commission it Art Commissions,Art Gallery,51.48553949999999,0.04833679999999999,5.0,0.8812707861264547,0.0,0.06666666666666667,0.9333333333333333,"Maintenance, Aesthetics, General","beautiful (18), great (18), messy (9), wonderful (9), excellent (9), updated (9), lovely (9), fantastic (9), safe (3), amazing (3)",20
Bexley,Gerald Moore Gallery,Art Gallery,51.4384551,0.03993750000000001,4.4,0.8043703158696492,0.0,0.0,1.0,"Maintenance, Aesthetics, General","great (27), new (18), good (15), lovely (10), excellent (9), amazing (9), fantastic (6), safe (6), dark (3), dead (3), perfect (3), beautiful (3), lively (3), appealing (3), parking (3)",15
