Borough,Location Name,Type,latitude,longitude,Rating,Overall Sentiment Score,Negative Score,Neutral Score,Positive Score,Main Issues,Emotion Keywords,Review Count
Brent,Preston Park,Park,51.5710078,-0.3027973,4.4,0.6886848370234172,0.0,0.26666666666666666,0.7333333333333333,"Accessibility, Cleanliness, Maintenance, Aesthetics, General","maintained (18), parking (12), connected (9), tidy (9), beautiful (9), perfect (7), safe (3), walking (3)",364
Brent,Birchen Grove allotment,Park,51.56918940000001,-0.2589099,4.6,0.6286490559577942,0.0,0.6,0.4,"Cleanliness, General","good (12), excellent (9), clean (6), walking (3), great (3), parking (3)",21
Brent,King Edward VII Park,Park,51.55735569999999,-0.2968103999999999,4.4,0.6336278200149537,0.0,0.6,0.4,"Accessibility, Safety, Noise, Cleanliness, Atmosphere, Aesthetics, General","parking (18), safe (18), perfect (18), lovely (12), beautiful (9), clean (9), relaxing (9), great (9), calm (9), near (9), peaceful (6), noisy (3), walking (3), messy (3), tidy (3), good (3), roomy (3)",1820
Brent,Arena Square,Park,51.5582152,-0.2814921,4.5,0.5997205813725789,0.0,0.4666666666666667,0.5333333333333333,"Accessibility, Safety, Noise, Comfort, Atmosphere, Aesthetics, Traffic, General","great (18), beautiful (9), central (9), buzzing (9), busy (9), enjoyable (9), security (9), crowded (9), dark (9), pretty (9), amazing (6), messy (3), good (3), walking (3), safe (3), lighting (2)",153
Brent,Elvin Gardens Dog Run,Park,51.5595521,-0.2813682,3.3,0.5531772325436274,0.5,0.0,0.5,General,perfect (5),3
Brent,Elvin Gardens,Park,51.5597144,-0.2815867,4.9,0.7164049678378634,0.0,0.1111111111111111,0.8888888888888888,"Noise, Atmosphere, Maintenance, Aesthetics, Traffic, General","beautiful (15), parking (9), traffic (9), peaceful (9), new (9), great (9), safe (6), noisy (6), relaxing (3)",16
Brent,Wembley Park - Play Park,Park,51.5563382,-0.2826619,4.4,0.5866326709588369,0.0,0.6666666666666666,0.3333333333333333,"Safety, Atmosphere, Aesthetics, Traffic, General","good (21), pedestrian (9), busy (9), beautiful (9), amazing (6), parking (3), safe (3)",185
Brent,Union Park,Park,51.5579753,-0.2770363,4.2,0.5325947920481364,0.26666666666666666,0.3333333333333333,0.4,"Accessibility, Noise, Cleanliness, Atmosphere, Maintenance, Aesthetics, Traffic, General","parking (27), near (18), safe (15), peaceful (12), maintained (12), lovely (12), good (9), silent (9), calm (9), far (9), poor (9), serene (9), amazing (9), walking (9), risky (3), tidy (3), beautiful (3)",19
Brent,Monument display,Park,51.5564867,-0.2861615,5.0,0.5590381622314453,0.0,0.6666666666666666,0.3333333333333333,,,1
Brent,White Horse Square,Park,51.5547591,-0.284948,3.0,0.4707183043162028,0.0,1.0,0.0,,parking (3),2
Brent,Chalkhill Park,Park,51.5627264,-0.2735752,4.2,0.5998012483119964,0.0,0.5333333333333333,0.4666666666666667,"Comfort, Cleanliness, Maintenance, Traffic, Aesthetics, General","parking (18), good (18), clean (15), lovely (12), walking (10), pleasant (9), dirty (9), old (9), neat (9), great (9), bikes (3), safe (3)",282
Brent,Excellent Mage Service,Park,51.5640478,-0.2734692999999999,5.0,0.0,0.0,0.0,0.0,,,3
Brent,Bimal Regmi,Park,51.56667580000001,-0.2838582000000001,5.0,0.0,0.0,0.0,0.0,,,1
Brent,Chalkhill Orchard,Park,51.5610587,-0.2684448,4.6,0.649152047932148,0.0,0.3333333333333333,0.6666666666666666,"Traffic, Aesthetics, General","great (18), excellent (9), lovely (9), good (9), bikes (6), walking (3)",8
Brent,River Brent Walking Trail.,Park,51.5586273,-0.2678323,4.4,0.5490018725395203,0.0,0.75,0.25,"Comfort, Accessibility, General","good (27), bad (9), near (9), enjoyable (9), safe (3), walking (3), noisy (3)",8
Brent,Brent River Park,Park,51.54904029999999,-0.2696257,4.1,0.6672513882319132,0.13333333333333333,0.26666666666666666,0.6,"Accessibility, Comfort, Cleanliness, Maintenance, Traffic, General","parking (50), great (45), walking (15), pleasant (9), terrible (9), amazing (9), maintained (9), clean (9), excellent (9), safe (6), near (3), noisy (3), good (3), bikes (3)",117
Brent,Lyon Park Avenue Allotments,Park,51.546861,-0.2898547,4.8,0.7194522420565287,0.0,0.5,0.5,"Aesthetics, Noise, Atmosphere","beautiful (9), peaceful (9), serene (6), calm (3)",8
Brent,St. Raphael's Edible Garden,Park,51.5487911,-0.2670186000000001,5.0,0.6233557303746541,0.0,0.4,0.6,"Aesthetics, General","lovely (18), great (9), fantastic (9), beautiful (9), tidy (3)",13
Brent,OVO Arena Wembley,Point Of Interest,51.5581441,-0.2827548,4.3,0.6871686299641927,0.0,0.4,0.6,"Maintenance, Aesthetics, Safety, General","good (36), great (18), safe (12), fantastic (9), excellent (9), pretty (9), tidy (6), dark (6), dead (6), lively (3), bad (3), busy (3), cars (3), calm (3), cozy (3)",17120
Brent,London Designer Outlet,Shopping Mall,51.5569252,-0.2829943,4.3,0.601236472527186,0.0,0.5333333333333333,0.4666666666666667,"Accessibility, Comfort, Cleanliness, Atmosphere, Maintenance, Traffic, Aesthetics, General","good (48), great (27), busy (21), easy (18), modern (18), enjoyable (9), vibrant (9), crowded (9), parking (9), chaotic (9), new (9), clean (9), pleasant (9), maintained (9), beautiful (9), lovely (6), safe (6), walking (3), tidy (3), near (3), relaxing (2)",22518
Brent,"BAPS Shri Swaminarayan Mandir, London",Hindu Temple,51.5475819,-0.2607827,4.8,0.7397914965947469,0.0,0.0,1.0,"Accessibility, Noise, Cleanliness, Atmosphere, Maintenance, Aesthetics, Traffic, General","beautiful (30), good (12), parking (12), amazing (9), fantastic (9), maintained (9), peaceful (9), accessible (9), great (9), safe (3), noisy (3), roomy (3), tidy (3), cars (3)",6123
Brent,Wembley Stadium,Stadium,51.55602469999999,-0.2796177,4.6,0.6891149878501892,0.0,0.4,0.6,"Accessibility, Safety, Comfort, Cleanliness, Maintenance, General","great (45), good (33), easy (18), safe (15), clean (12), fantastic (9), amazing (9), damaged (9), maintained (9), comfortable (9), walking (6), crowded (6), shouting (3)",63499
Brent,Experiences by Wembley Stadium,Stadium,51.5566767,-0.2802862,4.5,0.6153172334035237,0.0,0.6,0.4,"Accessibility, Noise, Comfort, Atmosphere, General","great (36), quiet (9), excellent (9), easy (9), comfortable (9), amazing (9), safe (6), good (3), neat (3), near (3), new (3), attractive (3), walking (3), roomy (3), tidy (3)",310
Brent,The FA Group,Point Of Interest,51.5566938,-0.2796424,3.5,0.6915126800537109,0.0,0.4,0.6,"Accessibility, Safety, Maintenance, Aesthetics, General","great (27), safe (18), far (18), bad (18), noisy (12), amazing (9), lovely (9), poor (9), broken (9), protected (9), good (9), tidy (6), improved (3)",22
Brent,Brent Civic Centre,Point Of Interest,51.5589535,-0.2816904,4.2,0.5145229121049245,0.13333333333333333,0.6666666666666666,0.2,"Accessibility, Safety, Noise, Aesthetics, Traffic, General","music (27), beautiful (18), lovely (18), good (18), walking (12), poor (9), difficult (9), wonderful (9), bad (9), parking (9), security (9), safe (9), stunning (6), roomy (6), lively (3), noisy (3)",422
Brent,Wembley Park Station,Transit Station,51.5635867,-0.2791149000000001,4.0,0.662055762608846,0.2,0.2,0.6,"Accessibility, Safety, Noise, Comfort, Atmosphere, Maintenance, Traffic, General","central (18), easy (18), new (9), outdated (9), excellent (9), convenient (9), spacious (9), good (9), bustling (9), upgraded (9), accessible (9), connected (9), far (9), busy (9), unsafe (9), noisy (6), safe (6), parking (3), crowded (3)",35
Brent,Wembley Park,Subway Station,51.5633758,-0.2793175999999999,4.4,0.6499928534030914,0.0,0.6,0.4,"Accessibility, Noise, Comfort, Atmosphere, Traffic, Aesthetics, General","spacious (18), busy (12), walking (10), flow (9), quiet (9), stunning (9), easy (9), great (9), lovely (9), tidy (3), noisy (3)",1286
Brent,North Wembley,Transit Station,51.56278789999999,-0.3041946,3.7,0.4966224908828735,0.2,0.6666666666666666,0.13333333333333333,Safety,"security (9), good (6), noisy (3), safe (3), messy (3)",69
Brent,Stonebridge Park station,Transit Station,51.5442154,-0.2748437999999999,1.2,0.720002058479521,0.0,0.3333333333333333,0.6666666666666666,General,"worst (9), tidy (6), noisy (3)",5
Brent,Stonebridge Park,Train Station,51.5439748,-0.2753492,3.5,0.5997464537620545,0.2,0.4,0.4,"Accessibility, Comfort, Cleanliness, Atmosphere, Maintenance, Traffic, Aesthetics, General","noisy (15), far (9), outdated (9), great (9), walking (9), cramped (9), tidy (9), good (9), central (9), beautiful (9), spacious (9), grimy (3)",105
Brent,Preston Road,Subway Station,51.5718737,-0.2949536,4.4,0.6293672939141591,0.0,0.4,0.6,"Accessibility, Comfort, Cleanliness, Atmosphere, Maintenance, General","great (9), tidy (9), terrible (9), unpleasant (9), connected (9), crowded (9), near (9), messy (3), roomy (3), pretty (3)",60
Brent,Pellatt Road,Transit Station,51.5668131,-0.2947866,4.3,0.0,0.0,0.0,0.0,,,3
Brent,Wembley Stadium Station,Transit Station,51.5546745,-0.2855698,4.3,0.45485159754753113,0.0,1.0,0.0,Accessibility,"easy (9), tidy (3)",6
Brent,Wembley Hill Road Park Lane,Transit Station,51.55942350000001,-0.290475,5.0,0.0,0.0,0.0,0.0,,,1
Brent,Wembley Arena (Stop E),Bus Station,51.558647,-0.2831366,2.7,0.0,0.0,0.0,0.0,,,3
Brent,Wembley Arena (Stop G),Bus Station,51.559402,-0.2845749999999999,3.5,0.5748872558275858,0.0,0.6666666666666666,0.3333333333333333,"Accessibility, General","good (9), near (3)",4
Brent,Lakeside Way (Stop C),Bus Station,51.557911,-0.285425,4.4,0.333345502614975,1.0,0.0,0.0,,,5
Brent,Empire Way (Stop A),Bus Station,51.5618192,-0.2832831,4.0,0.0,0.0,0.0,0.0,,,1
Brent,Empire Way (Stop J),Bus Station,51.5620162,-0.2818431,3.0,0.37112974127133685,1.0,0.0,0.0,,busy (3),1
Brent,Wembley Triangle (Stop SC),Bus Station,51.5536372,-0.2882213,4.7,0.0,0.0,0.0,0.0,,,7
Brent,Lycee International / Kings Drive (Stop S),Bus Station,51.5653049,-0.2755624,5.0,0.4359118640422821,0.0,1.0,0.0,,parking (3),1
Brent,Wembley Central Station (Stop CM),Bus Station,51.5528595,-0.2959822,3.1,0.4810978333155314,0.13333333333333333,0.6666666666666666,0.2,"Traffic, Atmosphere, Accessibility","busy (16), crowded (9), accessible (9), near (3)",12
Brent,Wembley Central Station (Stop CN),Bus Station,51.5527528,-0.2962783,3.5,0.5755104124546051,0.0,0.5,0.5,"Atmosphere, Accessibility, General","crowded (9), great (9), parking (3), near (3)",4
Brent,Wembley Central Station (Stop CS),Bus Station,51.5521044,-0.2976962,4.4,0.5279614349206289,0.2,0.6,0.2,"Accessibility, Noise, Cleanliness, Atmosphere, Traffic","central (18), convenient (9), busy (9), quiet (9), neat (9), near (3), cars (3), clean (3)",10
Brent,Wembley Central Station (Stop CP),Bus Station,51.55159,-0.297144,5.0,0.2576844096183777,1.0,0.0,0.0,,,1
Brent,Wembley Central Station (Stop CT),Bus Station,51.55205199999999,-0.2980349999999999,4.4,0.5116772800683975,0.5,0.0,0.5,"Maintenance, Accessibility, General","central (9), old (9), amazing (9), busy (3)",5
Brent,Ikea Brent Park / Panther Drive (Stop A),Bus Station,51.5541435,-0.2618057,4.0,0.0,0.0,0.0,0.0,,,4
Brent,Ikea Brent Park (Stop C),Bus Station,51.55342419999999,-0.2614974,4.8,0.6622049808502197,0.0,0.0,1.0,,lovely (3),9
Brent,North Wembley Station (Stop B),Bus Station,51.56256500000001,-0.3055780000000001,4.0,0.4675435622533162,0.0,1.0,0.0,,,2
Brent,Stonebridge Park Station (Stop A),Bus Station,51.544029,-0.2750870000000001,4.7,0.5142479472690158,0.0,1.0,0.0,"Maintenance, Cleanliness",maintained (6),7
Brent,Preston Road Station (Stop PB),Bus Station,51.571896,-0.294654,3.0,0.0,0.0,0.0,0.0,,,2
Brent,North Wembley Station (Stop N),Bus Station,51.56261799999999,-0.3060529999999999,5.0,0.563614030679067,0.0,1.0,0.0,Maintenance,busy (3),3
Brent,Wembley Central,Shopping Mall,51.5525088,-0.2958293,4.2,0.5139187852541606,0.13333333333333333,0.6666666666666666,0.2,"Safety, General","good (45), great (9), police (9), noisy (9), poor (9), crime (5), parking (3), safe (3)",3958
Brent,Harawo Cafe Shopping Center,Shopping Mall,51.5535637,-0.29259,3.3,0.6218649546305338,0.3333333333333333,0.0,0.6666666666666666,General,bad (9),3
Brent,Fone Masters Wembley,Shopping Mall,51.5519953,-0.2982414,3.3,0.8468379378318787,0.0,0.0,1.0,"Comfort, Cleanliness, Maintenance, Aesthetics, General","tidy (24), bad (18), broken (12), messy (9), rubbish (9), repaired (6), walking (6), noisy (6), welcoming (6), safe (3), easy (3), good (3)",19
Brent,Amazon pickup,Shopping Mall,51.5707517,-0.2950831,4.0,0.5486643592516581,0.2,0.26666666666666666,0.5333333333333333,"Traffic, Accessibility, General","bad (9), difficult (9), parking (9), safe (3)",38
Brent,Sanskruti by Venisons,Shopping Mall,51.5438182,-0.2968253,4.4,0.5273066908121109,0.25,0.5,0.25,"Maintenance, General","good (18), damaged (9), noisy (3)",5
Brent,Statue of Bobby Moore,Tourist Attraction,51.557564,-0.2795609000000001,4.7,0.6093639592329662,0.0,0.5333333333333333,0.4666666666666667,"Accessibility, Atmosphere, Aesthetics, Traffic, General","great (24), busy (9), good (9), pretty (9), safe (6), near (3), messy (2)",322
Brent,George Michael Handprints at Wembley,Tourist Attraction,51.55821089999999,-0.2813122,5.0,0.0,0.0,0.0,0.0,,,2
Brent,Spanish Steps,Tourist Attraction,51.55771499999999,-0.2813377,4.7,0.5245780567328135,0.0,0.7333333333333333,0.26666666666666666,"Noise, Aesthetics, General","lovely (12), great (9), music (9), safe (3)",9
Brent,Olympic Steps,Tourist Attraction,51.5583689,-0.2796803,5.0,0.0,0.0,0.0,0.0,,,1
Brent,Wembley Park Outdoor Gallery,Tourist Attraction,51.55623480000001,-0.2834022,4.6,0.5568438559770584,0.13333333333333333,0.4666666666666667,0.4,"Traffic, General","parking (18), good (9), noisy (3)",18
Brent,Bubble Planet,Tourist Attraction,51.5596831,-0.2749984,1.0,0.46726396679878235,0.0,1.0,0.0,Maintenance,"updated (9), tidy (6), good (3), messy (3)",1
Brent,Wembley Park,Tourist Attraction,51.56301510000001,-0.2797886000000001,4.6,0.7243546923001607,0.0,0.26666666666666666,0.7333333333333333,"Accessibility, Atmosphere, Maintenance, Aesthetics, General","amazing (27), parking (21), good (12), walking (12), connected (9), vibrant (9), modern (9), elegant (9), great (9), perfect (9), safe (6)",92
Brent,Barn Hill pond,Tourist Attraction,51.5730168,-0.2798022000000001,5.0,0.7886498173077902,0.0,0.0,1.0,Aesthetics,beautiful (36),6
Brent,Fryent Country Park,Natural Feature,51.57318369999999,-0.2777638,4.3,0.6086451192696889,0.0,0.6,0.4,"Traffic, Aesthetics, Safety, General","parking (18), fantastic (9), pretty (9), good (9), beautiful (9), dark (9), walking (7), dirty (3), cars (3)",13
Brent,River Brent,Natural Feature,51.5669024,-0.2565598,5.0,0.7088561753431956,0.0,0.5,0.5,"Atmosphere, General","relaxing (9), great (9), walking (3), parking (3)",5
Brent,Destiny House,Church,51.5534012,-0.2769813,4.8,0.7174441417058309,0.0,0.16666666666666666,0.8333333333333334,General,great (9),8
Brent,Wembley Christian Centre,Church,51.56553420000001,-0.2875664000000001,4.4,0.5689973890781402,0.2,0.4666666666666667,0.3333333333333333,"Noise, General","music (18), great (18), good (9), amazing (6), lovely (3), modern (3)",16
Brent,The Church of Jesus Christ of Latter-day Saints - Wembley,Church,51.5609639,-0.2879961,4.9,0.6998986164728801,0.0,0.2,0.8,"Comfort, Accessibility, General","great (18), far (9), wonderful (6), welcoming (6), lovely (6), fantastic (3)",43
Brent,웸블리 파크 한인교회 Wembley Park Korean Church,Church,51.564505,-0.278388,4.0,0.0,0.0,0.0,0.0,,,1
Brent,St Joseph's Catholic Church,Church,51.5531327,-0.2873347,4.7,0.7601673603057861,0.0,0.13333333333333333,0.8666666666666667,"Accessibility, Safety, Noise, Comfort, Cleanliness, Atmosphere, Maintenance, Aesthetics, Traffic, General","parking (36), easy (18), terrible (18), peaceful (18), beautiful (12), modern (9), clean (9), maintained (9), spacious (9), comfortable (9), excellent (9), lighting (9), serene (9), perfect (9), music (9), welcoming (9), convenient (9), chaotic (9), wonderful (9), great (9), calm (9), good (9), safe (6), active (3), tidy (3), messy (3)",194
Brent,The Potter's House Church Wembley,Church,51.5535709,-0.2927226,4.6,0.8774661342302958,0.0,0.0,1.0,"Comfort, Atmosphere, General","great (27), amazing (18), welcoming (9), good (9), fantastic (9), vibrant (9), tidy (9), safe (6), lovely (6), messy (3), lively (2)",13
Brent,"Church of the Ascension, Wembley Park",Church,51.5706508,-0.2884878,4.7,0.6293210506439209,0.0,0.4,0.6,"Noise, Comfort, Atmosphere, Aesthetics, General","good (18), attractive (9), welcoming (9), peaceful (9), calm (9), great (9), lively (9), lovely (6), parking (3), busy (3)",33
Brent,Cross Fellowship London (Cross Ministries),Church,51.5523303,-0.2976225,4.7,0.4796389738718669,0.0,1.0,0.0,General,good (12),7
Brent,V2V Community Church,Church,51.5645073,-0.3019765,4.7,0.638126814365387,0.13333333333333333,0.4666666666666667,0.4,"Maintenance, Atmosphere, General","great (51), good (15), active (9), safe (9), modern (9), messy (9), shouting (3), tidy (3), amazing (3)",28
Brent,Wembley Prayer Centre,Church,51.5470228,-0.2972597,2.0,0.0,0.0,0.0,0.0,,,1
Brent,Wembley Gospel Hall,Church,51.5449808,-0.2967201,4.0,0.4920722246170044,0.0,1.0,0.0,,,1
Brent,"St James Church, Alperton",Church,51.5428816,-0.2937504999999999,4.7,0.6204716026782989,0.0,0.4666666666666667,0.5333333333333333,"Accessibility, Safety, Comfort, Cleanliness, Traffic, Aesthetics, General","safe (15), beautiful (9), parking (9), good (9), amazing (9), welcoming (9), fantastic (6), lovely (6), clean (6), near (3), messy (3), loud (3)",26
Brent,"St Augustine's Church, Wembley Park",Church,51.5620862,-0.2916189,4.4,0.6176710565884908,0.0,0.4,0.6,"Accessibility, Noise, Comfort, Maintenance, Traffic, Aesthetics, General","welcoming (18), wonderful (18), good (18), walking (18), parking (15), pleasant (12), new (9), great (9), music (9), easy (9), traffic (9), lovely (9), cars (6), safe (6), dark (3), dead (3), pretty (3)",46
Brent,Park Lane Methodist Church,Church,51.55541849999999,-0.2934007,4.6,0.6601433952649435,0.0,0.4666666666666667,0.5333333333333333,"Accessibility, Comfort, Traffic, Aesthetics, General","welcoming (27), safe (9), amazing (9), lovely (9), great (9), excellent (9), easy (9), bad (9), parking (9), tidy (6), walking (3), messy (3)",54
Brent,"St John the Evangelist, Wembley",Church,51.55269810000001,-0.3015804,4.7,0.43691317836443583,0.4666666666666667,0.3333333333333333,0.2,"Accessibility, Comfort, Cleanliness, Atmosphere, Aesthetics, Traffic, General","beautiful (18), welcoming (9), busy (9), good (9), vibrant (9), amazing (9), rubbish (9), near (6)",22
Brent,"St Erconwald RC Church, Wembley",Church,51.5695373,-0.2927658,4.5,0.7572148700555166,0.0,0.4,0.6,"Accessibility, Comfort, Maintenance, Aesthetics, General","lovely (18), good (15), noisy (9), near (9), uncomfortable (9), worst (9), welcoming (9), great (9), beautiful (9), tidy (6), safe (6), ugly (3), lighting (3), messy (3), wonderful (3)",42
Brent,New Life Christian Centre International,Church,51.5534629,-0.2773325999999999,4.7,0.822430427869161,0.0,0.0,1.0,"Noise, Comfort, Maintenance, Aesthetics, General","lovely (15), new (9), great (9), music (9), good (3), welcoming (3), messy (3)",39
Brent,Christ Jesus Healing Minsitry to the World,Church,51.5613883,-0.2777849,2.0,0.0,0.0,0.0,0.0,,,1
Brent,Elm Road Car Park,Parking,51.55403279999999,-0.2955927,3.6,0.6721856772899628,0.06666666666666667,0.3333333333333333,0.6,"Maintenance, Traffic, Accessibility, Safety","parking (36), cars (21), safe (12), good (9), near (9), congested (9), noisy (6)",28
Brent,Lonsdale Avenue Car Park,Parking,51.5525166,-0.2939969,3.1,0.47032494147618614,0.3333333333333333,0.5333333333333333,0.13333333333333333,"Cleanliness, Traffic, Safety","parking (42), cars (9), dirty (9), security (9), noisy (6), safe (3), updated (3), pretty (3), maintained (3)",14
Brent,Car Park,Parking,51.57351310000001,-0.2954296,4.2,0.602659688393275,0.06666666666666667,0.2,0.7333333333333333,"Noise, Traffic, Accessibility, General","parking (39), good (27), cars (21), great (9), traffic (9), easy (9), far (9), bad (9), messy (6), walking (6), lovely (3), noisy (3)",50
Brent,Brent Civic Center Underground Carpark,Parking,51.5587144,-0.2823078,3.7,0.6204746246337891,0.0,0.4,0.6,"Accessibility, Safety, Cleanliness, Traffic, General","parking (30), excellent (18), cars (18), easy (18), secure (9), good (9), clean (9), security (9), safe (9), walking (6), tidy (3)",62
Brent,Wembley Gold Car Park,Parking,51.557601,-0.2837854,3.2,0.6181906123956045,0.0,0.5333333333333333,0.4666666666666667,"Comfort, Atmosphere, Traffic, Accessibility","parking (108), easy (10), spacious (9), driving (9), busy (9), tight (9), cars (6), near (6), noisy (3), convenient (3), flow (3), walking (3), messy (3)",78
Brent,Empire Way Car Park Wembley - Green Parking,Parking,51.5575561,-0.2861306999999999,3.5,0.6889448523521423,0.06666666666666667,0.13333333333333333,0.8,"Accessibility, Safety, Comfort, Atmosphere, Maintenance, Aesthetics, Traffic, General","parking (96), cars (42), good (27), safe (9), busy (9), unsafe (9), convenient (9), tight (9), modern (9), disappointing (9), vehicle (6), tidy (6), messy (3), noisy (3), near (3)",113
Brent,Wembley Park,Parking,51.55564270000001,-0.2829006000000001,3.9,0.6816172361373901,0.0,0.4,0.6,"Traffic, Accessibility, General","parking (30), safe (12), easy (9), good (9), worst (9), noisy (3), tidy (3), pretty (3), cars (3), messy (3)",16
Brent,Red Parking,Parking,51.5555827,-0.2825732,3.8,0.604991614818573,0.2,0.4,0.4,"Accessibility, Safety, Noise, Comfort, Atmosphere, Maintenance, Aesthetics, Traffic, General","parking (75), cars (36), messy (21), safe (18), poor (18), uncomfortable (18), good (12), loud (12), tidy (12), shouting (12), noisy (9), easy (9), unsafe (9), terrible (9), calm (3)",169
Brent,JustPark,Parking,51.55734100000001,-0.286479,2.8,0.6622538407643636,0.0,0.4,0.6,"Noise, Traffic, Accessibility, General","parking (27), cars (19), traffic (9), bad (9), good (9), noisy (6), pretty (6), safe (3), tidy (3), walking (3), messy (3)",6
Brent,Green Parking,Parking,51.5563019,-0.2762715,4.1,0.5499631802241007,0.2,0.4,0.4,"Accessibility, Safety, Atmosphere, Maintenance, Traffic","parking (75), cars (22), security (9), noisy (9), vibrant (9), convenient (3), tidy (3), old (3)",12
Brent,Blue Parking,Parking,51.5562179,-0.2759614,4.9,0.5743018686771393,0.0,0.6,0.4,"Accessibility, Noise, Maintenance, Traffic, General","parking (51), convenient (18), vehicle (18), good (18), cars (15), pretty (15), bad (15), traffic (9), modern (9), perfect (9), easy (9), near (9), poor (9), walking (3)",8
Brent,"JustPark | Wembley, The Greenman Hotel",Parking,51.55736999999999,-0.2895470000000001,3.0,0.7875429656770494,0.0,0.3333333333333333,0.6666666666666666,Traffic,"parking (12), walking (3), messy (2)",5
Brent,Pink Parking,Parking,51.55545120000001,-0.2736575,4.3,0.6735571980476379,0.0,0.4,0.6,"Safety, Traffic, Accessibility, General","parking (37), walking (15), easy (9), noisy (9), great (9), cars (9), crime (9), police (9), secure (9), excellent (9), safe (6), far (3), tidy (3)",31
Brent,JustPark,Parking,51.56469999999999,-0.2755799999999999,4.5,0.5071716904640198,0.0,1.0,0.0,"Traffic, General","good (9), parking (9)",4
Brent,Just Park @ 207,Parking,51.56169430000001,-0.2920714000000001,5.0,0.7947789231936137,0.0,0.0,1.0,"Accessibility, General","easy (18), perfect (9)",1
Brent,ASDA Parking,Parking,51.5647824,-0.2744328,5.0,0.5300497810045878,0.25,0.25,0.5,"Traffic, Atmosphere, General","parking (30), good (9), great (9), safe (6), crowded (6), cars (3)",9
Brent,Preston Community Library,Library,51.566513,-0.2931458,4.1,0.6406161321534051,0.3333333333333333,0.0,0.6666666666666666,,safe (3),7
Brent,Wembley Library,Library,51.5587657,-0.2808486,3.8,0.7028392692406972,0.0,0.4,0.6,"Accessibility, Noise, Comfort, Cleanliness, Atmosphere, Maintenance, Traffic, Aesthetics, General","clean (18), noisy (12), safe (9), quiet (9), loud (9), busy (9), modern (9), comfortable (9), crowded (9), great (9), peaceful (6), wonderful (6), near (3), lovely (3), tidy (3), fantastic (3)",192
Brent,Ealing Road Library,Library,51.5495288,-0.2974117,3.9,0.5414116144180298,0.0,0.8,0.2,"Noise, Comfort, Atmosphere, Maintenance, General","quiet (27), worst (9), roomy (9), good (9), silent (9), unpleasant (9), safe (3), new (3), easy (3)",92
Brent,Inner Space Wembley,Health,51.5525812,-0.2968341,4.9,0.7959322293599447,0.0,0.0,1.0,"Accessibility, Safety, Noise, Comfort, Atmosphere, General","great (21), peaceful (12), safe (9), amazing (9), welcoming (9), easy (9), messy (3)",31
Brent,Kumon Maths & English,School,51.55147210000001,-0.2981539,4.8,0.7516552925109863,0.2,0.0,0.8,"Traffic, Accessibility, General","great (30), amazing (9), fantastic (9), far (9), walking (9), lovely (6), messy (6), driving (6), safe (3), good (3), tidy (3)",100
Brent,Learning Stars Montessori Children’s House,School,51.56198729999999,-0.2843136,4.6,0.7971698403358459,0.0,0.06666666666666667,0.9333333333333333,"Accessibility, Safety, Noise, Comfort, Cleanliness, Maintenance, Aesthetics, General","safe (60), good (27), new (18), great (18), spacious (18), lovely (18), connected (12), buzzing (9), clean (9), perfect (9), secure (9), amazing (9), welcoming (9), music (9), fantastic (9), messy (6), noisy (6), tidy (6), beautiful (3), peaceful (3), updated (3)",27
Brent,Michaela Community School,School,51.56277289999999,-0.2789269,2.6,0.7727486968040467,0.0,0.2,0.8,"Maintenance, Aesthetics, Accessibility, General","amazing (54), perfect (18), difficult (9), beautiful (9), good (6), noisy (6), poor (6), safe (3)",94
Brent,"Hindu Academy | Free Hinduism Classes Online in London, UK | GCSE Hinduism",Hindu Temple,51.5557341,-0.2914336999999999,4.8,0.8316839098930359,0.0,0.0,1.0,"Maintenance, Aesthetics, Accessibility, General","wonderful (24), fantastic (21), easy (21), amazing (18), modern (9), great (9), messy (3), lovely (3), dead (3), perfect (3)",61
Brent,Kumon Maths & English,School,51.57089910000001,-0.2888622000000001,5.0,0.7139681259791056,0.0,0.06666666666666667,0.9333333333333333,"Maintenance, General","excellent (9), safe (9), parking (6), improved (3)",17
Brent,Lycée français Wembley,School,51.5661111,-0.2736667,4.5,0.0,0.0,0.0,0.0,,,2
Brent,Bright Horizons Wembley Day Nursery and Preschool,School,51.5624037,-0.2967547,4.2,0.8303231557210287,0.0,0.2,0.8,"Accessibility, Atmosphere, Maintenance, Aesthetics, Traffic, General","lovely (36), horrible (24), worst (18), old (18), safe (15), tidy (12), beautiful (9), good (9), new (9), busy (9), difficult (9), great (9), amazing (9), poor (6), muddy (3), pretty (3), noisy (3), isolated (3), shouting (3), messy (3)",21
Brent,London Road Nursery,School,51.55228909999999,-0.2950546999999999,4.3,0.7698164820671082,0.0,0.2,0.8,"Atmosphere, Maintenance, Traffic, Aesthetics, General","good (30), amazing (18), fantastic (18), beautiful (9), great (9), bad (9), busy (9), lovely (9), new (9), messy (6), old (3)",15
Brent,Poplar Grove School,School,51.563032,-0.262526,3.0,0.6080524126688639,0.0,0.0,1.0,,,2
Brent,London School of Science & Technology (Wembley campus),University,51.55352680000001,-0.2934669,4.2,0.76919700105985,0.2,0.0,0.8,"Accessibility, Safety, Cleanliness, Atmosphere, Maintenance, General","amazing (18), tidy (12), worst (9), difficult (9), messy (9), vibrant (9), fantastic (9), perfect (9), old (9), security (9), great (9), police (9), safe (6), poor (3)",101
Brent,Burleigh College,University,51.56196029999999,-0.2791754,5.0,0.0,0.0,0.0,0.0,,,1
Brent,UCFB Wembley Campus,University,51.557239,-0.2795009,4.5,0.7101934234301249,0.0,0.2,0.8,"Cleanliness, Traffic, Accessibility, General","great (9), far (9), poor (9), disappointing (9), clean (9), walking (9), amazing (9), fantastic (9), good (9), safe (6), messy (3), improved (3)",34
Brent,College of North West London,University,51.5619729,-0.280414,3.7,0.7379802942276001,0.0,0.2,0.8,"Accessibility, Safety, Cleanliness, Maintenance, General","old (24), tidy (15), safe (15), messy (12), good (12), awful (9), terrible (9), clean (9), easy (9), noisy (6), parking (3)",43
Brent,Ashley College,University,51.5662104,-0.2931366,3.7,0.43684086203575134,0.0,1.0,0.0,,,6
Brent,UCFB Wembley Arch View House,University,51.5582983,-0.2752148,3.7,0.6000851889451345,0.0,0.6,0.4,"Accessibility, Noise, Atmosphere, Maintenance, Aesthetics, General","modern (9), quiet (9), difficult (9), new (9), lovely (9), great (9), noisy (3), ugly (3)",7
Brent,Qualified 4 Life Ltd,University,51.5553946,-0.2754150999999999,4.7,0.7872464855511984,0.0,0.06666666666666667,0.9333333333333333,"Aesthetics, Safety, General","great (27), amazing (9), excellent (9), fantastic (9), tidy (6), safe (3)",19
Brent,1UX1 Academy - UX/UI Design & UX User Research Courses & Training,University,51.5491623,-0.2864131,5.0,0.654088169336319,0.0,0.4,0.6,"Aesthetics, General","messy (12), great (9), fantastic (6), noisy (6), dark (3), dead (3)",13
Brent,Regent College London | Wembley,University,51.5521504,-0.2948066,4.5,0.7853971362113953,0.0,0.2,0.8,"Aesthetics, Accessibility, General","difficult (18), bad (18), safe (15), tidy (12), wonderful (9), noisy (9), poor (6), good (6), messy (2)",212
Brent,Brunel University,University,51.5661387,-0.307242,4.0,0.0,0.0,0.0,0.0,,,1
Brent,Monks Park Health Centre,Hospital,51.5472021,-0.2727915,3.6,0.6860417127609253,0.0,0.13333333333333333,0.8666666666666667,"Accessibility, Comfort, Atmosphere, Traffic, General","excellent (27), amazing (27), safe (15), easy (9), comfortable (9), busy (9), tidy (9), great (9), messy (6), noisy (3)",10
Brent,The Wembley Practice,Hospital,51.54979199999999,-0.3051972,3.8,0.6510543425877889,0.0,0.4,0.6,"Maintenance, Safety, Accessibility, General","good (15), messy (12), difficult (9), noisy (9), great (9), amazing (9), secure (9), dangerous (9), safe (3), improved (3)",715
Brent,Stanley Corner Medical Centre,Hospital,51.5442454,-0.2965994,4.5,0.6795779367287954,0.0,0.2,0.8,"Safety, General","good (21), messy (18), great (9), safe (9), tidy (3)",735
Brent,Premier Medical Centre Wembley,Hospital,51.5501189,-0.3061773,4.4,0.780655813217163,0.0,0.2,0.8,"Accessibility, Safety, Atmosphere, Aesthetics, General","bad (18), safe (15), easy (9), great (9), far (9), threatening (9), terrible (9), good (9), tidy (6), messy (3)",499
Brent,Tudor House Medical Centre,Hospital,51.5652594,-0.2653108,4.5,0.734819620847702,0.0,0.2,0.8,"Aesthetics, General","good (18), lovely (9), messy (6), safe (6), noisy (3)",482
Brent,The Welford Health Centre,Hospital,51.5638714,-0.2766611,5.0,0.8159051338831583,0.0,0.0,1.0,,messy (3),2
Brent,Park Medical Clinic,Hospital,51.56254850000001,-0.2917776,4.7,0.8140435973803203,0.0,0.13333333333333333,0.8666666666666667,"Accessibility, Safety, Cleanliness, Maintenance, Aesthetics, General","great (18), good (12), clean (9), worst (9), risky (9), excellent (9), awful (9), near (9), messy (6), noisy (3)",15
Brent,IMC Circumcision Clinic London,Hospital,51.56279430000001,-0.3027849,4.8,0.8048108021418253,0.0,0.2,0.8,"Accessibility, Safety, Comfort, Cleanliness, Atmosphere, Maintenance, Aesthetics, General","comfortable (45), welcoming (27), great (27), clean (18), calm (18), wonderful (18), excellent (18), easy (18), safe (15), fantastic (9), old (9), amazing (6), tidy (3), spotless (3), messy (3), peaceful (3), lighting (3)",289
Brent,Wembley Centre for Health and Care,Hospital,51.5500751,-0.3059501,3.2,0.7600639998912812,0.0,0.2,0.8,"Aesthetics, Maintenance, Traffic, General","messy (30), noisy (27), worst (18), safe (15), tidy (15), horrible (9), great (9), parking (9), fantastic (9), bad (9), good (6), lively (3)",133
Brent,Alperton Medical Centre,Hospital,51.5428805,-0.2940461999999999,4.0,0.6895701626936594,0.0,0.26666666666666666,0.7333333333333333,"Comfort, General","excellent (18), fantastic (9), welcoming (9), good (9), wonderful (9), safe (3)",142
Brent,Pearl Medical Practice,Hospital,51.5500938,-0.3059531,3.9,0.6810372908910115,0.0,0.26666666666666666,0.7333333333333333,"Maintenance, Comfort, Accessibility, General","welcoming (45), excellent (27), good (21), comfortable (18), amazing (18), central (18), poor (12), easy (9), safe (9), new (9), great (9), noisy (6), loud (3)",138
Brent,Bubble Planet - London,Amusement Park,51.5596831,-0.2749984,4.0,0.6680266499519348,0.0,0.4,0.6,"Safety, Comfort, Cleanliness, Atmosphere, Maintenance, Aesthetics, General","great (27), relaxing (18), amazing (18), excellent (18), good (18), old (18), safe (15), fantastic (9), clean (9), maintained (9), security (9), welcoming (9), roomy (6), messy (6), lovely (3), tidy (3), noisy (3), crowded (3), dark (3), dead (3)",3222
Brent,Roundwood Park,Park,51.54195050000001,-0.2406079,4.5,0.6615245878696442,0.0,0.2,0.8,"Noise, Comfort, Atmosphere, Maintenance, Aesthetics, Traffic, General","great (27), safe (24), lovely (21), beautiful (21), walking (21), parking (20), good (12), messy (12), active (9), old (9), new (9), peaceful (9), relaxing (9), busy (9), quiet (9), stunning (9), cozy (6), flow (3)",2267
Brent,Gladstone Park,Park,51.55740729999999,-0.2360407,4.6,0.7231538832187653,0.0,0.2,0.8,"Accessibility, Cleanliness, Maintenance, Aesthetics, Traffic, General","parking (33), lovely (24), safe (9), great (9), clean (9), perfect (9), gorgeous (9), easy (9), damaged (9), walking (6), flow (6), noisy (3), good (3)",3679
Brent,Woodfield Park,Park,51.5729232,-0.2471071,4.5,0.5784471273422241,0.26666666666666666,0.4666666666666667,0.26666666666666666,"Noise, Atmosphere, Aesthetics, Traffic, General","good (27), parking (18), great (18), lovely (15), quiet (6), walking (4), dirty (3), tidy (3), safe (3), noisy (3)",164
Brent,Woodcock Park,Park,51.5842153,-0.3016408999999999,4.5,0.7869731704394023,0.0,0.0,1.0,"Accessibility, Cleanliness, Maintenance, Traffic, Aesthetics, General","parking (18), maintained (18), beautiful (9), walking (9), near (9), good (9), lovely (3), safe (3), noisy (3)",818
Brent,Eton Grove Open Space,Park,51.5919329,-0.2761021,4.3,0.5715656359990438,0.13333333333333333,0.4666666666666667,0.4,"Comfort, Cleanliness, Maintenance, Aesthetics, General","good (30), parking (20), rubbish (18), lovely (9), pleasant (9), great (9), pretty (9), broken (9), renovated (7), tidy (6), safe (3), clean (3)",182
Brent,Northwick Park,Park,51.5736485,-0.3124122,4.4,0.66510169506073,0.0,0.4,0.6,"Accessibility, Cleanliness, Atmosphere, Maintenance, Traffic, Aesthetics, General","parking (39), walking (33), great (18), lovely (12), connected (9), busy (9), wonderful (9), muddy (9), beautiful (9), good (9), new (9), appealing (9), tidy (3), safe (3)",698
Brent,Fryent Country Park,Tourist Attraction,51.5770045,-0.2744435,4.5,0.6632944067319234,0.0,0.4666666666666667,0.5333333333333333,"Accessibility, Safety, Noise, Cleanliness, Atmosphere, Maintenance, Aesthetics, General","beautiful (21), parking (12), pretty (9), sketchy (9), security (9), great (9), maintained (9), quiet (9), accessible (9), good (9), tidy (6), walking (6), noisy (3), muddy (3), protected (3), cars (3)",1411
Brent,Barham Park,Park,51.55337000000001,-0.3100949000000001,4.4,0.563035257657369,0.0,0.7333333333333333,0.26666666666666666,"Accessibility, Safety, Noise, Cleanliness, Atmosphere, Maintenance, Aesthetics, Traffic, General","good (36), safe (30), great (27), parking (24), clean (18), busy (12), near (12), walking (12), lovely (9), quiet (9), perfect (9), maintained (9), beautiful (9), dirty (9), wonderful (9), relaxing (7), noisy (3), flow (3)",1882
Brent,One Tree Hill Recreation Ground,Park,51.5439951,-0.303557,4.2,0.6881125867366791,0.06666666666666667,0.3333333333333333,0.6,"Accessibility, Cleanliness, Maintenance, Aesthetics, General","good (18), parking (17), tidy (12), old (9), safe (9), maintained (9), wonderful (9), beautiful (9), far (6), lively (3), neat (3), clean (3), peaceful (3)",498
Brent,Paddock,Tourist Attraction,51.5624025,-0.2376797,4.4,0.6058759450912475,0.13333333333333333,0.4666666666666667,0.4,"Traffic, General","tidy (12), great (9), fantastic (9), noisy (6), bikes (6), good (6), safe (3), poor (3)",27
Brent,Enterprise Car & Van Hire - Park Royal,Car Rental,51.5343579,-0.2633929,4.2,0.7982967476050059,0.06666666666666667,0.13333333333333333,0.8,"Accessibility, Safety, Noise, Comfort, Maintenance, Aesthetics, Traffic, General","cars (30), messy (18), excellent (18), parking (12), easy (9), worst (9), noisy (9), silent (9), repaired (9), comfortable (9), driving (9), welcoming (9), secure (9), vehicle (9), safe (6), risky (3), good (3)",291
Brent,Kingsbury Road Car Park,Transit Station,51.5852224,-0.276314,3.0,0.8307303587595621,0.0,0.0,1.0,"Traffic, Accessibility, Safety","parking (12), dangerous (9), near (9), threatening (9), cars (3), tidy (3)",2
Brent,South Kenton Station,Transit Station,51.57039239999999,-0.3079057000000001,3.2,0.5487614730993907,0.2,0.6,0.2,"Accessibility, Safety, Maintenance, Aesthetics, General","dark (18), noisy (12), lovely (12), new (9), old (9), poor (9), great (9), accessible (9), roomy (6), walking (3), safe (3), lively (2)",10
Brent,Alperton Station,Transit Station,51.5403531,-0.2996593,4.5,0.701606035232544,0.0,0.0,1.0,Accessibility,"near (9), easy (9), convenient (3), noisy (3)",2
Brent,South Kenton,Transit Station,51.570181,-0.3083981,4.3,0.5669611165920894,0.4,0.0,0.6,"Atmosphere, General","poor (9), calm (9), fantastic (9), tidy (3), lovely (3), noisy (3), safe (3), messy (3)",28
Brent,Neasden,Subway Station,51.5540337,-0.2497317,3.5,0.5101744552453359,0.0,0.8,0.2,"Accessibility, Safety, Noise, Cleanliness, Maintenance, Traffic, Aesthetics, General","safe (30), near (12), dirty (9), broken (9), walking (9), traffic (9), outdated (9), pretty (9), amazing (9), central (9), plain (9), dangerous (9), good (6), tidy (3), cozy (3), busy (3), far (2)",63
Brent,Alperton,Subway Station,51.5407153,-0.2993331,4.2,0.483016977707545,0.26666666666666666,0.4,0.3333333333333333,"Cleanliness, Atmosphere, Accessibility, Traffic","near (14), tidy (12), clean (9), busy (9), noisy (3), cars (3), calm (3), cozy (3), messy (3), roomy (3)",99
Brent,Sudbury Town,Subway Station,51.5509461,-0.3155344,4.4,0.5299540301163991,0.2,0.6,0.2,"Maintenance, Noise, Atmosphere, General","quiet (18), wonderful (9), good (9), safe (6), tidy (3), busy (3)",56
Brent,Kingsbury,Subway Station,51.5848468,-0.2787047,4.0,0.672041650613149,0.0,0.3333333333333333,0.6666666666666666,"Accessibility, Noise, Cleanliness, Traffic, Aesthetics, General","lovely (33), good (18), traffic (9), dirty (9), accessible (9), perfect (9), wonderful (3), tidy (3), walking (3)",218
Brent,Harlesden,Transit Station,51.5362506,-0.2572549,3.6,0.5764094511667888,0.0,0.4,0.6,"Accessibility, Safety, Noise, Cleanliness, Atmosphere, Maintenance, Aesthetics, Traffic, General","central (18), modern (18), lovely (15), tidy (12), old (12), great (9), clean (9), music (9), crime (9), safe (9), fantastic (9), busy (9), peaceful (9), beautiful (9), vibrant (9), appealing (9), easy (6), noisy (3), good (3), improved (3), lively (3), parking (3), near (3)",67
Brent,Dollis Hill,Subway Station,51.5519705,-0.2387564,3.9,0.6937391479810079,0.0,0.26666666666666666,0.7333333333333333,"Accessibility, Safety, Noise, Comfort, Cleanliness, Atmosphere, Maintenance, General","safe (39), convenient (18), central (18), maintained (18), modern (18), quiet (18), cramped (9), accessible (9), connected (9), easy (9), security (9), good (9), peaceful (9), calm (9), great (9), horrible (9), unsafe (9), sketchy (9), clean (9), police (9), near (6), awful (6), busy (3), roomy (3), noisy (3), tidy (3)",54
Brent,Pound Lane / Willesden Bus Garage (Stop WX),Transit Station,51.54769049999999,-0.2401470999999999,3.5,0.5188503116369247,0.5,0.0,0.5,"Aesthetics, Cleanliness, Atmosphere","dirty (9), unattractive (9), busy (3), safe (3)",4
Brent,Hanger Lane station,Transit Station,51.5299868,-0.2946562,2.6,0.6741894036531448,0.5,0.0,0.5,"Noise, Traffic, General","good (9), messy (6)",5
Brent,Bus Stop Mail Order,Bus Station,51.5351877,-0.2646262,5.0,0.4969632923603058,0.0,1.0,0.0,General,good (9),1
Brent,Hanger Lane,Subway Station,51.530061,-0.2929893000000001,3.8,0.6163294951121012,0.06666666666666667,0.5333333333333333,0.4,"Accessibility, Safety, Cleanliness, Atmosphere, Maintenance, Traffic, General","central (27), safe (18), busy (18), noisy (9), modern (9), good (9), worst (9), far (3), tidy (3), convenient (3), clean (3)",101
Brent,Northwick Park,Subway Station,51.5785081,-0.3178373,4.1,0.6185866057872772,0.06666666666666667,0.5333333333333333,0.4,"Accessibility, Cleanliness, Aesthetics, Traffic, General","parking (18), central (18), lovely (15), great (9), wonderful (9), good (9), clean (9), convenient (9), near (6), noisy (3), roomy (3), tidy (3), safe (3), walking (3)",85
Brent,Kenton,Transit Station,51.5818443,-0.3171355,3.7,0.7354378700256348,0.0,0.13333333333333333,0.8666666666666667,"Accessibility, Comfort, Cleanliness, Maintenance, General","good (12), clean (9), enjoyable (9), safe (6), tidy (3), maintained (3), noisy (3), walking (3), near (2)",47
Brent,Park Royal,Subway Station,51.52697730000001,-0.2843797,4.1,0.5329371094703674,0.0,0.8,0.2,"Accessibility, Safety, Noise, Comfort, Cleanliness, Atmosphere, Maintenance, Traffic, General","central (36), safe (27), quiet (21), modern (18), clean (18), pleasant (18), easy (18), maintained (18), parking (15), walking (12), excellent (9), connected (9), great (9), bustling (9), busy (9), near (6), charming (3), noisy (3)",99
Brent,Perivale,Subway Station,51.5366624,-0.3238122,3.7,0.4733350336551666,0.3333333333333333,0.4666666666666667,0.2,"Accessibility, Comfort, Cleanliness, Atmosphere, Maintenance, Traffic, General","central (18), busy (18), old (18), maintained (18), walking (18), great (18), cars (12), noisy (9), clean (9), parking (9), pleasant (9), tidy (3), good (3), messy (3)",47
Brent,Sudbury Hill,Subway Station,51.5570459,-0.3361642,3.7,0.7073244690895081,0.0,0.26666666666666666,0.7333333333333333,"Maintenance, Cleanliness, Traffic, General","tidy (12), clean (9), worst (9), good (9), walking (9), messy (6)",55
Brent,Queensbury,Subway Station,51.59442929999999,-0.2855985,4.0,0.5134425103664398,0.06666666666666667,0.7333333333333333,0.2,"Maintenance, Cleanliness, Safety","clean (9), tidy (9), safe (9), filthy (9), noisy (3)",60
Brent,Silkbridge Retail Park,Shopping Mall,51.5810568,-0.2446979,4.2,0.60984787940979,0.0,0.4,0.6,"Traffic, Accessibility, General","good (36), parking (27), safe (24), convenient (9), great (9), easy (9), walking (3), vehicle (3)",567
Brent,Your Pro Tools,Shopping Mall,51.5504881,-0.2453915,5.0,0.8550674319267273,0.0,0.0,1.0,General,excellent (9),1
Brent,Dubai Bazaar,Shopping Mall,51.5857709,-0.2756817999999999,3.9,0.5864147166411082,0.0,0.5333333333333333,0.4666666666666667,General,"good (30), great (18), amazing (6)",35
Brent,Insurance Shopping Centre,Shopping Mall,51.5490809,-0.2388423,5.0,0.0,0.0,0.0,0.0,,,2
Brent,Harlesden Mall,Shopping Mall,51.53683359999999,-0.2482672,2.4,0.8813951081699796,0.0,0.0,1.0,General,"bad (9), horrible (6), broken (3), shouting (3)",5
Brent,Afghan Islamic Cultural Centre,Mosque,51.5482227,-0.2479089,4.8,0.6226839145024617,0.2,0.2,0.6,"Accessibility, Safety, Noise, Comfort, Cleanliness, Atmosphere, Aesthetics, General","near (27), welcoming (18), peaceful (18), neat (12), fantastic (9), great (9), lovely (9), good (9), dark (9), pleasant (9), calm (9), serene (9), lighting (3)",395
Brent,Welsh Harp Open Space,Park,51.57094569999999,-0.2493048,4.5,0.5748640974362691,0.2,0.3333333333333333,0.4666666666666667,"Accessibility, Noise, Atmosphere, Maintenance, Traffic, Aesthetics, General","great (27), beautiful (27), walking (21), lovely (18), peaceful (18), good (15), bikes (12), parking (9), near (9), traffic (9), new (9), attractive (9), wonderful (9), noisy (3), lighting (3), safe (3), calm (3)",748
Brent,Perivale Wood,Natural Feature,51.54017750000001,-0.3291243,4.4,0.5352523289620876,0.3333333333333333,0.3333333333333333,0.3333333333333333,"Aesthetics, General","beautiful (18), wonderful (9), amazing (9), good (6), fantastic (3), tidy (3)",7
Brent,Brent Reservoir,Natural Feature,51.5706224,-0.2467176,4.5,0.5056412518024445,0.13333333333333333,0.8666666666666667,0.0,"Accessibility, Safety, Noise, Cleanliness, Atmosphere, Traffic, Aesthetics, General","good (18), calm (12), safe (12), walking (12), traffic (9), relaxing (9), muddy (9), beautiful (9), far (6), cars (3), quiet (3)",137
Brent,Horsenden Wood,Natural Feature,51.54906279999999,-0.3251645,4.7,0.6285272777080536,0.2,0.4,0.4,"Noise, Cleanliness, Atmosphere, Traffic, Aesthetics, General","walking (29), lovely (18), clean (18), gorgeous (9), great (9), tidy (9), dirty (9), amazing (9), peaceful (9), quiet (9), good (9), relaxing (3)",18
Brent,Chatsworth Woods,Natural Feature,51.52483119999999,-0.2916685,5.0,0.0,0.0,0.0,0.0,,,2
Brent,Fox Wood,Natural Feature,51.5259632,-0.298875,4.5,0.5285091996192932,0.0,1.0,0.0,"Noise, Atmosphere",peaceful (9),6
Brent,Willesden Jewish Cemetery (United Synagogue),Cemetery,51.54760309999999,-0.2418893,3.9,0.6854546209176381,0.0,0.3333333333333333,0.6666666666666666,"Cleanliness, Maintenance, Traffic, Aesthetics, General","great (18), safe (15), maintained (9), old (9), noisy (6), messy (6), perfect (3), pretty (3), beautiful (3), flow (3)",15
Brent,Willesden New Cemetery,Cemetery,51.54655469999999,-0.2450761,4.5,0.7210271040598552,0.0,0.2,0.8,"Cleanliness, Atmosphere, Aesthetics, Traffic, General","relaxing (9), dirty (9), tidy (9), great (9), safe (3), cars (3), lovely (3)",17
Brent,Alperton Cemetery,Cemetery,51.5434145,-0.3063525000000001,4.7,0.5748155663410822,0.0,0.5,0.5,"Aesthetics, Noise, Cleanliness, Atmosphere","clean (15), lovely (9), peaceful (9), quiet (6), walking (3)",7
Brent,Liberal Jewish Cemetery Prayer Hall,Synagogue,51.5436597,-0.2380035,3.8,0.535420321755939,0.1111111111111111,0.8888888888888888,0.0,"Maintenance, Cleanliness",maintained (9),6
Brent,Christ Church,Church,51.5389221,-0.2544963,4.6,0.6530829429626465,0.0,0.6,0.4,"Accessibility, Safety, Comfort, Maintenance, General","wonderful (18), good (18), safe (15), far (9), messy (9), welcoming (9), old (9), lovely (3), lighting (3)",49
Brent,"St Michael and All Angels, Stonebridge",Church,51.5411502,-0.2591428,4.2,0.49101033608118694,0.2,0.6666666666666666,0.13333333333333333,"Comfort, Aesthetics, General","good (21), welcoming (15), lovely (9)",27
Brent,Nu-Life Church London,Church,51.53348020000001,-0.2749649,5.0,0.5740814606348673,0.25,0.08333333333333333,0.6666666666666666,General,"great (9), good (9), lovely (2)",6
Brent,RCCG Majesty Court of Praise,Church,51.53911989999999,-0.2947140999999999,4.8,0.755091925462087,0.0,0.16666666666666666,0.8333333333333334,Aesthetics,"beautiful (9), lovely (3)",9
Brent,Sudbury Methodist Church,Church,51.5560693,-0.3181335,4.6,0.5828246076901754,0.13333333333333333,0.4,0.4666666666666667,"Comfort, Cleanliness, Maintenance, Aesthetics, Traffic, General","great (18), parking (12), lovely (12), beautiful (9), clean (9), spacious (9), pleasant (9), safe (3)",45
Brent,Kingsbury Baptist Church,Church,51.5783481,-0.2659341,4.9,0.5174109518527985,0.0,0.8666666666666667,0.13333333333333333,"Comfort, Cleanliness, Traffic, General","clean (18), welcoming (18), pleasant (9), good (9), parking (9), messy (6), lovely (3), noisy (3), roomy (3), busy (3)",22
Brent,Restoration Revival Fellowship Apostolic Church,Church,51.5435615,-0.2534168,4.5,0.7420905927817026,0.0,0.2,0.8,General,"good (9), bad (9), great (9), tidy (3)",14
Brent,Fashtag Clothing,Parking,51.5284344,-0.2614327,4.4,0.8075132220983505,0.0,0.0,1.0,"Comfort, Atmosphere, Accessibility, General","easy (9), tight (9), tidy (9), excellent (9), messy (3)",5
Brent,Car Park Wembley Travelodge,Parking,51.5378844,-0.2833794,3.6,0.7250652194023133,0.0,0.13333333333333333,0.8666666666666667,"General, Aesthetics, Safety","excellent (18), good (18), secure (15), messy (9), security (9), parking (6), cars (3), noisy (3)",12
Brent,Sudbury Town Station Car Park,Parking,51.5508418,-0.3149239,4.3,0.5475079456965128,0.3333333333333333,0.13333333333333333,0.5333333333333333,"Safety, Cleanliness, Maintenance, Traffic, General","parking (18), renovated (9), lighting (9), improved (9), great (9), cars (6), clean (3), tidy (3), noisy (3), crowded (3)",27
Brent,Cricklewood Library,Library,51.55687709999999,-0.2275065,4.5,0.7846582939227422,0.13333333333333333,0.06666666666666667,0.8,"Noise, Comfort, Cleanliness, Maintenance, Aesthetics, General","music (27), fantastic (18), welcoming (18), great (18), lovely (15), excellent (9), lively (9), modern (9), clean (9), inviting (9), gorgeous (9), amazing (9), parking (6), tidy (6), good (6), noisy (3), relaxing (3), safe (3), wonderful (3)",43
Brent,The Library at Willesden Green,Library,51.5470076,-0.2290443,4.2,0.6744099219640096,0.0,0.4,0.6,"Noise, Comfort, Atmosphere, Traffic, General","good (24), noisy (12), music (9), calm (9), spacious (9), busy (9), loud (9), quiet (9), tidy (6), safe (6), walking (3), lovely (3)",192
Brent,Barham Community Library,Library,51.552172,-0.3113730999999999,5.0,0.6152351180712382,0.0,0.6666666666666666,0.3333333333333333,"Aesthetics, General","great (27), safe (12), good (9), lovely (6), parking (3)",11
Brent,Kingsbury Library,Library,51.58595,-0.2765469,4.2,0.7173804402351379,0.0,0.2,0.8,"Accessibility, Noise, Comfort, Atmosphere, Maintenance, Aesthetics, Traffic, General","pleasant (12), near (12), lovely (9), quiet (9), welcoming (9), great (9), flow (9), old (9), perfect (7), messy (6), safe (3), neat (3), new (3), tidy (3)",74
Brent,Harlesden Library Plus,Library,51.53868689999999,-0.2504457,3.6,0.6472535888353984,0.2,0.2,0.6,"Accessibility, Safety, Noise, Comfort, Cleanliness, Atmosphere, Maintenance, General","good (33), security (27), clean (26), messy (15), shouting (12), safe (12), great (9), noisy (9), worst (9), unpleasant (9), tidy (6), far (3), active (3), lovely (3), easy (1)",47
Brent,Perivale Library,Library,51.5405684,-0.3240869,4.9,0.7620520154635112,0.0,0.2,0.8,"Accessibility, Noise, Comfort, Atmosphere, Maintenance, Aesthetics, General","lovely (18), vibrant (15), amazing (9), lively (9), silent (9), remote (9), welcoming (9), comfortable (9), beautiful (9), inviting (9), modern (9), cozy (9), parking (3), near (3), safe (3)",38
Brent,Foxes Club,School,51.52750589999999,-0.2725147,4.8,0.8094144642353058,0.0,0.2,0.8,"Maintenance, Atmosphere, Safety, General","great (45), fantastic (36), old (18), safe (15), amazing (9), active (9), good (9), calm (9), parking (6), lovely (4), tidy (3)",531
Brent,College of North West London,University,51.55118450000001,-0.2434556,3.6,0.7375461896260579,0.06666666666666667,0.13333333333333333,0.8,"Cleanliness, Atmosphere, Maintenance, Traffic, Aesthetics, General","noisy (9), busy (9), great (9), bad (9), new (9), rubbish (9), lovely (9), pretty (9), good (9), tidy (6), safe (6), messy (6), dark (3), dead (3), shouting (3)",211
Brent,"University Of Westminster, Harrow Campus",University,51.5774145,-0.3219904,4.2,0.746511189142863,0.0,0.2,0.8,"Accessibility, Atmosphere, Maintenance, Aesthetics, General","new (18), good (18), noisy (9), perfect (9), great (9), accessible (9), relaxing (9), safe (6), lovely (6), amazing (6), roomy (3), dangerous (3), wonderful (3)",130
Brent,Oxford College International,University,51.5332415,-0.2752457,3.8,0.0,0.0,0.0,0.0,,,5
Brent,Brookwood College,University,51.5374595,-0.2843732,5.0,0.0,0.0,0.0,0.0,,,2
Brent,London School Of International Business (LSIB),University,51.537454,-0.284357,3.9,0.5913435618082682,0.2,0.4,0.4,"Maintenance, General","good (18), noisy (9), new (9), excellent (9), cars (3), calm (3), cozy (3), messy (3)",30
Brent,OA Education,University,51.536,-0.287665,4.6,0.7131200114885966,0.0,0.4,0.6,General,"messy (21), great (18), good (12), excellent (9), perfect (3)",10
Brent,St Gregory's Science College,University,51.5837191,-0.3050261,3.5,0.701747860511144,0.0,0.2,0.8,"Cleanliness, Accessibility, General","good (30), difficult (18), trash (9), noisy (6), safe (3), tidy (3), messy (3), lively (3), lovely (3)",68
Brent,The Islamic College,University,51.5466213,-0.2309413,4.6,0.7008788565794627,0.06666666666666667,0.13333333333333333,0.8,"Cleanliness, General","great (18), tidy (12), amazing (9), excellent (9), lovely (6), safe (3), messy (3)",20
Brent,International Bible Institute of London (IBIOL),University,51.529018,-0.2927683999999999,5.0,0.7863189140955608,0.0,0.06666666666666667,0.9333333333333333,General,"excellent (9), wonderful (9), great (6)",10
Brent,Sharpe Academy,University,51.57976120000001,-0.3255688,4.0,0.0,0.0,0.0,0.0,,,1
Brent,UK Business College,University,51.5244754,-0.2798349,3.7,0.0,0.0,0.0,0.0,,,3
Brent,Mizarolli London North West Guitar Lessons,University,51.5539978,-0.2366979,4.4,0.8240672389666239,0.0,0.0,1.0,"Maintenance, Noise, Accessibility, General","great (18), amazing (18), improved (10), new (9), fantastic (6), near (6), safe (3), noisy (3)",9
Brent,Medical Diagnosis Ltd,Hospital,51.5536144,-0.2526665,4.4,0.7097287396589915,0.0,0.4,0.6,"Accessibility, Comfort, Maintenance, Traffic, General","easy (28), good (18), pleasant (9), great (9), accessible (9), parking (9), amazing (9), welcoming (9), walking (6), safe (3), tidy (3), dark (3), dead (3)",142
Brent,Central Middlesex Hospital,Hospital,51.53094400000001,-0.2690778,3.3,0.6448139468828837,0.0,0.6,0.4,"Accessibility, Cleanliness, Atmosphere, Maintenance, Aesthetics, Traffic, General","busy (39), old (27), tidy (24), messy (21), wonderful (18), easy (18), safe (12), bad (12), parking (12), lovely (9), perfect (9), fantastic (9), clean (9), excellent (9), good (9), poor (9), connected (9), dark (3), dead (3), pretty (3), walking (3), noisy (3)",480
Brent,St. Mark's National Bowel Hospital,Hospital,51.5762231,-0.3203386,4.0,0.5760678231716156,0.4,0.2,0.4,"Safety, Noise, Cleanliness, Atmosphere, Maintenance, Aesthetics, General","safe (48), messy (33), tidy (21), bad (21), lovely (18), amazing (18), good (9), roomy (9), spotless (9), excellent (9), wonderful (9), modern (9), noisy (6), busy (3), calm (3), shouting (3), great (3), dark (3), dead (3)",129
Brent,The Clementine Churchill Hospital,Hospital,51.56507300000001,-0.3321750000000001,4.7,0.8078293979167939,0.0,0.2,0.8,"Accessibility, Safety, Noise, Comfort, Cleanliness, Atmosphere, Aesthetics, General","excellent (27), far (18), messy (18), comfortable (18), amazing (9), welcoming (9), lovely (9), great (9), wonderful (9), safe (9), clean (9), peaceful (9), tidy (6), roomy (3), good (3), spotless (3)",3283
Brent,Northwick Park Hospital,Hospital,51.57540359999999,-0.3201721,2.5,0.6945639848709106,0.0,0.4,0.6,"Accessibility, Safety, Noise, Cleanliness, Atmosphere, Maintenance, Aesthetics, General","clean (24), good (21), easy (15), messy (15), difficult (9), quiet (9), noisy (9), security (9), peaceful (9), old (9), dirty (9), lovely (9), excellent (9), parking (6), safe (6), pretty (6), fantastic (6), calm (3), bad (3), tidy (3)",1588
Brent,Physio Medicine - Wembley Clinic,Physiotherapist,51.5411509,-0.2977997,3.3,0.7059970955053966,0.0,0.4,0.6,"Safety, Comfort, Atmosphere, Aesthetics, General","messy (24), threatening (9), terrible (9), calm (9), bad (3), noisy (3), tidy (3), lovely (3)",9
Brent,Brampton Health Centre,Hospital,51.586119,-0.2773659,3.3,0.8394628405570984,0.0,0.0,1.0,"Maintenance, Cleanliness, Aesthetics, General","tidy (27), safe (18), noisy (18), good (15), worst (9), clean (9), maintained (9), excellent (9), shouting (3), messy (2)",121
Brent,St Marks Medical Centre,Hospital,51.52945440000001,-0.3027644,2.4,0.7146060009797414,0.06666666666666667,0.26666666666666666,0.6666666666666666,General,"excellent (9), awful (9), terrible (9), great (9), fantastic (6), safe (6), messy (5), cars (3), dark (3), dead (3)",17
Brent,"Dr Arj Imbuldeniya Private Knee, Hip & Sports Injury Specialist Consultant Surgeon Harrow, Pinner, Ruislip, West London",Hospital,51.564867,-0.3327579000000001,5.0,0.6452617247899374,0.0,0.6,0.4,"Accessibility, Cleanliness, Maintenance, Aesthetics, Traffic, General","amazing (27), walking (12), fantastic (9), easy (9), old (9), great (9), tidy (6), lively (6), messy (6), repaired (3), damaged (3), clean (3), good (3), noisy (3)",20
Brent,Harrow Health Care Centre,Hospital,51.5629638,-0.3335296,4.6,0.7174819548924763,0.0,0.2,0.8,"Accessibility, Comfort, Cleanliness, Maintenance, Aesthetics, General","excellent (9), easy (9), welcoming (9), modern (9), clean (9), pleasant (9), comfortable (9), messy (9), unpleasant (9), wonderful (6), noisy (6), fantastic (3)",97
Brent,Burnley Medical Practice,Hospital,51.5428498,-0.2356978,3.6,0.6497930506865184,0.2,0.0,0.8,"Maintenance, Aesthetics, Accessibility, General","tidy (39), messy (29), poor (27), good (27), safe (21), noisy (15), amazing (9), bad (9), great (9), new (9), improved (3), near (3)",405
Brent,Wakemans Hill Surgery,Hospital,51.58758409999999,-0.2525513999999999,2.1,0.5738154172897338,0.0,0.6,0.4,"Accessibility, Noise, Atmosphere, Maintenance, Aesthetics, Traffic, General","messy (18), tidy (15), safe (12), good (12), traffic (9), busy (9), far (9), new (9), noisy (6)",52
Brent,Park Royal Centre for Mental Health,Hospital,51.53296229999999,-0.2693093,1.9,0.6478979726632436,0.2,0.2,0.6,"Accessibility, Safety, Atmosphere, Maintenance, Aesthetics, General","improved (21), worst (18), messy (18), police (18), tidy (12), parking (9), far (9), excellent (9), poor (9), dangerous (9), horrible (9), safe (6), roomy (6), good (6), noisy (3), active (3), near (3)",61
Brent,Wilberforce House,Museum,51.5794219,-0.2389352,5.0,0.0,0.0,0.0,0.0,,,1
Brent,Brent Museum,Museum,51.546875,-0.2288139,4.6,0.5387723525365193,0.0,1.0,0.0,"Comfort, Atmosphere, General","safe (18), excellent (9), great (9), tidy (3), pleasant (3)",38
Brent,Soul’D Art Piece,Art Gallery,51.5579052,-0.3153505,5.0,0.0,0.0,0.0,0.0,,,1
Brent,Canalside Gallery,Art Gallery,51.5391555,-0.2995401999999999,5.0,0.8129229545593262,0.0,0.0,1.0,"Aesthetics, General","lovely (9), excellent (9), lighting (3)",1
Brent,West London Art Factory,Art Gallery,51.5255716,-0.2829289,4.7,0.6981847484906515,0.0,0.4,0.6,"Aesthetics, General","great (18), lovely (12), safe (3), good (3), dark (3), dead (3)",10
Brent,London Gallery West,Art Gallery,51.5773078,-0.3223476,5.0,0.0,0.0,0.0,0.0,,,2
Brent,Harlesden High Street,Art Gallery,51.5358755,-0.2470349999999999,3.9,0.6196183641751607,0.2,0.4,0.4,"Accessibility, Atmosphere, Maintenance, Traffic, Aesthetics, General","great (18), good (15), messy (9), busy (9), easy (9), tidy (6), protected (3), lovely (3)",56
Brent,Sherbet Green,Art Gallery,51.5264174,-0.2693137,5.0,0.6625539263089498,0.0,0.0,1.0,"Atmosphere, Aesthetics, Accessibility","stunning (9), relaxing (9), far (6)",5
Brent,Willesden Gallery - The Library @ Willesden Green,Art Gallery,51.5466686,-0.2289144,4.2,0.6489241202672322,0.0,0.6,0.4,"Aesthetics, Noise, Atmosphere, General","lovely (9), calm (9), peaceful (9), relaxing (7), amazing (6), wonderful (6), lighting (3), fantastic (3)",9
Brent,Hendon Park,Tourist Attraction,51.5813532,-0.2208408,4.5,0.6347882171471914,0.0,0.26666666666666666,0.7333333333333333,"Accessibility, Noise, Comfort, Cleanliness, Atmosphere, Traffic, Aesthetics, General","parking (48), peaceful (36), serene (27), near (21), safe (21), lovely (18), walking (12), quiet (9), neat (9), new (9), clean (9), busy (9), perfect (9), beautiful (9), enjoyable (9), spacious (9), accessible (9), wonderful (9), good (6), relaxing (3), connected (3)",1604
Brent,King Edward VII Park,Park,51.5385309,-0.2309941,4.4,0.5678329328695934,0.0,0.4666666666666667,0.5333333333333333,"Aesthetics, General, Traffic, Safety","walking (21), good (18), safe (15), lighting (9), lovely (9), noisy (3), parking (3), poor (3)",328
Brent,Lowlands Recreation Ground,Park,51.5783917,-0.3369302,4.2,0.5061622659365336,0.4,0.2,0.4,"Cleanliness, Atmosphere, Maintenance, Aesthetics, General","maintained (9), relaxing (9), beautiful (9), clean (9), old (9), safe (6), parking (6), wonderful (6), walking (3), fantastic (3)",120
Brent,Sturgess Park,Park,51.5770747,-0.2266541,3.8,0.7444411238034566,0.0,0.2,0.8,"Accessibility, Noise, Cleanliness, Atmosphere, Maintenance, Traffic, General","parking (27), great (27), safe (18), peaceful (18), maintained (18), clean (12), rubbish (9), improved (9), busy (9), serene (9), perfect (9), near (9), fantastic (9), updated (7), tidy (6), walking (3)",154
Brent,"Paradise Fields, Horsenden Hill",Park,51.5442271,-0.3402029,4.5,0.6057901461919148,0.0,0.4,0.6,"Comfort, Cleanliness, Maintenance, Aesthetics, General","rubbish (18), broken (9), disappointing (9), good (9), bad (9), great (9), enjoyable (9), stunning (6), lovely (6), parking (3), neglected (3), messy (3)",66
Brent,Safarihub,Park,51.579925,-0.3347309999999999,5.0,0.6899718463420867,0.13333333333333333,0.2,0.6666666666666666,"Maintenance, Aesthetics, Accessibility, General","amazing (27), good (12), fantastic (12), beautiful (9), difficult (9), great (9), noisy (6), wonderful (6), tidy (3), safe (3)",16
Brent,Churchfields Open Space,Park,51.5746571,-0.3410043,4.7,0.6067828436692556,0.0,0.5333333333333333,0.4666666666666667,"Noise, Atmosphere, Aesthetics, General","great (18), good (9), lovely (9), scenic (9), stunning (9), quiet (6), noisy (3), parking (3), safe (3), dark (2), dead (2)",149
Brent,Montrose Park,Park,51.59840270000001,-0.2584790000000001,4.5,0.6456782877445221,0.0,0.6,0.4,"Accessibility, Safety, Cleanliness, Maintenance, Aesthetics, General","great (30), parking (12), lovely (12), central (9), dirty (9), unsafe (9), dark (9), relaxing (6), safe (6), new (3), walking (3), lively (3)",895
Brent,Dogworthy Dog Training,Park,51.53633739999999,-0.3384031,4.6,0.7934677143891652,0.0,0.2,0.8,"Accessibility, Atmosphere, Maintenance, Aesthetics, Traffic, General","new (27), walking (21), messy (21), tidy (18), great (18), noisy (12), poor (9), good (9), near (9), lovely (9), amazing (9), safe (3), dark (3), dead (3), old (3)",60
Brent,Gurnell BMX Track,Park,51.5296572,-0.3305660999999999,4.5,0.6049733301003773,0.0,0.6,0.4,"Accessibility, Cleanliness, Atmosphere, Maintenance, Traffic, Aesthetics, General","great (36), bikes (9), pretty (9), busy (9), parking (9), near (9), perfect (9), old (9), clean (9), good (9), cars (3), noisy (3), safe (3)",54
Brent,Harrow Recreation Ground,Park,51.5834337,-0.3439108,4.5,0.66314803759257,0.0,0.4666666666666667,0.5333333333333333,"Noise, Comfort, Cleanliness, Atmosphere, Maintenance, Traffic, General","fantastic (18), clean (18), parking (17), walking (12), modern (9), amazing (9), safe (9), peaceful (9), wonderful (9), maintained (9), serene (9), perfect (9), enjoyable (9), great (9), cyclists (9), noisy (3)",1055
Brent,Chandos Recreation Ground,Park,51.60544340000001,-0.2834024,4.4,0.5778064250946044,0.0,0.6666666666666666,0.3333333333333333,"Safety, Noise, Cleanliness, Atmosphere, Maintenance, Aesthetics, General","great (36), safe (30), parking (28), clean (21), lovely (18), relaxing (12), serene (9), peaceful (9), perfect (9), dangerous (9), maintained (9), good (9), pretty (9), quiet (9), cars (3), repaired (1)",398
Brent,Edgware Bus Depot - London Sovereign Ltd.,Bus Station,51.6115129,-0.2731516,4.0,0.6915647685527802,0.0,0.5,0.5,Traffic,driving (6),4
Brent,Park Royal Station,Transit Station,51.52715259999999,-0.2841313999999999,4.3,0.5446757011943393,0.1111111111111111,0.5555555555555556,0.3333333333333333,"Accessibility, Comfort, Cleanliness, Maintenance, General","noisy (15), parking (9), central (9), convenient (9), clean (9), maintained (9), easy (9), connected (9), pleasant (9), great (9), near (6), safe (3), damaged (3)",4
Brent,North Acton,Subway Station,51.5234587,-0.2597233,3.9,0.5489700237909952,0.0,0.8,0.2,"Accessibility, Cleanliness, Atmosphere, Maintenance, Traffic","central (36), noisy (18), crowded (15), convenient (9), easy (9), safe (9), clean (9), maintained (9), near (3)",134
Brent,Willesden Green,Subway Station,51.5491753,-0.2212208,4.2,0.6113275806109111,0.0,0.6666666666666666,0.3333333333333333,"Noise, Cleanliness, Atmosphere, Maintenance, Traffic, General","tidy (24), busy (18), great (18), crowded (18), quiet (9), clean (9), shouting (9), old (9), good (9), awful (9), noisy (6), safe (6), poor (3), lively (3), parking (3)",121
Brent,Harrow on the Hill,Transit Station,51.5793932,-0.3370302000000001,3.8,0.6128705064455668,0.0,0.5333333333333333,0.4666666666666667,"Accessibility, Noise, Cleanliness, Atmosphere, Maintenance, Aesthetics, Traffic, General","noisy (33), lovely (18), safe (15), good (15), messy (15), great (12), improved (9), updated (9), central (9), old (9), beautiful (9), serene (9), traffic (9), dirty (9), worst (9), parking (6), tidy (6), new (3), walking (3), busy (3)",288
Brent,West Acton,Subway Station,51.517902,-0.280957,4.3,0.5943511287371318,0.0,0.4,0.6,"Accessibility, Noise, Cleanliness, Atmosphere, Traffic, General","central (27), busy (12), noisy (9), clean (9), tidy (9), great (9), safe (9), good (9), quiet (6)",31
Brent,Colindale,Subway Station,51.59532040000001,-0.2501156,3.9,0.5639459629853566,0.4,0.0,0.6,"Accessibility, Noise, Cleanliness, Atmosphere, Maintenance, Aesthetics, Traffic, General","safe (30), tidy (24), new (18), central (9), pretty (9), loud (9), good (9), busy (9), updated (9), difficult (9), bad (9), near (9), messy (5), noisy (3)",94
Brent,Ealing Broadway,Shopping Mall,51.512981,-0.303368,4.3,0.6082045396169027,0.0,0.4,0.6,"Noise, Maintenance, General","good (18), music (9), upgraded (7), dark (3), dead (3), walking (3), neat (3), near (3), new (3), cars (3), parking (3)",15238
Brent,St Ann's Shopping Centre,Shopping Mall,51.5806405,-0.3370084,4.2,0.693646784623464,0.2,0.0,0.8,"Accessibility, Atmosphere, Aesthetics, Traffic, General","convenient (27), safe (21), crowded (18), amazing (18), great (9), accessible (9), parking (9), difficult (9), lovely (6), messy (3), cars (3)",9219
Brent,"St George's, Harrow",Shopping Mall,51.58110139999999,-0.3392411,4.2,0.5659038722515106,0.2,0.4,0.4,"Accessibility, Comfort, Cleanliness, Atmosphere, Maintenance, Traffic, General","parking (30), good (30), safe (21), clean (9), welcoming (9), easy (9), enjoyable (9), busy (9), fantastic (9), perfect (9), central (9), convenient (9), terrible (9), tidy (6), near (3), cars (3), noisy (3), lively (3), improved (2)",7906
Brent,Brent South Shopping Park,Shopping Mall,51.5722679,-0.2246375,4.2,0.6934931635856628,0.0,0.4,0.6,"Maintenance, Atmosphere, Traffic, General","parking (21), tidy (15), good (15), noisy (12), neat (9), near (9), new (9), terrible (9), busy (9), perfect (7), relaxing (3), safe (3)",3356
Brent,The Broadwalk Shopping Centre,Shopping Mall,51.61237660000001,-0.2752813000000001,4.0,0.6111181696256002,0.0,0.4666666666666667,0.5333333333333333,"General, Cleanliness, Traffic, Safety","safe (21), parking (21), good (18), clean (12), great (9), wonderful (9), dirty (9), terrible (6), tidy (3), cars (3), awful (3)",4967
Brent,Hammerson Brent Cross Ltd,Shopping Mall,51.5756264,-0.2250958,4.6,0.4440860450267792,0.6666666666666666,0.0,0.3333333333333333,General,fantastic (3),5
Brent,Brent Cross Shopping Centre,Shopping Mall,51.5764072,-0.2231059,4.3,0.6426129619280497,0.06666666666666667,0.4,0.5333333333333333,"Accessibility, Comfort, Cleanliness, Maintenance, Traffic, Aesthetics, General","parking (18), good (18), convenient (18), near (18), clean (18), great (15), lovely (12), enjoyable (9), new (9), central (9), welcoming (9), tidy (6), busy (3), cozy (3), safe (3)",20710
Brent,Westway Cross Retail Park,Shopping Mall,51.5421963,-0.3414493000000001,4.2,0.5529502868652344,0.0,0.6666666666666666,0.3333333333333333,"Accessibility, Comfort, Atmosphere, Maintenance, Traffic, General","parking (24), safe (12), busy (12), accessible (9), walkable (9), congested (9), convenient (9), good (9), noisy (9), pleasant (9), crowded (9), excellent (9), cars (3), improved (2)",4658
Brent,Royal Air Force Museum London,Museum,51.59807900000001,-0.2383246,4.8,0.7668113430341085,0.0,0.2,0.8,"Accessibility, Safety, Cleanliness, Atmosphere, Maintenance, Aesthetics, Traffic, General","good (66), old (18), beautiful (18), fantastic (18), easy (15), clean (9), connected (9), surveillance (9), security (9), lovely (9), great (9), wonderful (9), central (9), maintained (3), noisy (3), busy (3), walking (3), vehicle (3)",18258
Brent,Harrow Central Mosque & Masood Islamic Centre,Mosque,51.5890525,-0.3321824,4.7,0.6653517127037049,0.0,0.3333333333333333,0.6666666666666666,"Accessibility, Noise, Comfort, Cleanliness, Atmosphere, Maintenance, Aesthetics, Traffic, General","central (36), welcoming (36), peaceful (27), clean (27), spacious (18), serene (18), parking (18), beautiful (12), easy (9), comfortable (9), wonderful (9), maintained (9), modern (9), busy (9), vibrant (9), active (9), amazing (9), safe (6), connected (3), good (3), old (3), messy (3)",1593
Brent,Pitzhanger Manor & Gallery,Art Gallery,51.51086339999999,-0.3070763,4.7,0.7600679556528728,0.0,0.0,1.0,"Accessibility, Maintenance, Traffic, Aesthetics, General","lovely (18), wonderful (18), beautiful (18), safe (15), easy (9), walking (9), great (9), new (9), perfect (9), amazing (9), busy (3), tidy (3), noisy (3), connected (3), parking (3), lighting (3)",558
Brent,Arya Samaj London,Hindu Temple,51.5167636,-0.3226113,4.5,0.6318426430225372,0.2,0.4,0.4,"Noise, Cleanliness, Atmosphere, Maintenance, Traffic, General","parking (18), excellent (9), walking (9), wonderful (9), tidy (6), noisy (3), tight (3), peaceful (3)",40
Brent,Ealing Common,Park,51.5103027,-0.2938762,4.3,0.6431300481160481,0.2,0.4,0.4,"Noise, Atmosphere, Maintenance, Aesthetics, Traffic, General","beautiful (27), walking (18), good (18), parking (9), old (9), perfect (9), safe (6), quiet (6), noisy (3), relaxing (3), messy (3), great (3)",1771
Brent,Perivale Park,Park,51.5279689,-0.3463377999999999,4.4,0.6543152968088786,0.0,0.3333333333333333,0.6666666666666666,"Accessibility, Safety, Noise, Cleanliness, Atmosphere, Maintenance, Traffic, General","good (30), walking (24), safe (21), parking (15), maintained (9), dark (9), cars (9), traffic (9), empty (9), fantastic (9), new (9), easy (9), tidy (6), near (3), lovely (3), flow (3)",318
Brent,Wormwood Scrubs Open Space,Park,51.5213345,-0.2396492,4.3,0.5429834147294362,0.2,0.5333333333333333,0.26666666666666666,"Accessibility, Noise, Cleanliness, Atmosphere, Maintenance, Traffic, Aesthetics, General","parking (24), far (18), beautiful (18), good (12), maintained (9), busy (9), traffic (9), easy (9), great (9), lovely (9), central (9), perfect (7), safe (6), noisy (3), tidy (3)",1316
Brent,The Woodlands Park,Park,51.5077154,-0.2746954,4.0,0.48869656324386596,0.2,0.7333333333333333,0.06666666666666667,"Safety, Comfort, Maintenance, Aesthetics, General","good (9), lighting (9), dark (9), great (9), pleasant (9), renovated (9), amazing (9), lovely (6), parking (6), safe (6), noisy (3), messy (3)",19
Brent,Westbere Copse,Natural Feature,51.5528925,-0.2062742,5.0,0.0,0.0,0.0,0.0,,,3
Brent,Northolt & Greenford Country Park,Natural Feature,51.53894589999999,-0.3570065,4.0,0.4973663290341695,0.3333333333333333,0.3333333333333333,0.3333333333333333,General,"great (9), parking (3)",6
Brent,Stanmore Marsh,Natural Feature,51.6094704,-0.3012513,4.3,0.552169015010198,0.0,0.7777777777777778,0.2222222222222222,"Maintenance, Cleanliness, General","neglected (9), good (9), improved (6)",3
Brent,Allotments,Natural Feature,51.60890699999999,-0.2616611,5.0,0.6637793580691019,0.0,0.0,1.0,,"lovely (3), safe (3)",2
Brent,Harrow Cemetery,Cemetery,51.58144160000001,-0.3461553,3.8,0.6198994974295299,0.0,0.4666666666666667,0.5333333333333333,"Safety, Noise, Atmosphere, Aesthetics, General","lovely (12), safe (12), quiet (9), beautiful (9), good (9), peaceful (9), messy (6), tidy (3), wonderful (3), perfect (2)",14
Brent,St Mary's Catholic Cemetery,Cemetery,51.5287341,-0.2325029,3.8,0.5947029173374176,0.0,0.6,0.4,"Accessibility, Noise, Comfort, Cleanliness, Atmosphere, Maintenance, Aesthetics, General","maintained (24), peaceful (18), beautiful (12), safe (9), serene (9), quiet (9), excellent (9), welcoming (9), new (9), difficult (9), old (9), disappointing (9), damaged (6), noisy (6), messy (3), tidy (3)",27
Brent,Acton Cemetery,Cemetery,51.523473,-0.2636431,4.6,0.5519752065340678,0.2,0.6,0.2,"Accessibility, Noise, Cleanliness, Atmosphere, Maintenance, General","peaceful (12), good (12), central (9), parking (9), new (9), clean (9), near (9), noisy (9), quiet (6)",19
Brent,James Funeral Service,Funeral Home,51.6012506,-0.3189834,5.0,0.5905287305514018,0.2,0.4,0.4,"Cleanliness, Traffic, Accessibility, General","great (18), perfect (18), far (9), tidy (9), messy (9), cars (9), spotless (9), difficult (9), poor (9), safe (6), dark (6), dead (6)",69
Brent,"St Mary's Cemetery, Harrow",Cemetery,51.574503,-0.3389618,5.0,0.0,0.0,0.0,0.0,,,1
Brent,Wealdstone Cemetery,Cemetery,51.5942549,-0.3225523,4.7,0.5713201289375623,0.08333333333333333,0.4166666666666667,0.5,"Noise, Atmosphere, Maintenance, Aesthetics, General","lovely (15), peaceful (9), old (9), calm (9), dead (9), wonderful (6), walking (3), safe (3), fantastic (3)",7
Brent,Hampstead Cemetery,Cemetery,51.55638130000001,-0.1965639,4.5,0.5883326431115469,0.2,0.26666666666666666,0.5333333333333333,"Safety, Noise, Cleanliness, Atmosphere, Aesthetics, Traffic, General","peaceful (18), quiet (15), messy (11), filthy (9), security (9), perfect (9), amazing (9), beautiful (9), cars (9), safe (6), walking (3)",37
Brent,Harrow School Chapel,Church,51.5732649,-0.3367202,5.0,0.5891358077526092,0.2,0.2,0.6,"Aesthetics, General","beautiful (27), great (18), walking (6), tidy (3)",20
Brent,Kensal Evangelical Church,Church,51.5264377,-0.2129351,4.6,0.47000884016354877,0.5,0.0,0.5,Accessibility,"safe (9), near (3)",5
Brent,St Sebastian and St Pancras Church,Church,51.5880592,-0.2631887,4.7,0.7036079227924347,0.0,0.26666666666666666,0.7333333333333333,"Aesthetics, Atmosphere","beautiful (18), calm (6), lovely (6), peaceful (3)",139
Brent,Ealing Quaker Meeting House,Church,51.5184619,-0.3011694,4.5,0.5962632973988851,0.0,0.5333333333333333,0.4666666666666667,"Comfort, Atmosphere, Accessibility, General","great (15), comfortable (9), welcoming (9), easy (9), parking (3), calm (2)",17
Brent,Kenton Bethany Church,Church,51.5857392,-0.3078812,4.9,0.8078333801693387,0.0,0.0,1.0,General,"amazing (9), messy (3), safe (3)",11
Brent,Comunidade Cristã em Londres,Church,51.54345980000001,-0.2431729,4.7,0.5241186122099558,0.0,0.8333333333333334,0.16666666666666666,,"dark (3), dead (3)",3
Brent,Petra Ministries,Church,51.5410876,-0.3250167999999999,5.0,0.7615296112166511,0.0,0.0,1.0,General,"great (12), wonderful (6), fantastic (3)",5
Brent,"All Hallows Church, North Greenford",Church,51.5510398,-0.3333052,4.6,0.49280966917673746,0.2,0.4,0.4,"Accessibility, Comfort, Traffic, Aesthetics, General","welcoming (27), beautiful (9), near (9), pleasant (9), good (9), parking (9), easy (9), great (9), roomy (3)",26
Brent,Saba Parking Queensbury Station,Parking,51.59471419999999,-0.2861673999999999,3.8,0.5948747475941976,0.2,0.4666666666666667,0.3333333333333333,"Maintenance, Traffic, Accessibility, General","parking (28), tidy (18), far (9), excellent (9), good (9), great (9), cars (6), safe (6), messy (6), busy (3)",16
Brent,Harrow-on-the-Hill Station Car Park,Parking,51.57885589999999,-0.3362987,3.8,0.4063310960928599,0.4,0.6,0.0,"Traffic, Accessibility, General","parking (21), cars (10), good (9), central (9), safe (9), amazing (9), poor (9), great (9), loud (6), old (3), tidy (3)",31
Brent,Colindale Station Car Park,Parking,51.5955094,-0.2496218,3.9,0.6052345971266428,0.2,0.4,0.4,"General, Traffic, Accessibility, Safety","parking (66), cars (27), near (18), good (18), dark (9), safe (9), messy (3)",51
Brent,South Harrow Station Car Park,Parking,51.5642193,-0.3513014,3.8,0.5013764441013336,0.4,0.4,0.2,"Accessibility, Safety, Maintenance, Traffic, General","parking (36), safe (24), cars (19), unsafe (18), good (18), damaged (9), central (9), security (9), dark (9), dirty (6), tidy (3), messy (3), near (3)",45
Brent,Kingshill Drive Car Park,Parking,51.6002607,-0.3168721,4.1,0.5068127890427907,0.2,0.4666666666666667,0.3333333333333333,"Traffic, Accessibility, General","parking (18), cars (12), easy (9), good (9), convenient (9), safe (3)",8
Brent,Brent Cross Station (LUL),Parking,51.57684929999999,-0.2133776,4.1,0.5357885599136353,0.0,0.8,0.2,"Accessibility, Atmosphere, Maintenance, Aesthetics, Traffic, General","parking (18), modern (9), busy (9), near (9), safe (9), lovely (9), old (9), good (9), central (9), cars (6), walking (3)",83
Brent,Springbridge Multi-Storey,Parking,51.5143651,-0.305298,4.0,0.47636438608169557,0.4,0.4,0.2,"Traffic, Accessibility, General","parking (75), central (27), great (24), cars (18), convenient (12), safe (12), near (9), good (9), walking (4), updated (3), tidy (3), dark (3), dead (3), noisy (3), messy (3)",148
Brent,Car Park - Canons Park Station,Parking,51.6091826,-0.2947618,4.1,0.5092211027940114,0.0,0.8,0.2,"Maintenance, Cleanliness, Traffic, General","parking (60), good (27), improved (9), maintained (9), cars (9), updated (6), noisy (3), poor (3), dirty (3), tidy (3)",87
Brent,Car Park,Parking,51.6113408,-0.2765592000000001,3.7,0.598309314250946,0.2,0.4,0.4,"Accessibility, Safety, Noise, Cleanliness, Atmosphere, Maintenance, Traffic, General","cars (51), parking (30), difficult (27), tidy (21), new (18), worst (18), poor (15), dark (12), dead (12), rubbish (12), near (9), amazing (9), vehicle (9), upgraded (9), improved (9), accessible (9), unsafe (9), safe (9), dirty (9), good (6), risky (6), messy (6), quiet (3), bad (3), busy (3), calm (3), cozy (3), lovely (3), clean (3)",25
Brent,Edgware Carpark,Parking,51.6120416,-0.2765691000000001,4.0,0.5509840607643127,0.0,0.8,0.2,"General, Traffic, Accessibility, Safety","parking (48), cars (21), dark (9), poor (9), lighting (9), great (9), convenient (9), difficult (9), safe (3), improved (3)",10
Brent,North Ealing Station (LUL),Parking,51.5176537,-0.2891166000000001,4.1,0.5376006523768108,0.4,0.2,0.4,"Atmosphere, Traffic, Accessibility, General","parking (27), central (27), good (12), busy (12), near (9), bad (9), far (6), tidy (3), safe (3)",110
Brent,Burnt Oak Library,Library,51.60323649999999,-0.2631043000000001,3.7,0.6034109751383464,0.2,0.4,0.4,"Accessibility, Noise, Comfort, Atmosphere, Maintenance, Traffic, General","near (18), awful (12), noisy (12), great (9), quiet (9), parking (9), welcoming (9), excellent (9), roomy (3), safe (3), tidy (3), bad (3), messy (3)",50
Brent,Ealing Central Library,Library,51.5121779,-0.3023373,3.5,0.577678261200587,0.0,0.6,0.4,"Accessibility, Safety, Noise, Atmosphere, Maintenance, General","security (45), quiet (21), good (21), near (18), messy (18), tidy (12), safe (12), excellent (9), wonderful (9), peaceful (9), noisy (9), poor (9), new (9), great (9), loud (6), maintained (3), old (3), roomy (3)",133
Brent,Acton Library,Library,51.5065345,-0.266908,3.5,0.5149950126806895,0.26666666666666666,0.3333333333333333,0.4,"Accessibility, Noise, Comfort, Cleanliness, Atmosphere, Maintenance, Traffic, Aesthetics, General","clean (27), good (21), great (18), lovely (15), peaceful (15), busy (9), loud (9), fantastic (9), welcoming (9), far (9), improved (9), central (9), safe (6), tidy (6), messy (3), quiet (3)",57
Brent,Wealdstone Library,Library,51.59423899999999,-0.3350082,3.7,0.6150183200836181,0.0,0.7333333333333333,0.26666666666666666,"Aesthetics, General","horrible (9), lovely (9), safe (3), good (3), messy (3)",42
Brent,Kensal Rise Library,Library,51.5338889,-0.2260957999999999,4.7,0.7382335603237152,0.0,0.2,0.8,"Aesthetics, Accessibility, General","good (21), great (18), beautiful (18), amazing (12), safe (9), wonderful (9), accessible (9), lovely (6), tidy (3)",17
Brent,Colindale Library,Library,51.59730090000001,-0.2455109,4.2,0.5808290958404541,0.2,0.4666666666666667,0.3333333333333333,"Accessibility, Noise, Atmosphere, Maintenance, General","quiet (18), noisy (15), tidy (12), modern (9), new (9), crowded (9), amazing (6), safe (6), near (3), walking (3), dark (3), dead (3), messy (3), roomy (3)",79
Brent,Sheppard Library,Library,51.59047400000001,-0.2296174,4.5,0.6117650906244914,0.2,0.2,0.6,"Maintenance, General","amazing (12), outdated (9), messy (3), lovely (3), safe (3)",40
Brent,Childs Hill Library,Library,51.5622783,-0.2008024,4.6,0.6507699569066365,0.0,0.4,0.6,"Aesthetics, Accessibility, General","lovely (21), amazing (9), perfect (9), great (9), good (6), relaxing (3), messy (3), difficult (3)",21
Brent,Hendon Library,Library,51.5885704,-0.228789,3.6,0.5584441641966502,0.06666666666666667,0.5333333333333333,0.4,"Accessibility, Safety, Comfort, Cleanliness, Aesthetics, General","excellent (27), lovely (12), pleasant (9), dark (9), easy (9), bad (9), good (9), great (9), rubbish (9), isolated (7), tidy (6), messy (6), repaired (3), safe (3), noisy (3)",54
Brent,Pitshanger Library,Library,51.5259524,-0.3139312,4.6,0.648724760611852,0.0,0.26666666666666666,0.7333333333333333,"Maintenance, Aesthetics, Accessibility, General","lovely (18), safe (12), noisy (9), old (9), terrible (9), tidy (6), great (6), messy (3), near (3)",13
Brent,Abracadabra Preschool Nursery (Colindale),School,51.60059930000001,-0.2510245,4.5,0.9049852768580119,0.0,0.0,1.0,"Safety, Cleanliness, Maintenance, Aesthetics, General","amazing (33), safe (21), lovely (15), wonderful (9), clean (9), good (9), improved (9), old (9), great (9), tidy (3), messy (3)",44
Brent,Nuffield Health Brondesbury Park Fitness & Wellbeing Gym,Gym,51.54488850000001,-0.2213761,3.0,0.653041398525238,0.0,0.4666666666666667,0.5333333333333333,"Accessibility, Safety, Noise, Comfort, Cleanliness, Atmosphere, Maintenance, Aesthetics, General","safe (30), uncomfortable (18), messy (12), tidy (12), lovely (9), good (9), far (9), peaceful (9), quiet (9), broken (9), poor (9), maintained (9), outdated (9), new (9), pleasant (9), comfortable (9), amazing (9), excellent (9), disappointing (6), dusty (3), noisy (3), near (3), buzzing (3)",219
Brent,Ealing Independent College,School,51.512104,-0.3081996,4.7,0.7000853101412455,0.0,0.26666666666666666,0.7333333333333333,"Maintenance, Accessibility, General","amazing (18), excellent (18), wonderful (9), poor (9), tidy (9), good (9), great (9), easy (9), noisy (3), difficult (3), safe (3), dark (3), dead (3), improved (2)",56
Brent,Busy Bees at Ealing Common,School,51.5094643,-0.2863367,4.3,0.7164940754572551,0.2,0.0,0.8,"Comfort, Cleanliness, Atmosphere, Maintenance, Traffic, Aesthetics, General","lovely (18), old (15), comfortable (9), wonderful (9), busy (9), welcoming (9), amazing (9), clean (9), roomy (6), tidy (6), safe (6), noisy (3), peaceful (3)",11
Brent,Middlesex University London,University,51.5897112,-0.2293488,4.1,0.75377832253774,0.0,0.2,0.8,"Maintenance, Comfort, General","worst (9), messy (9), fantastic (9), enjoyable (9), modern (9), welcoming (9), great (9), perfect (7), connected (3), relaxing (3), safe (3)",895
Brent,MetFilm School London,University,51.5090117,-0.3069886000000001,3.5,0.6144706606864929,0.0,0.4,0.6,"Accessibility, Noise, Atmosphere, Maintenance, Aesthetics, General","tidy (42), poor (39), safe (27), good (21), noisy (18), awful (18), far (9), accessible (9), disappointing (9), great (9), worst (9), messy (6), soundproof (3)",34
Brent,Harrow College,University,51.5779074,-0.3356706,3.5,0.7225553075472514,0.0,0.26666666666666666,0.7333333333333333,"Noise, Atmosphere, General","worst (18), noisy (9), safe (9), good (9), quiet (6), tidy (6), messy (5), loud (3)",195
Brent,"ICMP | London, Kilburn",University,51.5444566,-0.2022105,4.2,0.5743172566095988,0.26666666666666666,0.3333333333333333,0.4,"Noise, Accessibility, General","great (18), music (12), far (9), amazing (6), messy (6), lively (3), tidy (3), walking (3), improved (2)",82
Brent,Metanoia Institute,University,51.5127177,-0.294244,3.6,0.6849401513735454,0.0,0.5333333333333333,0.4666666666666667,"Accessibility, General","messy (27), terrible (18), tidy (9), poor (9), excellent (9), great (9), safe (6), dark (6), dead (6), near (3), noisy (3)",36
Brent,Edgware Community Hospital,Hospital,51.6065823,-0.2711405,3.5,0.8114912549654643,0.0,0.2,0.8,"Maintenance, Traffic, Aesthetics, General","amazing (27), parking (27), messy (24), tidy (12), noisy (12), good (9), safe (9), awful (9), cars (6), active (3), lovely (3)",205
Brent,Cygnet Hospital Harrow,Hospital,51.5669499,-0.3383912,3.4,0.6412262082099914,0.0,0.5333333333333333,0.4666666666666667,"Cleanliness, General","amazing (27), noisy (12), tidy (12), good (9), messy (6), clean (3), easy (1)",38
Brent,Queen Charlotte's and Chelsea Hospital,Hospital,51.51636639999999,-0.2374661,3.5,0.7938790380954742,0.2,0.0,0.8,"Accessibility, Noise, Comfort, Cleanliness, Atmosphere, Maintenance, Aesthetics, General","messy (36), good (36), tidy (30), comfortable (18), wonderful (18), modern (12), welcoming (9), maintained (9), safe (9), pretty (9), shouting (9), poor (9), loud (9), worst (9), calm (9), excellent (9), easy (9), amazing (9), great (9), roomy (3), noisy (3), walking (3)",392
Brent,Hendon Hospital,Hospital,51.59380760000001,-0.224709,4.6,0.6358435531457265,0.2,0.2,0.6,"Safety, Comfort, Cleanliness, Maintenance, Aesthetics, General","excellent (27), safe (24), messy (18), comfortable (18), fantastic (15), lovely (15), clean (9), welcoming (9), amazing (9), modern (9), dark (3), dead (3), tidy (3), noisy (3)",483
Brent,The Advertising Archives,Museum,51.5605138,-0.1983519,5.0,0.7295363346735636,0.0,0.16666666666666666,0.8333333333333334,"Aesthetics, General","great (9), lovely (9), good (3)",3
Brent,Grahame White Factory,Museum,51.59637949999999,-0.2379365,4.8,0.750132042169571,0.13333333333333333,0.06666666666666667,0.8,"Maintenance, General","excellent (18), old (9), horrible (6)",13
Brent,War Memorial Building,Museum,51.573497,-0.3369381,4.5,0.644716207186381,0.2,0.2,0.6,"Traffic, Aesthetics, General","beautiful (12), stunning (9), walking (9), good (9), amazing (9), safe (3), poor (3)",31
Brent,Freddie Mercury former memorial,Museum,51.5278952,-0.2312203999999999,4.4,0.4758465687433879,0.4,0.4,0.2,General,"good (9), noisy (3), safe (3), tidy (3)",9
Brent,Doll's House Museum,Museum,51.51582419999999,-0.3050128,4.5,0.6581672747929891,0.13333333333333333,0.4666666666666667,0.4,"Comfort, General","messy (15), tidy (12), pleasant (9), disappointing (9), roomy (6), safe (6), dark (3), dead (3), good (3)",15
Brent,Owl Art Studio,Art Gallery,51.5502564,-0.2210779,5.0,0.0,0.0,0.0,0.0,,,1
Brent,alexander technique,Art Gallery,51.5399036,-0.3477233,5.0,0.8297903140385946,0.0,0.0,1.0,General,"great (9), messy (6), safe (3)",1
Brent,Jill George Gallery Ltd,Art Gallery,51.5612686,-0.2101046,5.0,0.8684114813804626,0.0,0.0,1.0,"Noise, General","music (9), great (9), tidy (3), messy (3)",3
Brent,OPEN Ealing,Art Gallery,51.51401079999999,-0.3059346,4.6,0.6625889579455058,0.06666666666666667,0.5333333333333333,0.4,General,"amazing (18), great (9), fantastic (9), safe (9), wonderful (9), lovely (3), good (3), tidy (3)",85
Brent,Art Search Ltd,Art Gallery,51.5372612,-0.209672,5.0,0.0,0.0,0.0,0.0,,,1
Brent,Carpenters Workshop Gallery London,Art Gallery,51.5233028,-0.2201855,4.5,0.6516226490338644,0.2,0.2,0.6,"Maintenance, Comfort, Aesthetics, General","lovely (24), great (18), stunning (9), cozy (9), fantastic (9), pleasant (9), new (9), beautiful (9), safe (6)",30
Brent,W3 gallery,Art Gallery,51.50727250000001,-0.2719152,4.9,0.6706259667873382,0.0,0.3333333333333333,0.6666666666666666,"Comfort, General","great (15), spacious (9), excellent (9), good (3), safe (3)",17
Brent,Ealing Art Group,Art Gallery,51.5111457,-0.3209926,3.0,0.5583701680103937,0.0,0.5,0.5,General,bad (9),2
Brent,Hetros Fine Art,Art Gallery,51.5963714,-0.2949472,4.7,0.8489288290341696,0.0,0.0,1.0,"Cleanliness, Aesthetics, General","beautiful (21), fantastic (15), lovely (12), excellent (9), stunning (9), amazing (9), clean (9), bad (9), poor (9), good (9), tidy (6), safe (3)",18
Brent,Paddington Recreation Ground,Park,51.5301947,-0.1907844,4.6,0.6926182945569356,0.0,0.0,1.0,"Accessibility, Safety, Noise, Cleanliness, Atmosphere, Maintenance, Traffic, Aesthetics, General","lovely (28), parking (27), busy (27), safe (18), great (18), beautiful (9), walking (9), maintained (9), convenient (9), peaceful (9), excellent (9), active (9), clean (9), perfect (7), relaxing (3), cars (3)",2314
Brent,National Trust - Fenton House and Garden,Park,51.5589422,-0.1798884,4.5,0.6823414782683055,0.0,0.2,0.8,"Noise, Atmosphere, Maintenance, Aesthetics, General","beautiful (30), lovely (18), old (18), safe (15), music (9), great (9), good (9), amazing (9), peaceful (9), charming (9), dark (6), dead (6), tidy (3)",501
Brent,Golders Hill Park,Park,51.56747599999999,-0.1883365,4.7,0.6124225457509359,0.0,0.4,0.6,"Accessibility, Comfort, Atmosphere, Maintenance, Traffic, Aesthetics, General","beautiful (24), great (18), good (18), parking (15), gorgeous (9), pretty (9), pleasant (9), safe (9), easy (9), wonderful (9), relaxing (4), flow (3), walking (3)",3210
Brent,Ravenscourt Park,Park,51.49668680000001,-0.2389906,4.5,0.5960359036922455,0.0,0.4666666666666667,0.5333333333333333,"Noise, Comfort, Atmosphere, Aesthetics, Traffic, General","good (15), parking (14), lovely (12), busy (9), spacious (9), amazing (9), peaceful (9), great (9), crowded (9), hectic (9), walking (3), relaxing (3), dark (3), dead (3)",3891
Brent,Turnham Green,Park,51.49203019999999,-0.2663174,4.5,0.6657370209693909,0.0,0.2,0.8,"Accessibility, Atmosphere, Maintenance, Aesthetics, General","beautiful (48), lovely (27), relaxing (15), parking (9), good (9), central (9), perfect (9), old (9), walking (3), safe (3)",1314
Brent,Witham Road Car Park,Transit Station,51.5113454,-0.322572,1.0,0.5965273181597391,0.0,0.6666666666666666,0.3333333333333333,,,1
Brent,Kew Bridge,Train Station,51.4894883,-0.2870853,4.0,0.58735591173172,0.2,0.4,0.4,"Aesthetics, Atmosphere, Accessibility, General","good (18), central (9), excellent (9), near (9), flow (6), far (6), bad (3), messy (3), crowded (3), tidy (3), calm (3), safe (3), bikes (3)",63
Brent,North Acton Station,Transit Station,51.5232925,-0.2589151,3.4,0.5855894684791565,0.2,0.3333333333333333,0.4666666666666667,"Accessibility, Comfort, Atmosphere, Traffic, General","great (18), good (18), noisy (12), messy (12), unpleasant (9), disappointing (9), central (9), busy (9), near (6)",20
Brent,Shepherd's Bush Bus Garage,Bus Station,51.5015116,-0.2262197,4.0,0.5571228404839833,0.26666666666666666,0.3333333333333333,0.4,"Maintenance, Atmosphere, Aesthetics, General","safe (15), busy (12), poor (9), horrible (9), empty (9), tidy (6), noisy (3), walking (3), bikes (3)",36
Brent,Royal Crescent (Stop HD),Bus Station,51.5051283,-0.2141295,3.0,0.7188307146231333,0.0,0.4,0.6,"Maintenance, Traffic, Accessibility, General","busy (23), good (18), safe (9), great (9), driving (9), pedestrian (9), awful (9), new (9), tidy (9), risky (6), convenient (3), bad (3), walking (3), messy (3), connected (3), noisy (3)",25
Brent,Pinner Station Car Park,Bus Station,51.59231869999999,-0.3789884,1.6,0.5312747657299042,0.2,0.4,0.4,"Accessibility, Safety, Cleanliness, Maintenance, Traffic, General","parking (84), cars (30), broken (27), maintained (18), poor (14), outdated (9), difficult (9), dark (9), lighting (7), noisy (6), messy (6), tidy (3), ugly (3), safe (3), easy (1), disappointing (1)",7
Brent,Westfield London,Shopping Mall,51.50757249999999,-0.2212054,4.5,0.6482486466566721,0.2,0.06666666666666667,0.7333333333333333,"Accessibility, Safety, Noise, Comfort, Cleanliness, Atmosphere, Maintenance, Aesthetics, Traffic, General","safe (30), modern (27), parking (27), security (18), accessible (18), spacious (15), good (12), clean (9), pretty (9), difficult (9), driving (9), vehicle (9), fantastic (9), amazing (9), tidy (9), traffic (9), congested (9), maintained (9), excellent (9), central (9), busy (9), vibrant (9), easy (9), cars (6), walking (6), crowded (3), appealing (3)",59718
Brent,W12 Shopping,Shopping Mall,51.50349670000001,-0.2191805,4.0,0.620801430940628,0.06666666666666667,0.3333333333333333,0.6,"Accessibility, Safety, Noise, Comfort, Cleanliness, Atmosphere, Maintenance, Traffic, General","parking (36), safe (33), convenient (27), perfect (18), good (18), accessible (18), dark (18), fantastic (9), pleasant (9), inviting (9), clean (9), maintained (9), enjoyable (9), excellent (9), great (9), driving (9), bustling (9), near (6), old (3), walking (3)",5810
Brent,O2 Centre,Shopping Mall,51.5478286,-0.1814281,4.1,0.5123302390178045,0.2,0.4666666666666667,0.3333333333333333,"General, Noise, Atmosphere, Safety","good (18), calm (15), empty (9), dead (9), security (9), poor (9), wonderful (9), active (9), buzzing (9), safe (6), noisy (3), relaxing (3), lively (3)",5279
Brent,Halev Ltd,Shopping Mall,51.54337779999999,-0.1792533,3.7,0.3690778811772664,0.6666666666666666,0.3333333333333333,0.0,,noisy (1),3
Brent,The Oaks Shopping Centre,Shopping Mall,51.5076561,-0.2699290999999999,4.1,0.5995837648709615,0.0,0.4,0.6,"Accessibility, Safety, Cleanliness, Maintenance, General","security (45), good (39), safe (18), renovated (9), convenient (9), easy (9), tidy (9), clean (9), trash (9), bad (9), noisy (6), active (3), lovely (3)",1248
Brent,Museum of Brands,Museum,51.5163012,-0.2110215,4.4,0.5874274869759878,0.2,0.26666666666666666,0.5333333333333333,"Maintenance, Aesthetics, Accessibility, General","old (18), great (18), tidy (12), modern (9), perfect (9), near (9), lovely (6), good (3), lighting (3), wonderful (3)",1752
Brent,Freud Museum London,Museum,51.54833439999999,-0.177366,4.7,0.5754335582256317,0.0,0.8,0.2,"Traffic, Aesthetics, General","safe (30), beautiful (27), gorgeous (9), good (9), amazing (9), great (9), flow (3), tidy (3)",1677
Brent,Keats House,Tourist Attraction,51.5555944,-0.1680064,4.5,0.4991278608640035,0.2,0.8,0.0,"Accessibility, Comfort, Cleanliness, Maintenance, Aesthetics, General","good (30), safe (12), maintained (9), pretty (9), beautiful (9), lovely (9), enjoyable (9), tidy (6), roomy (6), near (3), noisy (3), messy (3)",419
Brent,Burgh House,Museum,51.5581961,-0.1750555,4.5,0.8687113046646118,0.0,0.0,1.0,"Noise, Comfort, Atmosphere, Maintenance, Aesthetics, Traffic, General","beautiful (38), lovely (36), excellent (18), great (18), pretty (18), fantastic (9), calm (9), stunning (9), spacious (9), charming (9), peaceful (9), welcoming (9), perfect (9), safe (6), walking (3), flow (3), old (3), parking (3), good (3)",630
Brent,Gunnersbury Park Museum,Museum,51.49952099999999,-0.2864492999999999,4.6,0.6919365445772807,0.0,0.2,0.8,"Accessibility, Cleanliness, Maintenance, Traffic, Aesthetics, General","lovely (24), beautiful (18), walking (16), parking (15), good (9), disappointing (9), great (9), far (9), amazing (9), maintained (6), safe (3), flow (3), messy (2), lively (2)",826
Brent,Catto Gallery Ltd,Art Gallery,51.558525,-0.178513,4.8,0.7293828765551249,0.0,0.2,0.8,"Maintenance, Comfort, Aesthetics, General","lovely (21), amazing (9), great (9), good (9), pleasant (9), welcoming (9), beautiful (9)",49
Brent,London Museum of Water & Steam,Museum,51.4890134,-0.2904796,4.6,0.808115561803182,0.0,0.0,1.0,"Accessibility, Comfort, Cleanliness, Atmosphere, Aesthetics, Traffic, General","great (18), amazing (18), perfect (9), wonderful (9), excellent (9), lovely (9), clean (9), enjoyable (9), flow (6), safe (6), far (6), roomy (3)",938
Brent,Bentley Priory Nature Reserve,Natural Feature,51.62122919999999,-0.3332311,4.7,0.6811051487922668,0.0,0.6,0.4,"Accessibility, Noise, Atmosphere, Maintenance, Aesthetics, General","beautiful (24), peaceful (18), good (9), new (9), central (9), easy (9), great (9), safe (6), amazing (3), lovely (3), walking (3), quiet (3)",75
Brent,Long Wood,Natural Feature,51.4954589,-0.3418764,4.8,0.0,0.0,0.0,0.0,,,4
Brent,Temple Pond,Natural Feature,51.6124745,-0.3161843,4.0,0.5314058601856232,0.06666666666666667,0.7333333333333333,0.2,"Noise, Atmosphere, General","good (9), great (6), safe (3), quiet (2)",9
Brent,Leg of Mutton Pond,Natural Feature,51.564894,-0.1884763,4.0,0.7147882729768753,0.08333333333333333,0.25,0.6666666666666666,General,"great (24), excellent (9), parking (9), tidy (9), walking (6), messy (6), safe (3), lovely (3)",5
Brent,Round Pond,Natural Feature,51.4997072,-0.2886417,4.0,0.40287325779596966,0.4444444444444444,0.5555555555555556,0.0,,,7
Brent,Boot Pond,Natural Feature,51.61710309999999,-0.3231345,4.2,0.5631289621194203,0.2,0.4,0.4,"Aesthetics, Noise, Atmosphere, General","beautiful (9), peaceful (9), fantastic (6), walking (3), wonderful (3)",6
Brent,Whitestone Pond,Natural Feature,51.5614553,-0.1799757,4.6,0.5252131819725037,0.2,0.4,0.4,"Maintenance, Aesthetics, Accessibility","old (9), lovely (9), central (9), safe (6)",17
Brent,Potomac (Fish Pond),Natural Feature,51.4931304,-0.2918901,3.8,0.6302103598912557,0.0,0.0,1.0,"Aesthetics, Noise, Atmosphere, General","quiet (9), good (9), lovely (9), safe (3), parking (3)",4
Brent,Viaduct Pond,Natural Feature,51.5627848,-0.1702183,4.7,0.5969553927580515,0.2,0.2,0.6,"Aesthetics, Noise, Maintenance, Atmosphere","beautiful (27), quiet (9), stunning (9), new (9), walking (3), safe (3), old (3)",6
Brent,River Pinn,Natural Feature,51.5989397,-0.3741215,5.0,0.36724986632664997,0.6666666666666666,0.3333333333333333,0.0,Aesthetics,lovely (3),1
Brent,Mixed Bathing Pond,Natural Feature,51.5601606,-0.1661495,4.2,0.7143884936968485,0.0,0.2,0.8,"Accessibility, Safety, Noise, Cleanliness, Atmosphere, Maintenance, Traffic, General","great (18), amazing (15), busy (9), easy (9), safe (9), dirty (9), old (9), shouting (9), good (9), trash (9), tidy (6), noisy (6), messy (3)",70
Brent,Hampstead No 1 Pond,Natural Feature,51.5577778,-0.1656748,5.0,0.5880464116732279,0.0,0.6666666666666666,0.3333333333333333,"Traffic, Aesthetics, Accessibility, General","good (18), beautiful (9), easy (9), accessible (9), parking (9), near (6), lively (3), safe (3)",5
Brent,East Finchley Cemetery (former St Marylebone Cemetery),Cemetery,51.5928867,-0.182238,4.1,0.6332912862300872,0.2,0.2,0.6,"Accessibility, Noise, Comfort, Cleanliness, Atmosphere, Maintenance, Traffic, Aesthetics","parking (18), beautiful (15), pretty (9), inaccessible (9), serene (9), maintained (9), calm (9), pleasant (9), peaceful (9), cars (3), noisy (3), safe (3), tidy (3)",50
Brent,Hanwell Cemetery (formerly Kensington Cemetery),Cemetery,51.5111625,-0.3317702,4.8,0.6364533801873525,0.0,0.4666666666666667,0.5333333333333333,"Accessibility, Noise, Comfort, Atmosphere, Aesthetics, General","peaceful (15), safe (12), beautiful (9), dead (9), serene (9), pleasant (9), pretty (9), central (9), tidy (6), noisy (3), amazing (3)",19
Brent,O'Dwyer Funeral Directors,Cemetery,51.4968334,-0.3126873000000001,5.0,0.7428779085477193,0.0,0.0,1.0,"Maintenance, Accessibility, General","amazing (27), old (18), great (18), difficult (9), perfect (9), wonderful (9), updated (9), broken (9), good (3), shouting (3), messy (3), tidy (3), lighting (1)",158
Brent,Hoop Lane Cemetery,Cemetery,51.5772933,-0.1941408,4.8,0.4984760781129201,0.0,0.8666666666666667,0.13333333333333333,"Noise, Cleanliness, Atmosphere, Maintenance, Aesthetics, Traffic, General","peaceful (30), lovely (26), parking (18), walking (12), maintained (9), good (6), flow (5), messy (3), safe (3), busy (3), noisy (3)",14
Brent,Hendon Cemetery & Crematorium,Cemetery,51.6031298,-0.2120721,3.1,0.7292133907477061,0.0,0.4,0.6,"Noise, Comfort, Cleanliness, Maintenance, Aesthetics, General","worst (18), filthy (18), pretty (18), safe (15), old (12), good (12), tidy (12), music (9), dirty (9), broken (9), noisy (9), awful (9), beautiful (9), comfortable (9), shouting (3)",97
