Borough,Location Name,Type,latitude,longitude,Rating,Overall Sentiment Score,Negative Score,Neutral Score,Positive Score,Main Issues,Emotion Keywords,Review Count
Croydon,Ruskin Square,Park,51.37692990000001,-0.1036916,4.2,0.596562401453654,0.0,0.4666666666666667,0.5333333333333333,"Safety, Noise, Comfort, Cleanliness, Atmosphere, Maintenance, Traffic, General","good (18), clean (9), quiet (9), busy (9), pleasant (9), security (9), amazing (9), roomy (3)",102
Croydon,Exchange Square,Park,51.3722583,-0.1018307,3.6,0.6323513170083364,0.0,0.3333333333333333,0.6666666666666666,"Noise, Cleanliness, Atmosphere, Maintenance, Aesthetics, General","old (18), quiet (9), vibrant (9), amazing (9), good (9), empty (9), great (6), clean (6), wonderful (6), stunning (6), safe (3), fantastic (3)",16
Croydon,King George's Field,Park,51.38692289999999,-0.09012589999999998,3.8,0.644398566087087,0.0,0.4666666666666667,0.5333333333333333,"General, Maintenance, Aesthetics, Safety","parking (30), safe (18), lovely (9), perfect (9), great (9), new (9), old (3), walking (3), messy (3)",83
Croydon,Dartnell Road Wayside Amenity Area,Park,51.3848058,-0.08147839999999999,4.3,0.5095065757632256,0.25,0.5,0.25,"Maintenance, Traffic, Aesthetics","lovely (12), safe (9), flow (6), renovated (6), parking (3)",25
Croydon,Nu-Look LTD,Laundry,51.3620836,-0.0946264,4.7,0.788183597723643,0.0,0.2,0.8,"Cleanliness, General","great (18), good (12), clean (12), amazing (9), safe (3), lovely (3)",12
Croydon,Bensham Manor Allotments,Park,51.3917306,-0.1007783,4.7,0.5907401839892069,0.0,0.6,0.4,General,"great (27), amazing (9), safe (6), noisy (3), relaxing (3)",44
Croydon,Wandle Park,Park,51.3747017,-0.111377,4.2,0.5128836035728455,0.2,0.4,0.4,"Accessibility, Comfort, Cleanliness, Atmosphere, Aesthetics, General","parking (24), good (18), great (18), clean (15), beautiful (9), vibrant (9), perfect (9), pretty (9), spacious (9), walking (3), safe (3), convenient (3), tidy (3), noisy (3)",2383
Croydon,Whitehorse Road Recreation Ground,Park,51.3896941,-0.0961698,3.7,0.5472817222277323,0.0,0.7333333333333333,0.26666666666666666,"Safety, Atmosphere, Maintenance, Aesthetics, Traffic, General","empty (18), new (18), parking (18), safe (12), noisy (12), lovely (9), busy (9), dangerous (9), good (9), improved (9), tidy (3), lively (3), walking (3), messy (3)",137
Croydon,Queen's Gardens,Park,51.3720487,-0.09757120000000001,3.8,0.6012427091598511,0.3333333333333333,0.13333333333333333,0.5333333333333333,"Comfort, Cleanliness, Maintenance, Aesthetics, General","great (18), parking (9), lovely (9), maintained (9), modern (9), pleasant (9), bad (9), good (6), safe (6), tidy (3), cars (3)",653
Croydon,Park Hill Park,Park,51.3691292,-0.09176010000000001,4.5,0.5926086843013764,0.0,0.6,0.4,"Safety, Noise, Comfort, Cleanliness, Atmosphere, Maintenance, Aesthetics, Traffic, General","parking (69), safe (33), old (18), quiet (9), pedestrian (9), serene (9), maintained (9), enjoyable (9), modern (9), peaceful (9), welcoming (9), vibrant (9), lovely (9), great (9), beautiful (6), tidy (6), noisy (3), walking (3)",1516
Croydon,Addiscombe Railway Park,Park,51.3823315,-0.07820030000000001,4.1,0.5589792331059774,0.06666666666666667,0.7333333333333333,0.2,"Accessibility, Noise, Cleanliness, Atmosphere, Maintenance, Traffic, Aesthetics, General","parking (31), walking (24), great (18), amazing (18), busy (9), good (9), lovely (9), safe (9), traffic (9), old (9), peaceful (9), maintained (6), tidy (3), roomy (3)",199
Croydon,Fairfield Gardens,Park,51.372952,-0.09500849999999998,5.0,0.41562620798746747,0.6666666666666666,0.0,0.3333333333333333,Aesthetics,lovely (3),2
Croydon,"St John's Memorial Garden, Croydon",Park,51.37207770000001,-0.1063904,4.8,0.6998922824859619,0.0,0.0,1.0,Maintenance,old (18),4
Croydon,Cotelands,Park,51.37139060000001,-0.08901529999999999,4.0,0.0,0.0,0.0,0.0,,,1
Croydon,Wellesley Road,Transit Station,51.3755296,-0.09749259999999998,4.2,0.39770978937546414,0.5,0.5,0.0,"Maintenance, Accessibility, General","great (9), new (9), good (9), convenient (9), safe (6), poor (6)",6
Croydon,Centrale,Transit Station,51.3758217,-0.1037781,4.3,0.4547553320725759,0.3333333333333333,0.6666666666666666,0.0,"Accessibility, Safety, Cleanliness, Atmosphere, Maintenance, Aesthetics, Traffic, General","clean (27), empty (18), great (9), attractive (9), walking (9), new (9), modern (9), bad (9), security (9), parking (9), safe (6), convenient (3), central (3), busy (3), good (3), tidy (3)",13
Croydon,Fairfield Halls,Point Of Interest,51.37212779999999,-0.0954416,4.3,0.689693808555603,0.0,0.4,0.6,"Noise, Comfort, Traffic, Aesthetics, General","good (27), fantastic (15), music (9), spacious (9), great (9), comfortable (9), lovely (9), parking (9), lighting (3), easy (1)",1754
Croydon,Centrale Shopping Centre,Shopping Mall,51.3752416,-0.1020895,4.0,0.6317262450853983,0.2,0.0,0.8,"Accessibility, Safety, Comfort, Cleanliness, Maintenance, General","great (36), safe (18), clean (18), enjoyable (18), spacious (15), good (12), security (9), maintained (9), perfect (9), easy (9), comfortable (9), inviting (9), convenient (9), welcoming (9), surveillance (9)",9419
Croydon,Whitgift Centre,Shopping Mall,51.37525460000001,-0.1001299,3.6,0.4766148606936137,0.2,0.8,0.0,"Safety, Cleanliness, Atmosphere, Maintenance, Traffic, General","good (18), empty (18), safe (9), clean (9), neglected (9), crowded (9), new (9), security (9), walking (6), noisy (3), cars (3), flow (3)",11134
Croydon,West Croydon Station,Transit Station,51.3788016,-0.1020889,2.4,0.5484269122282664,0.0,0.7333333333333333,0.26666666666666666,"Accessibility, Comfort, Cleanliness, Maintenance, General","good (12), clean (9), noisy (9), busy (9), far (9), uncomfortable (9), messy (9), new (9), tidy (6), cars (6), walking (6), parking (3), calm (3), cozy (3), easy (3)",18
Croydon,Lloyd Park Car Park,Transit Station,51.3643759,-0.0795865,5.0,0.831758439540863,0.0,0.0,1.0,"Cleanliness, General","neat (9), wonderful (6), safe (3), fantastic (3)",2
Croydon,West Croydon,Transit Station,51.37839639999999,-0.1027261,3.8,0.6228582302729289,0.06666666666666667,0.5333333333333333,0.4,"Maintenance, Traffic, Atmosphere, General","busy (21), horrible (18), good (12), new (9), bad (9), old (9), walking (6), messy (6), tidy (3)",318
Croydon,East Croydon,Transit Station,51.3750493,-0.09269780000000001,4.0,0.558343372742335,0.0,0.8666666666666667,0.13333333333333333,"Cleanliness, Atmosphere, Maintenance, Traffic, General","new (45), neat (27), near (27), busy (24), good (21), clean (18), tidy (18), safe (12), maintained (9), fantastic (6), ugly (6), parking (3), perfect (2)",606
Croydon,East Croydon Station (Stop E6),Transit Station,51.374638,-0.09294959999999998,3.6,0.6917993028958639,0.0,0.4,0.6,"Accessibility, Comfort, Atmosphere, Maintenance, Traffic, General","good (15), busy (12), difficult (9), pleasant (9), awful (9), great (9), messy (6), noisy (3), near (3), safe (3)",145
Croydon,Church Street,Transit Station,51.3737496,-0.1043653,4.2,0.5458799640337626,0.0,0.6,0.4,"Traffic, Atmosphere, Accessibility, General","near (9), great (9), busy (9), easy (9), safe (3)",19
Croydon,Reeves Corner,Transit Station,51.37471850000001,-0.1062159,4.3,0.5039187808831532,0.4,0.4,0.2,"Accessibility, Safety, Maintenance, Traffic, General","walking (12), dark (9), parking (9), great (9), connected (9), fantastic (9), convenient (9), isolated (7), safe (6), cars (6), poor (6), central (3), noisy (3)",16
Croydon,Wandle Park,Transit Station,51.3734263,-0.1133815,3.9,0.5712075531482697,0.0,0.6666666666666666,0.3333333333333333,"Accessibility, Safety, Noise, Cleanliness, Atmosphere, Traffic, General","parking (45), good (18), safe (15), walking (15), bad (9), clean (9), great (9), convenient (9), quiet (9), easy (9), near (6), noisy (6), tidy (3)",40
Croydon,Waddon Marsh,Transit Station,51.3769818,-0.1179077,4.2,0.5529522140820821,0.0,0.8666666666666667,0.13333333333333333,"Maintenance, Accessibility, General","good (27), convenient (18), safe (9), old (9)",25
Croydon,Sandilands,Transit Station,51.3750021,-0.0776872,4.6,0.7180077751477559,0.0,0.2,0.8,"Accessibility, Cleanliness, Safety, General","good (21), convenient (18), safe (12), great (9), clean (9), busy (3)",27
Croydon,Ampere Way,Transit Station,51.38235280000001,-0.1237983,4.4,0.6059047321478526,0.06666666666666667,0.5333333333333333,0.4,"Maintenance, Accessibility, General","perfect (16), parking (9), good (9), accessible (9), easy (9), amazing (9), great (9), near (3), bad (3), busy (3), cars (3)",27
Croydon,Whitgift Centre,Transit Station,51.3765158,-0.09853979999999998,4.0,0.6556226313114166,0.3333333333333333,0.0,0.6666666666666666,,safe (3),1
Croydon,Whitgift Centre (Stop WL),Bus Station,51.3761869,-0.0985167,4.0,0.5200934410095215,0.3333333333333333,0.3333333333333333,0.3333333333333333,"Traffic, Atmosphere",busy (9),7
Croydon,Whitgift Centre (Stop WM),Bus Station,51.37645430000001,-0.09866509999999998,4.7,0.8017573356628418,0.0,0.0,1.0,General,excellent (9),3
Croydon,Electric House (Stop WY),Bus Station,51.37470999999999,-0.097412,4.0,0.4748743375142415,0.0,0.6666666666666666,0.3333333333333333,,,1
Croydon,Lunar House (Stop WH),Bus Station,51.377779,-0.0991886,3.6,0.4888194402058919,0.0,1.0,0.0,Comfort,"pleasant (9), safe (3)",5
Croydon,Poplar Walk (Stop WE),Bus Station,51.3782267,-0.1005635,3.0,0.46262585123380023,0.5,0.5,0.0,,"walking (3), busy (3), noisy (3)",2
Croydon,West Croydon Bus Station (Stop B8),Bus Station,51.378696,-0.101054,5.0,0.0,0.0,0.0,0.0,,,1
Croydon,Ruskin Road (Stop CJ),Bus Station,51.3768007,-0.1030537,3.9,0.5318423887093862,0.2,0.6,0.2,"Accessibility, General","busy (15), good (9), far (9), excellent (9), noisy (3), safe (3), near (3)",9
Croydon,West Croydon Bus Station (Stop B3),Bus Station,51.37891399999999,-0.101534,5.0,0.39113271633783975,0.4666666666666667,0.5333333333333333,0.0,"Cleanliness, Accessibility","central (27), busy (3), safe (3), parking (3), good (3), near (3), clean (3)",5
Croydon,West Croydon Bus Station (Stop B1),Bus Station,51.379158,-0.101093,4.5,0.0,0.0,0.0,0.0,,,2
Croydon,West Croydon Bus Station (Stop B4),Bus Station,51.379074,-0.101456,3.0,0.4803203046321869,0.0,1.0,0.0,,,1
Croydon,West Croydon Bus Station (Stop B2),Bus Station,51.3791233,-0.1013418,4.0,0.6151778240998586,0.0,0.4,0.6,"Noise, Cleanliness, Atmosphere, Maintenance, Traffic, General","old (27), busy (24), good (21), new (15), clean (9), rubbish (9), music (9), neat (6), near (6), tidy (6), lovely (3), messy (3), noisy (3), safe (3), updated (2)",71
Croydon,West Croydon Bus Station (Stop B5),Bus Station,51.37932199999999,-0.101287,3.8,0.5059720476468405,0.5555555555555556,0.2222222222222222,0.2222222222222222,"Traffic, Atmosphere",busy (12),4
Croydon,West Croydon Station (Stop WS),Bus Station,51.37841309999999,-0.1031332,5.0,0.526021420955658,0.0,1.0,0.0,Accessibility,convenient (9),1
Croydon,West Croydon Station (Stop WB),Bus Station,51.3787477,-0.1032894,4.0,0.40762853622436523,0.5,0.5,0.0,Accessibility,"easy (6), busy (6)",2
Croydon,West Croydon Station (Stop WA),Bus Station,51.37891399999999,-0.10333,3.0,0.39482659101486206,0.6666666666666666,0.3333333333333333,0.0,,busy (3),1
Croydon,Broad Green Avenue (Stop LA),Bus Station,51.385448,-0.109772,4.7,0.5035844445228577,0.0,1.0,0.0,"Cleanliness, General","good (9), busy (3), clean (3)",6
Croydon,Swan & Sugar Loaf (Stop G),Bus Station,51.3632235,-0.09844969999999999,4.3,0.38872424761454266,1.0,0.0,0.0,,,3
Croydon,St George’s Walk Shopping Centre,Shopping Mall,51.3730481,-0.0983527,3.4,0.4640468696753184,0.5333333333333333,0.26666666666666666,0.2,"Maintenance, General","safe (15), good (12), new (9), tidy (3)",58
Croydon,Purley Cross Retail Park,Shopping Mall,51.37220179999999,-0.1180833,4.3,0.5898898263772329,0.0,0.8,0.2,"Accessibility, Noise, Atmosphere, Maintenance, Traffic, Aesthetics, General","parking (24), new (18), beautiful (9), great (9), shouting (9), safe (6), tidy (3), difficult (3), busy (3)",305
Croydon,Valley Park Trade Centre,Shopping Mall,51.37848549999999,-0.1217994,5.0,0.0,0.0,0.0,0.0,,,1
Croydon,Croydon Clock Tower,Tourist Attraction,51.3722609,-0.0993913,4.5,0.6417754014333089,0.0,0.2,0.8,"Safety, Noise, Atmosphere, Maintenance, Aesthetics, Traffic, General","great (36), lovely (21), safe (15), busy (9), quiet (9), good (9), lighting (6), calm (3), new (1)",138
Croydon,Croydon Minster,Tourist Attraction,51.37273099999999,-0.1061283,4.6,0.7214623093605042,0.0,0.26666666666666666,0.7333333333333333,"Noise, Atmosphere, Aesthetics, General","beautiful (27), music (18), great (18), fantastic (12), amazing (9), safe (9), stunning (9), peaceful (9), perfect (9), quiet (9), lighting (3), parking (3)",227
Croydon,"St Mary's Catholic Church, West Croydon mass times",Tourist Attraction,51.38002729999999,-0.09955639999999998,4.7,0.8052928229173024,0.0,0.06666666666666667,0.9333333333333333,"Accessibility, Safety, Noise, Comfort, Cleanliness, Atmosphere, Maintenance, Aesthetics, Traffic, General","beautiful (27), music (18), lighting (18), welcoming (15), safe (12), peaceful (9), amazing (9), maintained (9), appealing (9), inviting (9), excellent (9), broken (9), noisy (6), connected (3), central (3), tidy (3), jammed (3), gorgeous (3), flow (3), lively (3), messy (2)",438
Croydon,Museum of Croydon,Museum,51.3721178,-0.0997723,4.2,0.6292473336060842,0.06666666666666667,0.3333333333333333,0.6,"Aesthetics, Traffic, Atmosphere, General","great (9), busy (9), safe (3), tidy (3), cars (3)",134
Croydon,Ronnie Corbett - Steel Statue,Tourist Attraction,51.3718963,-0.1029774,5.0,0.0,0.0,0.0,0.0,,,2
Croydon,Dame Peggy Ashcroft - Steel Statue,Tourist Attraction,51.37189859999999,-0.1030907,5.0,0.5467427174250284,0.0,1.0,0.0,"Noise, Maintenance, Traffic, Aesthetics, General","music (12), new (9), walking (9), lovely (9), great (9), sketchy (3), safe (3)",1
Croydon,Waddon Ponds,Natural Feature,51.36997849999999,-0.1203997,3.6,0.6042362252871195,0.0,0.8,0.2,Aesthetics,"lovely (15), parking (12), beautiful (9), good (6), tidy (6), peaceful (3), risky (3), noisy (3), cars (3), disappointing (1)",25
Croydon,Queen’s Road Cemetery,Cemetery,51.3904998,-0.09942410000000002,4.3,0.6024444560209911,0.0,0.6,0.4,"Noise, Cleanliness, Atmosphere, Maintenance, Aesthetics, General","great (27), peaceful (18), quiet (18), tidy (12), safe (12), good (12), beautiful (9), maintained (9), clean (6), walking (6), parking (3), lovely (3), messy (3)",19
Croydon,Asemblies of the First Born - Croydon,Church,51.3852868,-0.09582730000000002,4.7,0.7079001267751058,0.0,0.0,1.0,General,great (9),6
Croydon,Boston Road Baptist Church,Church,51.3877277,-0.117651,4.5,0.5005796386135949,0.1111111111111111,0.7777777777777778,0.1111111111111111,"Comfort, General","spacious (6), amazing (3)",6
Croydon,East Croydon United Reformed Church,Church,51.3742906,-0.0900877,4.5,0.6103904724121094,0.0,0.4,0.6,"Accessibility, Noise, Comfort, Atmosphere, Maintenance, Aesthetics, Traffic, General","good (27), easy (27), lovely (24), welcoming (18), quiet (18), central (9), music (9), peaceful (9), amazing (9), walking (9), modern (9), safe (6), lively (3)",29
Croydon,Croydon Spiritualist Church,Church,51.3682515,-0.09428230000000001,4.8,0.6179829796155294,0.0,0.5333333333333333,0.4666666666666667,"Comfort, Traffic, Aesthetics, Accessibility","welcoming (27), lovely (27), parking (12), easy (9), accessible (9), busy (3), cars (3), safe (3)",31
Croydon,کلیسای ایرانیان لندن- کرویدون,Church,51.3830586,-0.0987724,3.8,0.4202682177225749,0.4444444444444444,0.5555555555555556,0.0,"Aesthetics, Noise, Atmosphere, General","peaceful (9), good (9), attractive (9), quiet (3), messy (3)",9
Croydon,Christian Science Church,Church,51.3737425,-0.0918957,5.0,0.5950695474942526,0.2222222222222222,0.4444444444444444,0.3333333333333333,"Noise, Comfort, Atmosphere, General","welcoming (9), music (9), quiet (9), wonderful (6), roomy (6), lovely (3), messy (3), safe (3), tidy (3), fantastic (3)",3
Croydon,"Rehoboth International Christian Centre, Croydon",Church,51.3864213,-0.09664520000000001,4.9,0.7857971409956614,0.0,0.06666666666666667,0.9333333333333333,"Maintenance, Comfort, General","great (27), amazing (18), welcoming (9), new (9), cars (6), calm (6), cozy (6), wonderful (6), fantastic (3)",10
Croydon,Croydon Friends Meeting House,Church,51.3706762,-0.09720159999999999,4.2,0.6090164681275686,0.0,0.6,0.4,"Accessibility, Comfort, Cleanliness, Atmosphere, Maintenance, Traffic, Aesthetics, General","welcoming (18), spacious (9), easy (9), parking (9), great (9), busy (9), central (9), lovely (9), beautiful (9), good (9), clean (9), amazing (9), messy (6), safe (3)",19
Croydon,Providence Chapel - TGM,Church,51.368475,-0.1002456,4.6,0.8247676134109497,0.0,0.0,1.0,"Maintenance, Comfort, Aesthetics, General","lovely (15), new (9), beautiful (9), comfortable (9), welcoming (9), wonderful (9), great (9), amazing (9), modern (9), old (9), perfect (3)",11
Croydon,Church of the Nazarene,Church,51.3804741,-0.08689899999999999,5.0,0.8531121889750163,0.0,0.0,1.0,"Comfort, Aesthetics, General","great (27), welcoming (21), beautiful (18), wonderful (9), lovely (6), amazing (6), safe (3)",7
Croydon,Christ Evangelistic Ministries,Church,51.3743855,-0.105731,5.0,0.6678015887737274,0.0,0.5,0.5,"Maintenance, Comfort, Atmosphere, General","great (9), uncomfortable (9), vibrant (9), noisy (3), safe (3)",6
Croydon,UCKG HelpCentre - Croydon,Church,51.3786892,-0.1027615,4.8,0.8431719501813253,0.0,0.0,1.0,"Maintenance, Atmosphere, Safety, General","messy (21), peaceful (12), tidy (9), broken (9), empty (9), safe (6), wonderful (6), noisy (3), lovely (3), fantastic (3)",159
Croydon,Everyday Church Croydon,Church,51.3717667,-0.1014973,5.0,0.926133394241333,0.0,0.0,1.0,General,"great (9), fantastic (6), wonderful (3)",5
Croydon,Praise Gate Temple,Church,51.3773885,-0.106585,4.7,0.5627488772074382,0.2,0.4666666666666667,0.3333333333333333,"Comfort, Accessibility, General","wonderful (9), welcoming (6), messy (3), safe (3), amazing (3)",13
Croydon,True Vine Centre Redeemed Christian Church of God - Croydon,Church,51.3801044,-0.1043692,3.7,0.6617418626944224,0.0,0.3333333333333333,0.6666666666666666,General,great (9),3
Croydon,Croydon Tabernacle RCCG,Church,51.3790827,-0.1057748,4.7,0.7422987302144368,0.0,0.2,0.8,"Comfort, Atmosphere, General","great (18), lively (9), welcoming (9), wonderful (9), fantastic (9), messy (3), noisy (3)",28
Croydon,Crossfare Christian Centre,Church,51.3775352,-0.1074113,5.0,0.0,0.0,0.0,0.0,,,1
Croydon,Triumphant Global Ministries - Croydon,Church,51.36842659999999,-0.1002016,5.0,0.65252376264996,0.0,0.3333333333333333,0.6666666666666666,"Maintenance, Comfort, Aesthetics","new (9), beautiful (9), welcoming (9), lovely (9)",6
Croydon,Acts Christian Church,Church,51.3851759,-0.09814809999999999,5.0,0.7756874511639277,0.0,0.3333333333333333,0.6666666666666666,"Comfort, General","good (10), wonderful (9), spacious (9), great (9), amazing (3)",2
Croydon,BLFM - MK,Church,51.38518080000001,-0.1000086,5.0,0.7033913532892863,0.0,0.0,1.0,General,great (9),1
Croydon,Centrale Car Park,Parking,51.37544159999999,-0.1036354,3.8,0.5730251133441925,0.06666666666666667,0.4,0.5333333333333333,"Accessibility, Safety, Comfort, Cleanliness, Atmosphere, Maintenance, Traffic, General","parking (42), cars (24), good (21), difficult (18), clean (14), great (9), tight (9), busy (9), security (9), accessible (9), tidy (6), messy (6), lively (3), safe (3)",333
Croydon,Q-Park Surrey Street,Parking,51.37189829999999,-0.1026938,3.9,0.515782097975413,0.0,0.8666666666666667,0.13333333333333333,"Accessibility, Safety, Cleanliness, Maintenance, Aesthetics, Traffic, General","parking (39), good (18), pretty (18), difficult (18), security (18), secure (15), cars (12), police (9), great (9), terrible (9), noisy (6), messy (6), tidy (6), clean (6), active (3), safe (3), poor (2)",156
Croydon,Croydon Council Car Park,Parking,51.3702821,-0.1018469,3.1,0.47228242754936217,0.26666666666666666,0.5333333333333333,0.2,"Cleanliness, Accessibility, General","awful (9), dirty (9), near (9), cars (3), parking (3)",12
Croydon,"Car Park Wandle Road Multistory, Croydon | APCOA",Parking,51.37011769999999,-0.101506,3.7,0.5181309481461843,0.4666666666666667,0.2,0.3333333333333333,"Safety, Cleanliness, Accessibility, General","parking (24), cars (21), safe (21), good (12), tidy (12), easy (9), security (9), convenient (9), dirty (9), dark (9), difficult (9), noisy (6), walking (6)",127
Croydon,Ruskin Square Car Park,Parking,51.3775558,-0.09545679999999998,4.4,0.636727919181188,0.0,0.4,0.6,"Safety, Cleanliness, Maintenance, Traffic, General","parking (75), cars (44), safe (39), excellent (18), new (18), secure (15), tidy (15), clean (15), security (9), lighting (9), poor (9), rubbish (9), bad (9), vehicle (9), good (9), protected (9), walking (9), peaceful (3), noisy (3), wonderful (3)",335
Croydon,Whitgift Centre Car Park,Parking,51.37532419999999,-0.0980963,3.1,0.7009488801161449,0.0,0.4,0.6,"Safety, Atmosphere, Maintenance, Traffic, General","parking (81), cars (24), good (21), safe (12), walking (9), busy (9), modern (9), messy (6), noisy (6), tidy (6), improved (5)",94
Croydon,London Surfacing Co Ltd,Parking,51.3791984,-0.08634559999999998,4.1,0.5330974141756694,0.26666666666666666,0.4666666666666667,0.26666666666666666,"Accessibility, General","fantastic (9), safe (3), far (3)",7
Croydon,YourParkingSpace Car Park - Croydon Whitgift Centre,Parking,51.3774615,-0.0999193,2.4,0.7596225798130035,0.0,0.2,0.8,"Maintenance, General, Traffic, Safety","parking (81), cars (48), security (36), broken (27), noisy (18), bad (18), secure (9), good (9), terrible (9), safe (6), damaged (3), easy (3)",31
Croydon,"NCP Car Park, Croydon Southern House",Parking,51.3750194,-0.09533090000000001,4.2,0.4826988950371742,0.25,0.5,0.25,"Noise, General, Traffic, Safety","parking (39), music (9), secure (9), great (9), cars (6), safe (6)",5
Croydon,Bedford Park Motorcycle Parking,Parking,51.3785271,-0.0958635,5.0,0.0,0.0,0.0,0.0,,,1
Croydon,College Road Motorcycle Parking,Parking,51.3744378,-0.09383920000000001,4.3,0.0,0.0,0.0,0.0,,,3
Croydon,West Croydon,Parking,51.3783667,-0.1028193,3.3,0.5280656198660533,0.2,0.6,0.2,"Safety, Cleanliness, Aesthetics, Traffic, General","good (18), cars (18), parking (18), lighting (9), pretty (9), dark (9), safe (6), clean (3), noisy (3)",19
Croydon,West Croydon Car Park,Parking,51.378856,-0.1024863,4.0,0.5354698896408081,0.0,1.0,0.0,General,good (9),1
Croydon,Fairfield Halls Car Park,Parking,51.3725207,-0.09461019999999998,3.3,0.6722339590390524,0.0,0.4,0.6,"Accessibility, Safety, Cleanliness, Traffic, General","parking (27), poor (18), dark (18), good (12), cars (9), convenient (9), easy (9), unsafe (9), tidy (9), safe (9), perfect (7), neglected (7), near (3), messy (3), noisy (3)",24
Croydon,Hazledean Road Car Park,Parking,51.3734912,-0.09094319999999999,2.9,0.5979058782259623,0.0,0.7333333333333333,0.26666666666666666,"Accessibility, Safety, Cleanliness, Traffic, General","cars (54), parking (39), safe (18), security (18), awful (15), tidy (12), convenient (9), near (9), dark (9), accessible (9), noisy (6), clean (6), lighting (3), messy (3)",9
Croydon,Croydon Central Library,Library,51.3721858,-0.0996011,4.3,0.6363405545552572,0.0,0.4,0.6,"Noise, Atmosphere, General","great (18), good (12), peaceful (9), bad (9), quiet (9), lovely (6), relaxing (3)",152
Croydon,Whitgift School,School,51.36002,-0.1022125,4.2,0.7441584666570028,0.0,0.4,0.6,"Accessibility, Noise, Comfort, Maintenance, General","safe (24), fantastic (18), great (18), good (10), welcoming (9), wonderful (9), new (9), isolated (9), amazing (9), music (9), bad (9), cozy (6), busy (3)",138
Croydon,Nuffield Health Croydon Central Fitness & Wellbeing Gym,Gym,51.3729927,-0.1008902,3.1,0.578418493270874,0.2,0.4666666666666667,0.3333333333333333,"Accessibility, Safety, Comfort, Cleanliness, Maintenance, Aesthetics, General","good (18), pretty (18), far (18), messy (15), lovely (9), great (9), outdated (9), worst (9), dirty (9), uncomfortable (9), easy (9), dangerous (9), rubbish (9), old (9), broken (9), excellent (9), clean (9), safe (6), horrible (6), upgraded (3), near (3), noisy (3), bad (3), dark (3), dead (3), tidy (3), roomy (3)",165
Croydon,Cambridge Tutors College,University,51.3672631,-0.0907782,4.2,0.5237934092680613,0.2,0.4,0.4,General,"great (27), excellent (27), messy (6), good (3), safe (3)",23
Croydon,The BRIT School,School,51.3901915,-0.09201549999999999,4.6,0.7144030173619588,0.2,0.0,0.8,"Maintenance, Comfort, Accessibility, General","wonderful (36), dark (12), messy (9), far (9), great (9), welcoming (9), safe (9), excellent (9), terrible (9), tidy (6)",191
Croydon,Croydon Adult Learning and Training (CALAT),Secondary School,51.37221659999999,-0.09931949999999999,3.6,0.48827033638954165,0.3333333333333333,0.5333333333333333,0.13333333333333333,"Maintenance, Accessibility, Safety, General","noisy (18), safe (15), messy (12), good (9), old (9), far (9), tidy (6)",27
Croydon,Croydon Metropolitan College,University,51.3664027,-0.09924500000000001,4.3,0.7729014714558919,0.0,0.2,0.8,"General, Maintenance, Safety","messy (18), great (15), safe (9), modern (9), excellent (9), improved (6), good (3), lovely (3), secure (2)",23
Croydon,"Croydon Nursery | Fennies Croydon, Addiscombe Road",School,51.3747924,-0.07569379999999999,4.4,0.6343539694945017,0.0,0.6,0.4,"Accessibility, Safety, Comfort, Maintenance, Aesthetics, General","new (27), safe (24), amazing (18), messy (15), lovely (12), old (9), welcoming (9), far (9), updated (3), near (3), noisy (3), tidy (3), roomy (3), good (3)",20
Croydon,Little Rayes Day Nursery,School,51.3752441,-0.1053048,4.9,0.6445028165976207,0.2,0.2,0.6,"Noise, Comfort, Cleanliness, Atmosphere, Maintenance, Aesthetics, General","safe (27), great (27), new (18), amazing (18), wonderful (18), clean (9), quiet (9), comfortable (9), improved (9), excellent (9), beautiful (9), updated (9), messy (6), good (6), tidy (3), lovely (3)",49
Croydon,Little Learners Day Nursery,School,51.3881712,-0.0956897,4.1,0.6585204601287842,0.0,0.4,0.6,"Accessibility, Comfort, Maintenance, Aesthetics, General","good (54), great (18), safe (12), inviting (9), comfortable (9), lovely (9), new (3), messy (3), noisy (3)",16
Croydon,Blossoms Day Nursery,School,51.3729518,-0.1092363,3.8,0.6187332928180694,0.0,0.6,0.4,"Maintenance, Traffic, Aesthetics, General","tidy (45), old (45), amazing (18), messy (15), lovely (12), good (9), great (9), driving (9), dangerous (9), safe (6), roomy (3), noisy (3), flow (1)",18
Croydon,Harris Federation,Secondary School,51.37442619999999,-0.0962926,2.8,0.7863554060459137,0.0,0.3333333333333333,0.6666666666666666,General,horrible (18),9
Croydon,Adam Hooton Guitar Tuition,School,51.3798375,-0.1044733,5.0,0.7626083652178447,0.0,0.2,0.8,"Maintenance, General","great (27), good (15), wonderful (9), improved (9), tidy (3), messy (3), old (3), safe (3)",55
Croydon,Once Upon A Time Pre-School,School,51.382087,-0.09430999999999999,5.0,0.841000497341156,0.0,0.0,1.0,"Accessibility, Safety, Maintenance, Aesthetics, General","safe (27), pretty (24), good (24), lovely (15), tidy (9), fantastic (9), connected (9), old (9), peaceful (6), difficult (3), near (2)",38
Croydon,Mmi Pre School,School,51.37973909999999,-0.0887497,3.6,0.5557268838087718,0.13333333333333333,0.6666666666666666,0.2,"Safety, Comfort, Maintenance, Aesthetics, General","safe (33), new (27), wonderful (18), tidy (18), old (18), roomy (9), amazing (9), spacious (9), inviting (9), welcoming (9), disappointing (9), great (9), good (6), lighting (3), noisy (3), messy (3)",11
Croydon,Violin Teacher,School,51.36916249999999,-0.09405929999999998,5.0,0.68293270667394,0.0,0.4,0.6,"Maintenance, Noise, Aesthetics, General","excellent (9), old (9), improved (9), fantastic (9), lovely (9), music (9), good (9), great (3)",9
Croydon,Croydon College,University,51.3735491,-0.09511109999999998,3.7,0.6465255578358968,0.0,0.4666666666666667,0.5333333333333333,"Maintenance, General","tidy (12), improved (9), good (6), safe (3), threatening (3), ugly (3), noisy (3), poor (3)",225
Croydon,Simplified Education,University,51.3698937,-0.1151105,3.0,0.8755428194999695,0.0,0.0,1.0,,,2
Croydon,The Military Preparation College,University,51.37765419999999,-0.1104078,3.9,0.4913059539265103,0.4444444444444444,0.0,0.5555555555555556,"Maintenance, Safety","lovely (3), tidy (3), noisy (3), safe (3)",7
Croydon,UK School of English,University,51.3653252,-0.0988139,3.4,0.5174299498399099,0.4666666666666667,0.2,0.3333333333333333,"Aesthetics, Accessibility, General","tidy (12), messy (9), worst (9), good (9), amazing (6), fantastic (6), far (3), difficult (3)",11
Croydon,Neasden College,University,51.3767613,-0.09716869999999998,5.0,0.5375834703445435,0.0,1.0,0.0,General,good (9),2
Croydon,LSBU Croydon Campus,University,51.37476410000001,-0.097613,4.6,0.6948183357715607,0.0,0.4,0.6,"Accessibility, Comfort, Cleanliness, Maintenance, Traffic, General","modern (18), spacious (18), clean (18), poor (18), great (9), flow (9), parking (9), unpleasant (9), amazing (9), new (9), cars (6), safe (6), tidy (3), near (3), walking (3), lovely (3), cozy (3)",20
Croydon,Winway College of Business & Technology,University,51.3749439,-0.09449619999999999,4.6,0.7344164490699768,0.0,0.2,0.8,"Accessibility, Safety, Comfort, Atmosphere, Maintenance, General","great (27), new (18), terrible (9), security (9), unpleasant (9), worst (9), poor (9), easy (9), relaxing (9), messy (9), tidy (6), safe (3), near (3), calm (3), dark (3), dead (3), bad (3), lovely (1)",51
Croydon,Excel College,University,51.3738979,-0.0953259,5.0,0.7932722330093384,0.0,0.2,0.8,General,"great (18), messy (12), amazing (9), excellent (9)",10
Croydon,City Link,University,51.37448260000001,-0.09085280000000001,3.9,0.3255821069081624,1.0,0.0,0.0,,,7
Croydon,Cressey College - Birdhurst,University,51.367992,-0.09666720000000001,3.0,0.2979560395081838,0.6666666666666666,0.3333333333333333,0.0,,,2
Croydon,HAF Tutors,Doctor,51.3718404,-0.0827629,4.9,0.669800873597463,0.2,0.2,0.6,"Atmosphere, Aesthetics, Accessibility, General","excellent (27), safe (15), easy (9), calm (9), lovely (9)",82
Croydon,Croydon Community College,University,51.3862642,-0.1108043,1.0,0.0,0.0,0.0,0.0,,,1
Croydon,Croydon University Hospital,Hospital,51.3899222,-0.1102979,2.8,0.7994231263796489,0.0,0.2,0.8,"Noise, Comfort, Atmosphere, Maintenance, Aesthetics, Traffic, General","poor (36), noisy (33), tidy (30), busy (18), messy (15), good (9), shouting (9), safe (9), bad (9), welcoming (9), easy (3)",1192
Croydon,Edridge Road Community Health Centre,Hospital,51.3705054,-0.09870540000000003,2.5,0.8440611561139425,0.0,0.0,1.0,"Maintenance, Comfort, Aesthetics, General","lovely (36), messy (21), terrible (18), worst (9), great (9), safe (6), good (3)",279
Croydon,Croydon Clinic Moorfields Eye Hospital,Hospital,51.3892041,-0.1110643,3.4,0.7458016713460286,0.0,0.2,0.8,"Aesthetics, Accessibility, General","messy (15), tidy (9), great (9), lovely (9), far (9), safe (3)",27
Croydon,Selhurst Medical Centre,Hospital,51.38962,-0.0890667,3.5,0.7017597138881684,0.2,0.2,0.6,"Accessibility, Comfort, Atmosphere, Aesthetics, Traffic, General","amazing (27), lovely (18), excellent (18), good (9), busy (9), comfortable (9), welcoming (9), great (9), fantastic (9), convenient (9), messy (6), tidy (3), safe (3)",71
Croydon,Eversley Medical Centre,Hospital,51.3881096,-0.1117569,2.3,0.800255290667216,0.0,0.0,1.0,"Accessibility, Atmosphere, Maintenance, Aesthetics, Traffic, General","messy (24), good (21), easy (18), lovely (18), tidy (12), amazing (9), walking (9), noisy (9), old (9), worst (9), active (9), excellent (9), difficult (3)",127
Croydon,North Croydon Medical Centre,Hospital,51.3882793,-0.1112702,2.0,0.8068468630313873,0.0,0.13333333333333333,0.8666666666666667,"Maintenance, Comfort, Aesthetics, General","messy (15), uncomfortable (9), comfortable (9), bad (9), amazing (9), tidy (6), good (3), wonderful (3), roomy (3), safe (3)",101
Croydon,Delange Skin and Woundcare Ltd,Hospital,51.3743899,-0.09630320000000002,5.0,0.7174680233001709,0.0,0.0,1.0,"Cleanliness, Safety","safe (9), messy (6), clean (3)",1
Croydon,Jeanette Wallace House,Hospital,51.3705218,-0.09820140000000001,1.5,0.6299361109733581,0.0,0.6,0.4,"Accessibility, Safety, Comfort, Maintenance, Aesthetics, General","tidy (45), safe (39), messy (36), poor (18), good (15), noisy (15), difficult (9), comfortable (9), new (9), near (9), horrible (9), threatening (9), police (9), cozy (6), lively (5), active (3), great (3), ugly (3), risky (3)",31
Croydon,East Croydon Medical Centre,Hospital,51.375357,-0.08767749999999999,2.4,0.7040992200374603,0.0,0.26666666666666666,0.7333333333333333,"Accessibility, Cleanliness, Atmosphere, Aesthetics, General","lovely (27), messy (18), clean (9), great (9), bad (9), safe (6), calm (6), beautiful (3), tidy (3), noisy (3)",396
Croydon,Urban Health Care,Hospital,51.36779199999999,-0.09884760000000001,4.7,0.8706523338953654,0.0,0.0,1.0,"Comfort, Cleanliness, Aesthetics","clean (18), lovely (12), gorgeous (9), welcoming (9), inviting (9), spacious (9), safe (6), tidy (3), messy (3), good (3), relaxing (1)",101
Croydon,GA Professional healthcare,Hospital,51.37412180000001,-0.1157101,5.0,0.8830945491790771,0.0,0.0,1.0,,,3
Croydon,Cavendish House Medical Practice,Hospital,51.3889749,-0.1120167,3.1,0.7270097772280375,0.0,0.3333333333333333,0.6666666666666666,"Accessibility, Atmosphere, Aesthetics, Traffic, General","good (24), difficult (18), bad (18), tidy (12), fantastic (9), busy (9), worst (9), lovely (9), great (9), easy (3), risky (3), safe (3)",11
Croydon,Pollock's Toy Museum Croydon,Museum,51.37635929999999,-0.09895939999999998,4.8,0.7151293555895487,0.0,0.0,1.0,"Accessibility, General","great (18), central (9)",4
Croydon,Wandle Park Bandstand,Museum,51.373618,-0.1108577,4.3,0.6619597540961372,0.0,0.4444444444444444,0.5555555555555556,"Noise, Traffic, Aesthetics, General","lovely (9), music (9), excellent (9), parking (3), lively (2), flow (1)",4
Croydon,Turf Projects,Art Gallery,51.3763325,-0.09909420000000001,4.7,0.7152604659398397,0.0,0.26666666666666666,0.7333333333333333,"Aesthetics, General","great (18), amazing (15), beautiful (12), wonderful (9), lovely (9), good (3), tidy (3)",56
Croydon,Monate Gallery,Art Gallery,51.3794327,-0.09478929999999998,5.0,0.5147583037614822,0.5,0.16666666666666666,0.3333333333333333,General,"great (9), amazing (6)",3
Croydon,Croydon Art Space,Art Gallery,51.38067220000001,-0.0876905,5.0,0.6529270286361376,0.0,0.4166666666666667,0.5833333333333334,"Maintenance, General, Aesthetics, Safety","great (27), modern (18), safe (18), roomy (9), beautiful (9), amazing (9), improved (9), protected (9), damaged (9), wonderful (9), fantastic (6), messy (3)",5
Croydon,The Ark Of Extinction,Art Gallery,51.3714993,-0.1133424,5.0,0.5974056522051493,0.0,0.3333333333333333,0.6666666666666666,General,amazing (15),1
Croydon,Woodside Green,Park,51.38848900000001,-0.06830630000000001,4.1,0.539963831504186,0.0,0.7333333333333333,0.26666666666666666,"Accessibility, Safety, Noise, Cleanliness, Atmosphere, Maintenance, Aesthetics, Traffic, General","safe (42), good (21), busy (21), near (15), neat (12), new (12), lovely (12), relaxing (9), beautiful (9), messy (9), amazing (9), quiet (9), crowded (9), old (9), easy (9), great (9), ugly (3), dark (3), dead (3), clean (3)",191
Croydon,Whitehorse Meadow,Park,51.40041050000001,-0.08925319999999998,4.4,0.6581022540728251,0.0,0.6,0.4,"Maintenance, Cleanliness, General","horrible (9), good (9), maintained (6), parking (3), lovely (3), messy (3), walking (3), relaxing (3)",18
Croydon,Addington Hills,Park,51.3628847,-0.05971979999999999,4.6,0.6345244546731313,0.0,0.6,0.4,"Accessibility, Noise, Comfort, Atmosphere, Maintenance, Traffic, Aesthetics, General","parking (48), walking (39), good (21), stunning (18), great (18), safe (15), peaceful (12), central (9), accessible (9), amazing (9), beautiful (9), far (9), scenic (9), relaxing (9), broken (9), old (9), lovely (9), updated (3), cars (3), near (3), pleasant (3), connected (3), attractive (3), tidy (3)",582
Croydon,Sensible Garden,Park,51.4002433,-0.07322089999999999,4.1,0.6819201687971751,0.0,0.4,0.6,"Aesthetics, General","great (18), beautiful (9), noisy (9), lovely (9), good (9), tidy (3), messy (3), safe (3)",9
Croydon,Croydon Ecology Centre,Park,51.3562481,-0.0568735,4.7,0.6777405778566996,0.0,0.3333333333333333,0.6666666666666666,"Aesthetics, Noise, Atmosphere, General","quiet (18), walking (9), lovely (9), wonderful (9), beautiful (9), safe (6), amazing (6)",32
Croydon,Bramley Bank - London Wildlife Trust,Tourist Attraction,51.3543303,-0.05830799999999999,4.3,0.5807582080364228,0.0,0.6666666666666666,0.3333333333333333,"Comfort, Traffic, Aesthetics, General","lovely (18), walking (16), pleasant (9), beautiful (9), fantastic (9), parking (3), safe (3)",101
Croydon,Lloyd Park,Park,51.3675398,-0.07257660000000002,4.5,0.5796243747075399,0.0,0.6,0.4,"Accessibility, Comfort, Cleanliness, Maintenance, Traffic, Aesthetics, General","parking (78), great (36), walking (21), new (18), difficult (18), muddy (18), far (9), easy (9), welcoming (9), perfect (9), lovely (9), accessible (9), good (9), safe (6), cars (6), lively (3), near (3), busy (3)",3109
Croydon,Beaulieu Heights,Park,51.4096381,-0.0836994,4.2,0.5439782460530599,0.26666666666666666,0.3333333333333333,0.4,"Traffic, Aesthetics, General","great (45), lovely (6), walking (6), muddy (3), flow (3), lively (3)",93
Croydon,The Mill House Ecology Centre,Park,51.39516949999999,-0.1452178,4.9,0.6457179122500949,0.2222222222222222,0.4444444444444444,0.3333333333333333,"Aesthetics, Accessibility, General","safe (15), cars (12), parking (12), near (9), fantastic (9), great (9), excellent (9), lovely (6), easy (3), good (3), walking (3), noisy (3)",7
Croydon,Harrington Road,Transit Station,51.3996398,-0.0605229,4.3,0.5989286601543427,0.0,0.4666666666666667,0.5333333333333333,"Comfort, Accessibility, General","easy (9), great (9), pleasant (9), safe (9), convenient (9), parking (6), improved (3), noisy (3)",18
Croydon,Valley Fencing,General Contractor,51.3931423,-0.07234600000000001,5.0,0.7067278226216634,0.0,0.0,1.0,General,"good (18), safe (3)",1
Croydon,Blackhorse Lane (Stop WA),Transit Station,51.38553599999999,-0.07270299999999999,3.0,0.0,0.0,0.0,0.0,,,1
Croydon,Blackhorse Lane,Transit Station,51.3849683,-0.0703469,4.3,0.5030489285786947,0.26666666666666666,0.3333333333333333,0.4,"Accessibility, Noise, Atmosphere, Maintenance, General","good (30), near (12), old (9), quiet (9), parking (6), busy (3), ugly (3), neat (3), new (3), noisy (3), safe (3)",16
Croydon,Valley Retail Park,Shopping Mall,51.37989040000001,-0.1264796,4.1,0.6469668388366699,0.0,0.26666666666666666,0.7333333333333333,"Accessibility, Comfort, Atmosphere, Maintenance, Traffic, Aesthetics, General","parking (42), good (36), great (15), noisy (12), safe (12), accessible (9), enjoyable (9), tidy (9), near (9), new (9), old (9), crowded (9), busy (9), flow (6), lovely (6), convenient (3), messy (3)",9405
Croydon,Wing Yip Superstore Entrance,Shopping Mall,51.3629707,-0.118394,2.3,0.7187278946240743,0.0,0.4,0.6,"Traffic, General","parking (39), vehicle (9), messy (6), good (6), cars (6)",12
Croydon,The Colonnades,Shopping Mall,51.35621179999999,-0.1144987,4.2,0.5391810655593872,0.0,0.8666666666666667,0.13333333333333333,"Maintenance, Traffic, Aesthetics, General","parking (33), good (27), old (18), great (15), beautiful (9), noisy (3), cars (3)",1348
Croydon,Croydon Airport Visitor Centre,Tourist Attraction,51.3563889,-0.1172222,4.6,0.7088380654652914,0.0,0.26666666666666666,0.7333333333333333,"Accessibility, Noise, Cleanliness, Traffic, Aesthetics, General","great (45), lovely (19), clean (18), fantastic (15), good (15), easy (9), amazing (9), parking (9), accessible (9), traffic (9), safe (6), tidy (3), roomy (3)",218
Croydon,Trumble Gardens,Park,51.39661409999999,-0.1046977,3.7,0.5298148036003113,0.0,0.8,0.2,"Safety, Noise, Cleanliness, Atmosphere, Maintenance, Aesthetics, Traffic, General","safe (30), parking (18), maintained (18), upgraded (9), excellent (9), clean (9), damaged (9), loud (9), music (9), peaceful (9), good (9), cars (9), pretty (9), lovely (6), tidy (6), dark (3), dead (3), noisy (3), messy (3)",242
Croydon,Ashburton Park,Park,51.3855119,-0.0654191,4.2,0.5368612358967463,0.06666666666666667,0.6666666666666666,0.26666666666666666,"Accessibility, Noise, Cleanliness, Atmosphere, Maintenance, Aesthetics, Traffic, General","great (45), safe (21), old (18), parking (18), beautiful (12), good (12), lovely (12), bikes (12), accessible (9), improved (9), maintained (9), perfect (9), peaceful (9), modern (9), charming (9), rubbish (9), renovated (7), clean (6), flow (3), near (3), cars (3), walking (3), tidy (3)",1418
Croydon,Coombe Wood Gardens,Park,51.3624188,-0.06916470000000001,4.7,0.6787795464197794,0.0,0.2,0.8,"Accessibility, Comfort, Cleanliness, Atmosphere, Maintenance, Traffic, Aesthetics, General","beautiful (27), pleasant (18), lovely (18), parking (12), near (12), flow (9), maintained (9), serene (9), old (9), good (9), walking (6), poor (3), tidy (3)",942
Croydon,Zaha GOAT wall,Tourist Attraction,51.3978334,-0.08337159999999999,5.0,0.5719582160313924,0.4,0.2,0.4,General,"amazing (6), busy (3)",13
Croydon,Coombe Wood,Natural Feature,51.358792,-0.0714992,4.6,0.553148219982783,0.2,0.26666666666666666,0.5333333333333333,"Traffic, Aesthetics, General","great (18), good (18), walking (13), beautiful (9), perfect (9), lovely (6), safe (3), tidy (3)",20
Croydon,Bramley Bank,Natural Feature,51.3545382,-0.05944449999999999,4.2,0.6362599233786265,0.0,0.5,0.5,"Aesthetics, General","beautiful (9), good (9), relaxing (3), parking (3)",5
Croydon,Beaulieu Heights,Natural Feature,51.4092765,-0.0840648,3.8,0.708036998907725,0.0,0.0,1.0,General,"great (36), parking (3)",8
Croydon,Thornton Heath Pond,Natural Feature,51.3941232,-0.1146955,3.6,0.49288933277130126,0.4,0.2,0.4,"Noise, Atmosphere, Maintenance, Traffic, General","good (15), new (9), crowded (6), safe (3), traffic (3), great (3)",74
Croydon,One Island Pond,Natural Feature,51.3914288,-0.142266,4.0,0.0,0.0,0.0,0.0,,,2
Croydon,South Norwood Lake,Natural Feature,51.40698709999999,-0.0741826,4.5,0.6165816962718964,0.2,0.2,0.6,"Comfort, Cleanliness, Atmosphere, Aesthetics, General","great (27), beautiful (18), lovely (12), welcoming (9), good (9), rubbish (9), safe (9), relaxing (6), calm (6), noisy (3), walking (3), parking (3)",52
Croydon,Croham Hurst,Natural Feature,51.3535426,-0.0802465,4.2,0.5843928621874915,0.2222222222222222,0.1111111111111111,0.6666666666666666,"Aesthetics, General","beautiful (9), great (9), safe (3), tidy (3), lovely (3)",6
Croydon,Long Lane Wood,Natural Feature,51.3906012,-0.0529448,4.8,0.4540298978487651,0.0,1.0,0.0,"Traffic, General","walking (10), good (9)",5
Croydon,Littleheath Woods,Natural Feature,51.3489665,-0.0605272,4.5,0.5168028513590495,0.0,0.8666666666666667,0.13333333333333333,"Aesthetics, Traffic, Accessibility, General","walking (18), great (9), accessible (9), lovely (9), busy (6), safe (3), parking (3), charming (3)",28
Croydon,The Ruffet,Natural Feature,51.3527339,-0.0629073,4.7,0.667237271865209,0.0,0.5,0.5,General,"excellent (9), safe (3)",3
Croydon,The Lawns,Natural Feature,51.41156789999999,-0.0902915,4.0,0.35828078786532086,0.6666666666666666,0.3333333333333333,0.0,"Noise, Atmosphere",quiet (3),1
Croydon,Foxes Wood,Natural Feature,51.368312,-0.0412225,5.0,0.3158521354198456,1.0,0.0,0.0,,,2
Croydon,Croydon (Mitcham Road) Cemetery and Crematorium,Cemetery,51.3936293,-0.1248193,4.2,0.6585937162240346,0.0,0.3333333333333333,0.6666666666666666,"Noise, Comfort, Cleanliness, Atmosphere, Maintenance, Aesthetics, General","beautiful (21), lovely (18), great (12), maintained (9), spacious (9), comfortable (9), peaceful (9), wonderful (9), clean (6), safe (3), lighting (3), tidy (3)",56
Croydon,Bandon Hill Joint Cemetery,Cemetery,51.36558300000001,-0.1323261,4.3,0.4964192887147268,0.2,0.6,0.2,"Noise, Cleanliness, Atmosphere, Maintenance, General","music (18), old (18), wonderful (9), quiet (9), clean (6), poor (3), tidy (3), dark (3), dead (3), good (3), safe (3), lovely (1)",16
Croydon,"St Andrew's Roman Catholic Church, Thornton Heath",Church,51.3988343,-0.1036495,4.5,0.6494882861773174,0.0,0.6,0.4,"Comfort, Aesthetics, Accessibility, General","lovely (18), safe (12), good (12), difficult (9), disappointing (9), inviting (9), accessible (9), welcoming (9), messy (5)",81
Croydon,"St Paul's United Reformed Church, South Croydon",Church,51.3603957,-0.08351839999999999,4.7,0.7003049294153849,0.0,0.2,0.8,"Accessibility, Safety, Comfort, Cleanliness, Atmosphere, Aesthetics, Traffic, General","lovely (27), spacious (24), good (12), safe (9), lighting (9), easy (9), excellent (9), cars (9), difficult (9), attractive (9), amazing (9), comfortable (9), neat (9), parking (9), clean (9), roomy (6), tidy (3)",43
Croydon,Christ Embassy Croydon,Church,51.35606290000001,-0.1189632,4.7,0.7834283590316773,0.0,0.2,0.8,"Noise, General","great (18), good (18), excellent (9), music (9), wonderful (6), safe (3), fantastic (3), amazing (3)",41
Croydon,Igreja ADP Maculusso no Reino Unido,Church,51.3957952,-0.1085441,5.0,0.6331537167231241,0.0,0.0,1.0,General,"good (9), lovely (3)",1
Croydon,Addiscombe Baptist Church,Church,51.3839327,-0.07719729999999998,4.3,0.5170305569966634,0.0,1.0,0.0,,,4
Croydon,Life City Church - South Croydon,Church,51.36327480000001,-0.1062258,4.9,0.8359196623166402,0.0,0.0,1.0,"Safety, Noise, Comfort, Atmosphere, Maintenance, General","great (27), welcoming (15), amazing (9), new (9), music (9), lighting (9), old (9), vibrant (9), lovely (3), disappointing (3), safe (3)",16
Croydon,"St Alban the Martyr, South Norwood",Church,51.3978729,-0.0927159,4.5,0.5552341143290201,0.0,0.7333333333333333,0.26666666666666666,"Comfort, Aesthetics, General","lovely (33), welcoming (9), good (9), great (9), beautiful (9), safe (6), tidy (3)",27
Croydon,"St Peter's Church, South Croydon",Church,51.363415,-0.0954679,4.5,0.6409048060576121,0.13333333333333333,0.26666666666666666,0.6,"Comfort, Atmosphere, Traffic, Aesthetics, General","lovely (24), pleasant (18), beautiful (9), amazing (9), busy (9), cars (3), calm (3), cozy (3), easy (3), tidy (3)",48
Croydon,Springfield Baptist Church,Church,51.36556409999999,-0.0845504,5.0,0.6583794951438904,0.0,0.0,1.0,Aesthetics,lovely (9),1
Croydon,World Harvest Christian Centre,Church,51.3928647,-0.0685653,4.7,0.7415677368640899,0.06666666666666667,0.0,0.9333333333333333,"Aesthetics, General","great (15), lovely (6), wonderful (6), safe (3), fantastic (3)",13
Croydon,Croydon Community Church,Church,51.3998485,-0.09764849999999999,4.5,0.5859149446090063,0.0,0.8333333333333334,0.16666666666666666,General,amazing (3),6
Croydon,Ashburton Library,Library,51.3828858,-0.0640145,4.5,0.5370230972766876,0.2,0.26666666666666666,0.5333333333333333,"Noise, Comfort, Cleanliness, Safety","safe (27), spacious (18), noisy (15), screaming (12), tidy (12), lighting (9), loud (9), comfortable (9), welcoming (9), pleasant (6), parking (3)",41
Croydon,South Norwood Library,Library,51.3972681,-0.07886399999999999,4.4,0.6322450041770935,0.0,0.4,0.6,"Noise, Atmosphere, Maintenance, Aesthetics, General","good (18), amazing (9), lovely (9), modern (9), beautiful (9), quiet (6), calm (6), safe (3)",27
Croydon,Thornton Heath Library,Library,51.39684699999999,-0.105552,4.2,0.5669227600097656,0.06666666666666667,0.7333333333333333,0.2,"Accessibility, Noise, Atmosphere, Aesthetics, General","good (27), lovely (18), pretty (9), central (9), lively (9), loud (6), quiet (6), near (3), amazing (3), messy (3)",58
Croydon,Norbury Library,Library,51.4056205,-0.1207797,4.0,0.5631999770800272,0.0,0.5333333333333333,0.4666666666666667,"Accessibility, Noise, Cleanliness, Atmosphere, Aesthetics, General","messy (24), great (18), quiet (9), music (9), amazing (9), far (9), tidy (9), shouting (9), wonderful (6), lovely (6), noisy (6), loud (3), cozy (3), beautiful (3), near (3), fantastic (3), damaged (1)",46
Croydon,Pollards Hill Library,Library,51.39995159999999,-0.1320308,4.3,0.5699724753697714,0.0,0.7333333333333333,0.26666666666666666,"Aesthetics, Noise, Atmosphere, General","good (54), calm (9), quiet (9), noisy (9), great (9), lovely (9), amazing (9), messy (6), cars (3), parking (3), safe (3)",51
Croydon,Library at the Phoenix Centre,Library,51.35308709999999,-0.1330959,3.8,0.6373137454191844,0.13333333333333333,0.3333333333333333,0.5333333333333333,"Noise, Atmosphere, Maintenance, Aesthetics, General","good (18), fantastic (12), tidy (9), lovely (9), bad (9), noisy (9), loud (9), disappointing (9), outdated (9), new (9), safe (6), quiet (6), wonderful (6), cars (3), parking (3), upgraded (3)",18
Croydon,"Oasis Academy Shirley Park, Middle School",School,51.38734219999999,-0.06223039999999998,4.0,0.0,0.0,0.0,0.0,,,1
Croydon,Nuffield Health Norbury Fitness & Wellbeing Gym,Gym,51.4053846,-0.1182824,2.3,0.5197715918223064,0.0,1.0,0.0,"Accessibility, Safety, Comfort, Cleanliness, Atmosphere, Maintenance, Aesthetics, Traffic, General","bad (18), messy (15), safe (12), broken (9), difficult (9), comfortable (9), parking (9), perfect (9), easy (9), empty (9), tidy (6), maintained (3), noisy (3), upgraded (3), active (3)",166
Croydon,Winterbourne Children's Centre,School,51.3992625,-0.1157082,3.3,0.45359046856562296,0.2,0.8,0.0,"Cleanliness, Accessibility, General","dirty (9), difficult (9), good (9), safe (6), walking (3), ugly (3)",18
Croydon,The Mulberry Kindergarten,School,51.3922383,-0.07026210000000001,4.0,0.4943895637989044,0.0,1.0,0.0,"Comfort, General","great (9), comfortable (9), safe (3), noisy (3)",1
Croydon,Cressey College,University,51.39231110000001,-0.06738060000000001,5.0,0.0,0.0,0.0,0.0,,,1
Croydon,Spurgeon's College,University,51.4063843,-0.08645659999999998,4.5,0.8657824714978536,0.0,0.0,1.0,"Noise, Comfort, Atmosphere, Maintenance, General","amazing (21), great (18), peaceful (9), wonderful (9), excellent (9), fantastic (9), perfect (9), welcoming (3), messy (3)",37
Croydon,Shirley Oaks Hospital,Hospital,51.3822175,-0.05634799999999999,4.8,0.7931013981501261,0.0,0.0,1.0,"Safety, Comfort, Cleanliness, Atmosphere, Maintenance, Aesthetics, General","safe (27), comfortable (27), messy (18), lovely (18), calm (9), welcoming (9), clean (9), maintained (9), excellent (9), tidy (9), enjoyable (9), great (9), amazing (9), peaceful (3)",1171
Croydon,"Dr Sennick, Broughton Corner Medical Center",Hospital,51.39135119999999,-0.1183091,1.7,0.8210965991020203,0.0,0.0,1.0,"Accessibility, Safety, Atmosphere, Maintenance, General","worst (18), dead (9), crime (9), near (9), far (9), cars (6)",6
Croydon,Mersham Medical Centre,Hospital,51.4041548,-0.0963908,4.1,0.6720964034398397,0.13333333333333333,0.2,0.6666666666666666,"Maintenance, Cleanliness, General","great (48), good (12), tidy (12), maintained (9), new (9), worst (9), old (3), noisy (3)",55
Croydon,Brigstock Medical Practice,Hospital,51.3947417,-0.1097784,2.3,0.8389209429423015,0.0,0.0,1.0,"Maintenance, Cleanliness, Aesthetics, General","terrible (27), tidy (15), safe (15), bad (9), new (9), old (9), neglected (9), amazing (9), lovely (9), great (9), good (6), messy (6), cars (3)",175
Croydon,MedLife HealthCare Limited,Hospital,51.4095671,-0.0870763,4.0,0.7675618231296539,0.0,0.0,1.0,,,4
Croydon,Parchmore Medical Centre,Hospital,51.4026347,-0.1006606,2.3,0.7884555657704672,0.0,0.2,0.8,"Maintenance, General","noisy (24), good (12), safe (9), worst (9), terrible (9), awful (9), messy (6), easy (3), tidy (3)",212
Croydon,Woodside Health Centre,Hospital,51.3929959,-0.06756179999999999,2.3,0.5752811829249064,0.4,0.2,0.4,"Maintenance, Aesthetics, Accessibility, General","worst (15), tidy (12), noisy (12), near (9), new (9), amazing (9), parking (6), active (3), roomy (3), good (3), dead (3)",49
Croydon,Croydon Airport Memorial,Museum,51.3528248,-0.1157795,4.2,0.4870666339993477,0.08333333333333333,0.9166666666666666,0.0,"Aesthetics, Accessibility","beautiful (9), connected (5), safe (3)",6
Croydon,Kofi Arts,Art Gallery,51.4013341,-0.1055845,5.0,0.48044679562250775,0.3333333333333333,0.5,0.16666666666666666,General,fantastic (3),4
Croydon,Crystal Palace Park,Park,51.4221083,-0.0709457,4.5,0.5246875683466593,0.2,0.6,0.2,"Accessibility, Noise, Comfort, Cleanliness, Atmosphere, Traffic, Aesthetics, General","lovely (27), wonderful (18), parking (18), great (18), welcoming (18), beautiful (18), safe (12), quiet (12), peaceful (12), walking (12), spacious (9), lively (9), stunning (9), perfect (9), calm (9), easy (9), pleasant (9), relaxing (3), flow (3), neat (3), busy (3), good (3)",13006
Croydon,South Norwood Lake & Grounds,Park,51.4096106,-0.07492109999999999,4.5,0.6942569474379222,0.0,0.2,0.8,"Accessibility, Cleanliness, Atmosphere, Maintenance, Aesthetics, Traffic, General","lovely (45), walking (19), beautiful (18), great (18), fantastic (12), good (12), renovated (9), calm (9), perfect (7), wonderful (6), parking (6), clean (3), flow (3), near (3)",1033
Croydon,Beckenham War Memorial,Park,51.406914,-0.0320175,4.6,0.5864872097969055,0.0,0.6666666666666666,0.3333333333333333,"Accessibility, Noise, Comfort, Traffic, Aesthetics, General","traffic (18), accessible (9), enjoyable (9), walking (9), good (9), buzzing (7), lovely (6)",17
Croydon,Croydon Road Recreation Ground,Park,51.4036433,-0.0327766,4.4,0.5573538184165955,0.0,0.7333333333333333,0.26666666666666666,"Accessibility, Noise, Atmosphere, Aesthetics, Traffic, General","good (18), parking (15), tidy (12), walking (10), easy (9), lovely (9), far (9), great (9), quiet (9), fantastic (9), busy (9), messy (3), safe (3), ugly (3)",973
Croydon,Parkfields,Park,51.378803,-0.03904739999999999,4.1,0.5820090671380361,0.13333333333333333,0.4666666666666667,0.4,"Accessibility, Safety, Noise, Cleanliness, Atmosphere, Maintenance, Traffic, General","safe (30), good (27), easy (18), walking (18), old (15), parking (12), accessible (9), repaired (9), great (9), maintained (9), noisy (6), quiet (6), messy (3), perfect (3), updated (3), clean (3), poor (3), dark (3), dead (3)",75
Croydon,Norbury Park,Park,51.4130218,-0.1187954,4.2,0.5921007672945658,0.0,0.6666666666666666,0.3333333333333333,"Accessibility, Noise, Cleanliness, Atmosphere, Aesthetics, General","parking (25), lovely (21), peaceful (18), safe (18), tidy (12), good (12), great (9), calm (9), muddy (9), accessible (9), easy (9), perfect (9), fantastic (9), noisy (3), walking (3), cars (3)",814
Croydon,"Wilderness Island, London Wildlife Trust",Park,51.3732935,-0.1583628,4.5,0.6054943799972534,0.0,0.6,0.4,"Aesthetics, Noise, Atmosphere, Accessibility","peaceful (18), quiet (18), lovely (15), safe (9), near (6), relaxing (3), muddy (3), parking (3), tidy (3)",276
Croydon,Tumblewash,Laundry,51.4021347,-0.118466,4.7,0.44146618247032166,0.3333333333333333,0.6666666666666666,0.0,"Traffic, Atmosphere, General","good (9), busy (9)",3
Croydon,High Street Car Park,Transit Station,51.3760175,-0.0196901,3.0,0.30083828171094257,1.0,0.0,0.0,,"safe (3), cars (3), parking (3)",1
Croydon,West Norwood Fire Station,Bus Station,51.4258663,-0.1054869,5.0,0.490472545226415,0.1111111111111111,0.8888888888888888,0.0,General,"good (9), risky (1)",3
Croydon,Blenheim Centre,Shopping Mall,51.4142436,-0.05228380000000001,3.8,0.5370836019515991,0.0,0.9333333333333333,0.06666666666666667,"Safety, Comfort, Cleanliness, Traffic, General","good (18), parking (18), cars (12), tidy (9), great (9), pleasant (9), clean (9), safe (3), repaired (2)",748
Croydon,Mitcham Town Centre (High Street),Shopping Mall,51.4063919,-0.1634422,3.8,0.5551791429519654,0.06666666666666667,0.6,0.3333333333333333,"Maintenance, Cleanliness, Traffic, General","good (12), rubbish (9), parking (9), broken (6), tidy (3), safe (3), walking (3), old (3)",47
Croydon,Winsford Gardens Open Space,Park,51.4095047,-0.0563012,4.7,0.6627883513768514,0.06666666666666667,0.4,0.5333333333333333,"Noise, Cleanliness, Atmosphere, Maintenance, Aesthetics, Traffic, General","quiet (18), relaxing (12), busy (9), great (9), beautiful (9), maintained (9), wonderful (6), peaceful (3), flow (3), parking (3), lovely (3), safe (3), fantastic (3)",107
Croydon,Addington Park,Park,51.3563854,-0.0368672,4.2,0.6284588138262431,0.0,0.6,0.4,"Accessibility, Noise, Comfort, Cleanliness, Atmosphere, Maintenance, Traffic, General","parking (39), near (27), great (18), good (18), noisy (15), tidy (12), safe (12), clean (9), cars (9), spacious (9), muddy (9), peaceful (9), walking (9), relaxing (9), easy (9), far (6), busy (6)",328
Croydon,Crystal Palace Museum,Tourist Attraction,51.4196744,-0.0765912,4.2,0.554127675294876,0.0,0.7333333333333333,0.26666666666666666,"Traffic, Aesthetics, General","parking (9), walking (9), safe (9), stunning (9), great (9), good (9)",128
Croydon,"Christ Church, Gipsy Hill",Tourist Attraction,51.42162519999999,-0.0838445,4.6,0.6153112689654032,0.0,0.6,0.4,"Accessibility, Noise, Comfort, Cleanliness, Atmosphere, Maintenance, Traffic, Aesthetics, General","good (21), old (18), walking (12), busy (9), crowded (9), new (9), difficult (9), bad (9), ugly (9), great (9), clean (9), spacious (9), quiet (9), roomy (6), noisy (3), messy (3)",79
Croydon,Crease Park,Park,51.3975661,-0.0305476,4.1,0.4525085210800171,0.2,0.8,0.0,"Atmosphere, Maintenance, Traffic, Aesthetics, General","parking (30), lovely (27), safe (21), amazing (18), walking (9), great (9), busy (9), good (9), tidy (6), lighting (3)",121
Croydon,"Foxley Wood, Purley",Tourist Attraction,51.3306202,-0.1145277,4.6,0.5514863014221192,0.2,0.4,0.4,"Aesthetics, Accessibility, General","lovely (33), easy (9), good (9), walking (9), scenic (9), great (9), parking (3), safe (3)",68
Croydon,Blake Recreation Ground,Park,51.3808311,-0.0203804,4.2,0.5598499834537506,0.0,0.5333333333333333,0.4666666666666667,"Comfort, Atmosphere, Aesthetics, Traffic, General","parking (24), great (24), good (9), pleasant (9), empty (9), lovely (9), bikes (9), perfect (7), updated (3), safe (3), wonderful (3), walking (1)",259
Croydon,Watermen's Square,Park,51.4163189,-0.05395390000000001,4.9,0.5496917784214019,0.06666666666666667,0.6666666666666666,0.26666666666666666,"Safety, Noise, Cleanliness, Atmosphere, Maintenance, Aesthetics, General","pretty (27), beautiful (18), charming (9), protected (9), maintained (9), poor (9), safe (6), parking (6), roomy (6), quiet (3), noisy (3), lovely (3), lively (3), messy (3), walking (3)",20
Croydon,Eardley Road Sidings Nature Reserve,Tourist Attraction,51.4164778,-0.1427191,4.6,0.6547960042953491,0.0,0.26666666666666666,0.7333333333333333,"Cleanliness, Atmosphere, Maintenance, Traffic, General","calm (18), great (18), updated (9), busy (9), wonderful (9), new (9), clean (9), rubbish (9), perfect (9), walking (6), buzzing (3)",67
Croydon,Dulwich Upper Wood,Natural Feature,51.4240424,-0.0778874,4.7,0.6465361714363098,0.0,0.3333333333333333,0.6666666666666666,,,3
Croydon,Seven Islands Pond,Natural Feature,51.3983021,-0.1527366,4.5,0.6793578346570333,0.0,0.4,0.6,"Noise, Atmosphere, Aesthetics","lovely (24), beautiful (18), gorgeous (9), peaceful (9), parking (6), walking (6)",13
Croydon,Millers Pond,Natural Feature,51.3733134,-0.0340212,4.3,0.7136772116025288,0.0,0.2,0.8,"Aesthetics, Noise, Atmosphere, General","beautiful (36), peaceful (18), parking (18), good (15), lovely (12), relaxing (9), great (9), safe (3), messy (3)",21
Croydon,Lower Lake,Natural Feature,51.417981,-0.06524909999999999,4.0,0.4968536893526713,0.0,1.0,0.0,,,1
Croydon,Three Kings Pond,Natural Feature,51.403907,-0.1613297,4.3,0.4879810869693756,0.2,0.6,0.2,"Maintenance, Aesthetics, Accessibility","lovely (18), beautiful (15), new (9), damaged (9), near (9), walking (3), safe (3), relaxing (3)",35
Croydon,Western Cemetery (Streatham),Cemetery,51.40732969999999,-0.141969,4.5,0.32126084963480633,1.0,0.0,0.0,,,4
Croydon,Streatham Park Cemetery,Cemetery,51.40631639999999,-0.1455706,4.1,0.477358045677344,0.0,1.0,0.0,Comfort,"pleasant (9), good (3)",9
Croydon,All Saints Churchyard,Cemetery,51.36366719999999,-0.1638977,5.0,0.5148191253344218,0.0,1.0,0.0,"Aesthetics, Noise, Comfort, Atmosphere","pleasant (9), quiet (9), beautiful (9), tidy (3), walking (3)",1
Croydon,"St John the Baptist, Purley",Church,51.3331259,-0.1122315,4.6,0.5360052049160003,0.13333333333333333,0.6,0.26666666666666666,"Atmosphere, Maintenance, Aesthetics, Traffic, General","parking (27), good (12), vibrant (9), amazing (9), beautiful (9), modern (9), old (9), lovely (9), wonderful (6), fantastic (3)",54
Croydon,Local Polish Catholic Mission,Church,51.39877019999999,-0.07750549999999999,4.7,0.5431932826836904,0.06666666666666667,0.5333333333333333,0.4,"Accessibility, Comfort, Atmosphere, Maintenance, Aesthetics, Traffic, General","good (18), beautiful (18), great (18), new (9), safe (9), easy (9), welcoming (9), parking (9), difficult (9), busy (9), messy (6), near (3)",103
Croydon,Parchmore Methodist Church,Church,51.4007349,-0.1002677,4.4,0.6740695337454478,0.06666666666666667,0.3333333333333333,0.6,"Comfort, Cleanliness, Aesthetics, General","excellent (9), tidy (9), lovely (9), great (9), welcoming (9), clean (6)",35
Croydon,Clifton Hall,Church,51.39850999999999,-0.09054650000000002,4.6,0.6168444388442569,0.0,0.3333333333333333,0.6666666666666666,"Maintenance, General","new (9), great (9), good (6)",7
Croydon,Shotfield Car Park,Parking,51.3574522,-0.1517676,3.7,0.4725452979405721,0.2,0.8,0.0,"Accessibility, General","easy (9), safe (9), far (9), poor (9), tidy (6), parking (3), noisy (3)",18
Croydon,Sainsbury Car Park,Parking,51.4174558,-0.0830446,4.2,0.48235780199368794,0.2,0.6666666666666666,0.13333333333333333,"Traffic, General","good (9), parking (3)",6
Croydon,Sanderstead Library,Library,51.3407035,-0.085619,4.2,0.45885836084683734,0.26666666666666666,0.5333333333333333,0.2,"Maintenance, Noise, Atmosphere, General","good (15), silent (9), noisy (9), great (9), quiet (9), updated (3)",15
Croydon,Selsdon Library,Library,51.3422478,-0.06288370000000001,4.6,0.5478774785995484,0.0,0.7333333333333333,0.26666666666666666,"Accessibility, Noise, Cleanliness, Atmosphere, Maintenance, Aesthetics, General","good (36), lovely (15), loud (12), safe (12), great (9), difficult (9), perfect (9), maintained (6), roomy (3), quiet (3), tidy (3)",23
Croydon,Circle Library,Library,51.3854957,-0.1745803,4.0,0.6348105549812317,0.0,0.4,0.6,"Cleanliness, Atmosphere, General","perfect (18), clean (18), good (18), relaxing (12), tidy (6), noisy (3), updated (3), messy (3)",27
Croydon,Beckenham Library,Library,51.4085583,-0.0369114,4.3,0.6474296748638153,0.0,0.26666666666666666,0.7333333333333333,"Noise, Aesthetics, Accessibility, General","near (18), shouting (18), loud (12), poor (9), worst (9), lovely (9), excellent (9), good (9), music (9), safe (6), tidy (6), messy (3), noisy (3)",55
Croydon,Purley Library,Library,51.3391793,-0.1186142,4.1,0.6870676755905152,0.0,0.2,0.8,"Noise, Atmosphere, Maintenance, Aesthetics, General","great (24), lovely (24), quiet (9), safe (9), new (9), perfect (9), good (6), tidy (6)",23
Croydon,Mitcham Library,Library,51.4086424,-0.1625764,4.3,0.7370872815450032,0.0,0.2,0.8,"Noise, Cleanliness, Atmosphere, General","great (18), quiet (18), good (12), fantastic (12), clean (9), perfect (9), excellent (9), worst (9), wonderful (6), safe (6), tidy (3)",76
Croydon,Library at the Westcroft Centre,Library,51.3679959,-0.1578217,3.9,0.5788534661134084,0.0,0.4666666666666667,0.5333333333333333,"Accessibility, Noise, Cleanliness, Maintenance, Traffic, Aesthetics, General","loud (27), good (18), difficult (9), clean (9), noisy (9), bad (9), old (9), lovely (9), easy (9), shouting (9), safe (6), poor (3), tidy (3), roomy (3)",29
Croydon,📚 Sheena’s Free Little Library 📚,Library,51.3724673,-0.1704459,5.0,0.6561557312806447,0.0,0.4666666666666667,0.5333333333333333,"Maintenance, Comfort, Accessibility, General","great (15), good (12), comfortable (9), new (9), old (9), accessible (9), lovely (6), safe (3)",7
Croydon,Penge Library,Library,51.41397879999999,-0.05118789999999999,4.3,0.6203604797522227,0.0,0.7333333333333333,0.26666666666666666,"Noise, Cleanliness, Aesthetics, General","noisy (18), messy (12), worst (9), lovely (9), good (9), safe (6), clean (6)",35
Croydon,Lou's Little Library,Library,51.4213194,-0.1310034,5.0,0.8946901679039001,0.0,0.0,1.0,"Aesthetics, General","lovely (27), great (18), wonderful (18), bad (9), good (9), amazing (9), beautiful (9), loud (6), messy (6), safe (6), peaceful (3)",12
Croydon,Riddlesdown Collegiate,School,51.32523380000001,-0.08882040000000001,3.7,0.6281555354595184,0.2,0.2,0.6,"Noise, Atmosphere, Maintenance, Traffic, General","tidy (12), walking (9), safe (9), dark (9), dead (9), excellent (9), messy (9), broken (9), amazing (9), music (9), active (3), quiet (3), noisy (3)",65
Croydon,Westcroft Leisure Centre,Gym,51.3679924,-0.1584413,3.9,0.6388753890991211,0.0,0.2,0.8,"Maintenance, Cleanliness, Atmosphere, General","great (27), good (21), filthy (18), clean (12), new (9), terrible (9), tidy (9), maintained (9), awful (9), messy (6), active (6), safe (6), easy (1)",783
Croydon,Carshalton College,University,51.37185239999999,-0.1652401,3.7,0.6000012179215749,0.2,0.4,0.4,"Comfort, Cleanliness, Traffic, Aesthetics, General","worst (9), welcoming (9), safe (6), messy (6), tidy (3), clean (3)",95
Croydon,John Ruskin College,University,51.3510423,-0.04303539999999999,3.2,0.5558586835861206,0.13333333333333333,0.6666666666666666,0.2,"Accessibility, Safety, Comfort, Maintenance, General","good (69), tidy (30), bad (18), poor (18), noisy (18), easy (12), far (9), messy (9), broken (9), awful (9), worst (9), security (9), improved (9), terrible (9), safe (9), comfortable (9), near (6), pleasant (3)",62
Croydon,Hawthorn Centre,University,51.4119766,-0.0592262,4.6,0.6672588537136713,0.0,0.25,0.75,"Cleanliness, General","great (18), clean (9), lovely (3), messy (3), safe (3)",9
Croydon,Capel Manor College,University,51.41914879999999,-0.0675584,3.2,0.6447993695735932,0.0,0.4,0.6,"Accessibility, Safety, Atmosphere, Maintenance, Aesthetics, General","tidy (30), amazing (18), far (15), good (12), crime (12), noisy (12), messy (9), lovely (9), terrible (9), poor (9), horrible (9), great (9), awful (9), safe (6), roomy (3)",19
Croydon,GLL College,University,51.41998299999999,-0.067816,4.5,0.0,0.0,0.0,0.0,,,2
Croydon,Stanford College UK,University,51.4085098,-0.122274,3.2,0.6542963335911433,0.0,0.5,0.5,"Maintenance, Atmosphere","vibrant (9), modern (9)",5
Croydon,Bethlem Royal Hospital,Hospital,51.3819697,-0.031766,3.0,0.6295233388741811,0.06666666666666667,0.5333333333333333,0.4,"General, Cleanliness, Atmosphere, Traffic","tidy (9), noisy (9), great (9), fantastic (9), busy (9), good (6), messy (3), clean (3), lovely (3)",81
Croydon,53 Aesthetics,Hospital,51.3342647,-0.0768068,4.8,0.7526216785113017,0.0,0.0,1.0,"Maintenance, Atmosphere, Aesthetics, General","amazing (27), fantastic (27), messy (14), beautiful (12), good (9), old (9), calm (9), lovely (9), great (9), safe (6), tidy (3)",149
Croydon,Keston and Moorings Medical Practice,Hospital,51.34031709999999,-0.1146259,4.1,0.7511362334092458,0.0,0.2,0.8,"Maintenance, Aesthetics, Accessibility, General","far (18), safe (12), amazing (9), messy (9), excellent (9), tidy (6)",453
Croydon,Bramley Health,Hospital,51.4095169,-0.0507996,3.7,0.6516009022792181,0.0,0.5,0.5,General,"good (9), awful (6), terrible (3), safe (3)",9
Croydon,Sutton Medical Centre,Hospital,51.36332660000001,-0.1759028,3.1,0.6721442699432373,0.0,0.4,0.6,"Accessibility, Safety, Comfort, Atmosphere, Aesthetics, General","amazing (9), welcoming (9), fantastic (9), convenient (9), easy (9), good (9), walking (3), calm (3), noisy (3), safe (3)",52
Croydon,Purley War Memorial Hospital,Hospital,51.3405715,-0.114556,4.1,0.7419176697731018,0.2,0.0,0.8,"Noise, Comfort, Cleanliness, Atmosphere, Traffic, Aesthetics, General","messy (15), walking (12), great (9), pleasant (9), empty (9), loud (9), amazing (9), lovely (9), good (9), clean (9), noisy (6), roomy (6), tidy (6)",175
Croydon,The Farley Road Medical Practice,Hospital,51.3454168,-0.0658522,4.3,0.793518845240275,0.0,0.2,0.8,"Accessibility, Comfort, Maintenance, Aesthetics, General","welcoming (18), wonderful (9), far (9), great (9), pleasant (9), fantastic (9), lovely (9), safe (6), tidy (6), amazing (6), messy (3)",48
Croydon,Bethlem Museum of the Mind,Museum,51.3809225,-0.0293196,4.7,0.7162785649299621,0.0,0.4,0.6,"Accessibility, Cleanliness, Atmosphere, Maintenance, Aesthetics, General","safe (15), accessible (9), good (9), maintained (9), wonderful (9), near (9), stunning (9), busy (6), easy (3), roomy (3), cars (3), parking (3), lively (3), great (3)",311
Croydon,Honeywood Museum,Museum,51.3651858,-0.1649999,4.6,0.6103355526924134,0.0,0.6,0.4,"Comfort, Atmosphere, Maintenance, Traffic, Aesthetics, General","pleasant (9), parking (9), driving (9), good (9), wonderful (9), charming (9), modern (9), cozy (6), serene (6), cars (3), safe (3), walking (3), roomy (3), calm (3)",297
Croydon,Crystal Palace Dinosaurs,Tourist Attraction,51.4176236,-0.0673234,4.5,0.66952410141627,0.0,0.4666666666666667,0.5333333333333333,"Safety, Noise, Atmosphere, Maintenance, Aesthetics, General","safe (27), modern (18), amazing (15), parking (9), peaceful (9), perfect (9), wonderful (9), old (9), tidy (6), charming (6), beautiful (3), lovely (3), walking (3), good (3)",1056
Croydon,Megaloceros (Irish Elks),Museum,51.41844429999999,-0.06559209999999999,5.0,0.41172851622104645,0.5,0.5,0.0,,,3
Croydon,Little Holland House,Museum,51.3552829,-0.1706109,4.8,0.6541799426078796,0.0,0.4666666666666667,0.5333333333333333,"Cleanliness, Atmosphere, Maintenance, Aesthetics, Traffic, General","beautiful (24), maintained (18), safe (12), great (9), busy (9), wonderful (3)",32
Croydon,Joe’s Shed Village,Museum,51.3740108,-0.0174003,4.5,0.5398124893506367,0.2,0.6,0.2,,"tidy (9), safe (9), disappointing (6), wonderful (3), dark (3), dead (3)",6
Croydon,Wandle Industrial Museum,Museum,51.40227899999999,-0.168051,4.5,0.5713105936845143,0.0,0.6,0.4,"Maintenance, General","great (9), old (9), safe (6), shouting (3), messy (3), parking (3)",51
Croydon,Rare Interior Art,Art Gallery,51.4098169,-0.0455165,4.6,0.7025834719340006,0.0,0.0,1.0,"Maintenance, Aesthetics, General","great (27), beautiful (18), lovely (9), messy (9), good (9), safe (9), tidy (6), cars (3), lively (3), noisy (3), old (3)",21
Croydon,Corner Gallery,Art Gallery,51.35745379999999,-0.1689201,4.8,0.7868261575698853,0.0,0.0,1.0,"Maintenance, Comfort, Aesthetics, General","great (27), beautiful (18), fantastic (9), new (9), excellent (9), amazing (9), good (9), welcoming (9), wonderful (9), updated (7), stunning (6), safe (3), lovely (3)",21
Croydon,Vellum Mill Gallery,Art Gallery,51.3706589,-0.1597542,4.8,0.5049531136949857,0.25,0.5833333333333334,0.16666666666666666,"Aesthetics, Comfort, Atmosphere, Accessibility","lovely (36), spacious (9), inviting (9), near (9), appealing (7), safe (3), attractive (3)",5
Croydon,Bethlem Gallery,Art Gallery,51.38084199999999,-0.02937449999999999,4.9,0.5454663048187892,0.26666666666666666,0.3333333333333333,0.4,"Maintenance, Comfort, Accessibility","welcoming (9), old (9), enjoyable (9), messy (3), dark (3), dead (3), walking (3), safe (3), tidy (3), modern (3), near (3), parking (3), busy (3)",9
Croydon,in a space,Art Gallery,51.419307,-0.0829989,3.7,0.6617460926373799,0.0,0.4,0.6,"Maintenance, Comfort, Aesthetics, General","amazing (27), new (27), wonderful (27), safe (24), welcoming (18), great (9), comfortable (9), lovely (9), tidy (6), messy (6), noisy (3), good (3)",21
Croydon,Horniman Museum and Gardens,Museum,51.4410762,-0.06129250000000001,4.6,0.7067043821016947,0.0,0.2,0.8,"Accessibility, Noise, Comfort, Atmosphere, Maintenance, Traffic, Aesthetics, General","beautiful (27), lovely (18), walking (12), music (9), safe (9), good (9), pleasant (9), far (9), busy (9), great (9), parking (6), roomy (3), flow (3), cars (3), old (3), relaxing (3), tidy (3)",9016
Croydon,National Trust - Morden Hall Park,Park,51.4027293,-0.1859361,4.6,0.6905693689982096,0.0,0.4,0.6,"Accessibility, Noise, Atmosphere, Traffic, Aesthetics, General","good (48), lovely (39), parking (33), perfect (27), peaceful (21), beautiful (18), great (18), amazing (18), charming (18), walking (15), tidy (9), far (9), wonderful (9), fantastic (9), excellent (9), relaxing (6), flow (6), quiet (6), cars (3), safe (3)",5847
Croydon,Upper Norwood Recreation Ground,Park,51.4180468,-0.09323890000000001,4.2,0.5088201562563578,0.0,0.8666666666666667,0.13333333333333333,"Maintenance, Cleanliness, Traffic, General","walking (25), great (9), parking (9), neglected (9), new (9), updated (9), wonderful (6), safe (3), good (3), messy (3), noisy (3), fantastic (3)",252
Croydon,Fox Hill Playing Field,Park,51.41517599999999,-0.07861699999999999,4.4,0.4793810466925303,0.4,0.4,0.2,"Cleanliness, General","safe (12), noisy (9), muddy (9), great (9), parking (3)",24
Croydon,Sallows Fencing & Decking,Park,51.401712,-0.049626,3.6,0.762155697743098,0.0,0.4,0.6,"Traffic, Atmosphere, General","good (9), great (9), busy (9), tidy (6), roomy (3), safe (3), lively (3), noisy (3)",14
Croydon,Morden Road,Transit Station,51.4088386,-0.1929738,3.9,0.5552797615528107,0.26666666666666666,0.2,0.5333333333333333,"Accessibility, General","convenient (9), good (9), safe (9), walking (6), poor (6), busy (3)",21
Croydon,Sutton,Transit Station,51.3597332,-0.1908287,3.9,0.6268080651760102,0.0,0.26666666666666666,0.7333333333333333,"Accessibility, Cleanliness, Maintenance, Aesthetics, General","good (33), lovely (30), clean (27), pretty (27), tidy (15), neat (9), maintained (9), new (9), central (9), easy (9), safe (6), busy (6), dark (3), dead (3)",139
Croydon,Wallington Station,Transit Station,51.3609913,-0.1505745,5.0,0.6770596504211426,0.0,0.6666666666666666,0.3333333333333333,"Maintenance, General","good (27), excellent (9), great (9)",5
Croydon,Colliers Wood,Subway Station,51.41817029999999,-0.1778597,4.2,0.5915619333585104,0.06666666666666667,0.7333333333333333,0.2,"Maintenance, Cleanliness, Aesthetics, General","old (9), new (9), good (9), lovely (9), lively (3), noisy (3), safe (3), ugly (3), parking (3), dark (3), dead (3)",89
Croydon,Morden,Subway Station,51.4022497,-0.1947067,3.9,0.597408139705658,0.0,0.4666666666666667,0.5333333333333333,"Accessibility, Comfort, Cleanliness, Maintenance, General","old (18), good (18), tidy (12), wonderful (9), clean (9), rubbish (9), improved (9), disappointing (9), great (9), comfortable (9), safe (6), convenient (3)",175
Croydon,South Wimbledon,Subway Station,51.41533549999999,-0.1921526,4.1,0.5027708450953166,0.2,0.5333333333333333,0.26666666666666666,"Accessibility, Cleanliness, Atmosphere, Maintenance, Traffic","updated (18), safe (15), busy (12), clean (9), easy (9), central (9), connected (7), noisy (3), tidy (3)",80
Croydon,Tooting Bec,Subway Station,51.43552149999999,-0.1595141,4.2,0.49715156356493634,0.26666666666666666,0.5333333333333333,0.2,"Accessibility, Cleanliness, Atmosphere, Maintenance, Traffic, Aesthetics, General","busy (18), good (9), safe (9), beautiful (9), old (9), clean (9), lovely (9), noisy (6), tidy (3), roomy (3), difficult (3)",74
Croydon,Tooting Broadway,Subway Station,51.4276438,-0.167955,4.3,0.5563936650753021,0.13333333333333333,0.26666666666666666,0.6,"Traffic, Atmosphere, General","good (27), busy (21), safe (15), amazing (9), great (9), lively (6), tidy (3), noisy (3), messy (3), honking (3)",202
Croydon,Tandem Centre,Shopping Mall,51.4138525,-0.1777389,4.2,0.6968870242436727,0.0,0.06666666666666667,0.9333333333333333,"Accessibility, Cleanliness, Maintenance, Traffic, General","parking (24), near (18), safe (12), neat (9), new (9), great (9), good (6), cars (3), walking (3), busy (3), relaxing (3)",3738
Croydon,Times Square Shopping Centre,Shopping Mall,51.3637531,-0.1920222,3.8,0.6179098467032115,0.0,0.4,0.6,"Aesthetics, Maintenance, Atmosphere, General","great (45), good (15), new (9), attractive (9), excellent (9), messy (3), maintained (2)",2141
Croydon,Sutton Town Centre,Shopping Mall,51.3647005,-0.1938194,4.6,0.5327312032381694,0.0,0.7333333333333333,0.26666666666666666,"Traffic, General","walking (9), great (9), good (9), parking (3), busy (3)",14
Croydon,Gateway Business Park,Shopping Mall,51.3193882,-0.1363689,5.0,0.5283222248156866,0.0,1.0,0.0,"Traffic, Accessibility","easy (18), parking (6), bad (3), busy (3), near (3)",2
Croydon,Priory Retail Park,Shopping Mall,51.41620649999999,-0.1793915,4.2,0.5976351916790008,0.06666666666666667,0.3333333333333333,0.6,"Comfort, Traffic, Atmosphere, General","great (18), parking (18), safe (9), uncomfortable (9), good (9), busy (9)",1495
Croydon,Ravensbury Park,Park,51.3972263,-0.1791746,4.6,0.689972992738088,0.0,0.2,0.8,"Noise, Cleanliness, Atmosphere, Aesthetics, Traffic, General","beautiful (27), great (18), parking (15), serene (9), flow (9), good (9), quiet (9), empty (9), excellent (9), safe (6), calm (6), clean (6), relaxing (5), lovely (3), walking (3), noisy (3)",533
Croydon,Sydenham Hill Wood,Natural Feature,51.4368455,-0.0665743,4.5,0.6004881421724956,0.0,0.4666666666666667,0.5333333333333333,"Accessibility, Comfort, Cleanliness, Maintenance, Aesthetics, General","great (27), pleasant (18), lovely (18), old (18), far (18), walking (9), muddy (9), good (3), parking (3), near (3), easy (1)",32
Croydon,Dacres Wood Pond,Natural Feature,51.4319721,-0.0517884,4.5,0.0,0.0,0.0,0.0,,,2
Croydon,The Pickle,Natural Feature,51.4134116,-0.1804673,4.5,0.41066856185595196,0.3333333333333333,0.6666666666666666,0.0,,good (3),2
Croydon,Boating Lake,Natural Feature,51.4449589,-0.08023480000000001,3.7,0.5631963610649109,0.0,0.5,0.5,"Comfort, Cleanliness, Atmosphere","pleasant (27), relaxing (9), dirty (9), good (3), parking (3), walking (3)",3
Croydon,Kings Wood,Natural Feature,51.3273423,-0.05975130000000001,4.7,0.6749029407898585,0.13333333333333333,0.2,0.6666666666666666,"Noise, Atmosphere, Maintenance, Aesthetics, General","beautiful (24), safe (15), great (12), lovely (9), good (9), new (9), calm (9), quiet (9), stunning (9), walking (6), muddy (3), tidy (3)",41
Croydon,Selsdon Wood Nt,Natural Feature,51.3404549,-0.0422752,4.3,0.4829428245623906,0.0,1.0,0.0,Traffic,"walking (12), parking (3)",4
Croydon,West Norwood Cemetery and Crematorium,Cemetery,51.4328499,-0.09894420000000001,4.3,0.6078778862953186,0.0,0.6,0.4,"Accessibility, Safety, Comfort, Cleanliness, Atmosphere, Maintenance, Aesthetics, Traffic, General","beautiful (24), safe (9), easy (9), serene (9), pleasant (9), maintained (9), great (9), walking (9), driving (9), new (9), lovely (9), good (6), charming (3), vehicle (3)",96
Croydon,Sutton Cemetery,Cemetery,51.3784596,-0.2047316,4.1,0.628540430466334,0.0,0.6,0.4,"Noise, Atmosphere, Aesthetics, General","beautiful (27), quiet (9), fantastic (9), good (3), safe (3), lovely (3)",12
Croydon,Church Road Cemetery,Cemetery,51.40363050000001,-0.174277,5.0,0.38455573717753094,1.0,0.0,0.0,"Accessibility, Safety, Cleanliness, Atmosphere, Maintenance, General","old (9), maintained (9), safe (9), awful (9), near (3), bad (3), busy (3), dead (3)",1
Croydon,London Road Cemetery,Cemetery,51.4154381,-0.1644026,4.5,0.531148902575175,0.26666666666666666,0.4666666666666667,0.26666666666666666,"Accessibility, Noise, Cleanliness, Atmosphere, Traffic, General","quiet (18), pedestrian (9), clean (9), calm (9), good (9), near (6), safe (3), peaceful (3), walking (3)",21
Croydon,Old Church,Church,51.4392651,-0.1481993,5.0,0.49570321043332416,0.0,1.0,0.0,"Maintenance, General","old (18), great (9)",3
Croydon,St Edmund's Church,Church,51.4060035,-0.0298751,4.7,0.5617189248402913,0.0,0.8,0.2,"Noise, Comfort, Atmosphere, Aesthetics, General","lovely (33), beautiful (12), safe (9), active (9), peaceful (9), welcoming (9), good (9), amazing (9), messy (6), old (3), tidy (3), dark (3), dead (3)",81
Croydon,"Citygate Church, Beckenham",Church,51.40758010000001,-0.0322359,4.7,0.7567547996838887,0.0,0.4,0.6,"Comfort, Accessibility, General","great (45), fantastic (18), perfect (16), safe (12), far (9), welcoming (9), amazing (9), tidy (6), lovely (3), good (3), peaceful (3), lively (3), noisy (3)",79
Croydon,St. Mary & St. Shenouda Coptic Orthodox Church,Church,51.3173702,-0.1516847,4.8,0.8988486051559448,0.0,0.0,1.0,"Maintenance, Comfort, Aesthetics, General","beautiful (21), welcoming (18), wonderful (15), safe (9), old (9), lovely (9), perfect (9), peaceful (3), fantastic (3)",33
Croydon,"St Teresa of the Child Jesus, Morden",Church,51.3894444,-0.1808333,4.7,0.711650154987971,0.0,0.06666666666666667,0.9333333333333333,"Noise, Comfort, Aesthetics, General","great (27), lovely (15), silent (9), welcoming (9), amazing (9), good (9), beautiful (6), peaceful (3), messy (2)",125
Croydon,"St Columba's RC Church, South Croydon",Church,51.3459143,-0.06483150000000001,4.6,0.5782353560129802,0.2,0.2,0.6,"Noise, Comfort, Atmosphere, Maintenance, Traffic, Aesthetics","lovely (18), welcoming (9), messy (9), driving (9), new (9), pretty (9), active (3), noisy (3), wonderful (3), safe (3), peaceful (3)",35
Croydon,Ruach City Church - Streatham Hill,Church,51.4404476,-0.1258809,4.7,0.7797346790631612,0.0,0.2,0.8,"Accessibility, General","disappointing (18), far (9), noisy (9), good (9), amazing (9), accessible (9), tidy (6), maintained (6), safe (3), lively (3), lovely (3)",115
Croydon,"Elmers End, Free Church URC",Church,51.3975577,-0.0471526,4.6,0.641131820778052,0.0,0.5,0.5,"Noise, Atmosphere, Aesthetics, General","lovely (12), excellent (9), peaceful (9)",7
Croydon,Wallington Baptist Church,Church,51.36394500000001,-0.1531207,4.9,0.6060282568136851,0.06666666666666667,0.5333333333333333,0.4,"Maintenance, Comfort, General","welcoming (12), fantastic (9), spacious (9), great (9)",15
Croydon,Sutton Hand Car Wash,Car Wash,51.3651046,-0.1864839,3.4,0.8270808140436808,0.0,0.2,0.8,"Maintenance, Cleanliness, General","cars (63), new (36), dirty (30), great (27), clean (23), tidy (18), spotless (15), fantastic (9), amazing (9), poor (3), noisy (3), muddy (3), safe (3)",224
Croydon,Gibson Road Multi-storey Car Park,Parking,51.3623521,-0.1970418,3.6,0.6636162877082825,0.0,0.6,0.4,"Comfort, Traffic, Accessibility, General","cars (51), parking (42), spacious (9), terrible (9), poor (9), safe (3), noisy (3), central (3)",87
Croydon,West Norwood Library,Movie Theater,51.4331689,-0.1029505,4.4,0.6123668432235718,0.2,0.2,0.6,"Noise, Comfort, Maintenance, General","great (36), worst (18), shouting (18), good (12), safe (9), wonderful (9), loud (9), awful (9), new (9), comfortable (9), ugly (3), messy (3), tidy (3), bikes (3)",240
Croydon,Tate Streatham Library,Library,51.4316603,-0.1289974,4.2,0.6413870751857758,0.0,0.4,0.6,"Comfort, Aesthetics, General","great (27), good (27), lovely (18), elegant (9), pleasant (9), messy (6), safe (3), busy (3)",87
Croydon,Tooting Library,Library,51.4265457,-0.1657008,4.4,0.7493329087893168,0.0,0.4,0.6,"Noise, Aesthetics, General","excellent (18), great (18), lovely (18), loud (9), messy (6), tidy (6), wonderful (6), roomy (3), busy (3), fantastic (3)",96
Croydon,Kingswood Library,Library,51.4304999,-0.0802968,4.2,0.609650045633316,0.0,0.75,0.25,"Noise, Comfort, Atmosphere, Maintenance, General","great (18), good (18), wonderful (9), amazing (9), quiet (9), new (9), pleasant (9), relaxing (7), old (2)",6
Croydon,Coulsdon Library,Library,51.3200509,-0.1386756,4.5,0.5373191714286805,0.26666666666666666,0.4,0.3333333333333333,"Comfort, Maintenance, Traffic, Aesthetics, General","lovely (21), safe (18), parking (18), good (18), old (9), inviting (9), great (9), modern (9), outdated (9), tidy (6), attractive (3), noisy (3)",30
Croydon,Sydenham Library,Library,51.42689119999999,-0.04057019999999999,4.6,0.7532001614570618,0.0,0.0,1.0,"Accessibility, Noise, Maintenance, Aesthetics, General","safe (21), lovely (21), great (18), noisy (12), easy (9), connected (9), good (9), fantastic (9), old (9), tidy (3), far (3), parking (3), messy (3)",36
Croydon,New Addington Library,Library,51.3401823,-0.0132369,3.6,0.637384436527888,0.2,0.2,0.6,"Accessibility, Safety, Maintenance, Aesthetics, General","good (24), tidy (12), messy (11), security (9), lovely (9), convenient (9), great (9), safe (3), poor (3)",16
Croydon,Morden Library Within Merton Civic Centre,Library,51.4015037,-0.1958714,4.5,0.6947645723819733,0.2,0.2,0.6,"Accessibility, Safety, Noise, Cleanliness, Atmosphere, Maintenance, General","good (21), quiet (18), wonderful (18), awful (15), safe (12), tidy (9), lighting (9), inaccessible (9), remote (9), unsafe (9), calm (9), rubbish (9), great (3), easy (3), messy (3)",78
Croydon,Cornerstone,School,51.4253399,-0.04691549999999999,3.0,0.8409427205721537,0.0,0.0,1.0,,noisy (3),2
Croydon,"City St George's, University of London (Tooting)",University,51.4269516,-0.1738811,4.5,0.518195629119873,0.4,0.4,0.2,"Cleanliness, Aesthetics, Accessibility, General","good (9), fantastic (9), clean (9), amazing (9), lovely (9), tidy (6), safe (3), messy (3), easy (3), shouting (3)",268
Croydon,"The Institute of Cancer Research, London",University,51.34409489999999,-0.1892491,4.4,0.6223887145519257,0.0,0.4,0.6,"Cleanliness, General","wonderful (9), clean (6), safe (3), great (3), horrible (3)",19
Croydon,Merton College,University,51.3936258,-0.2046868,3.4,0.6638359725475311,0.2,0.2,0.6,"Accessibility, Noise, Comfort, Maintenance, General","tidy (12), repaired (12), worst (9), inconvenient (9), good (9), music (9), fantastic (9), terrible (9), tight (9), safe (6), noisy (6), broken (3), messy (3)",156
Croydon,Oxford Prestige College,University,51.4305374,-0.08155109999999999,4.9,0.7408045252164205,0.0,0.2,0.8,"Accessibility, Safety, Comfort, Maintenance, Aesthetics, General","easy (27), lovely (27), great (18), messy (17), good (12), new (9), accessible (9), enjoyable (9), secure (9), amazing (9)",7
Croydon,St Helier Hospital,Hospital,51.3805311,-0.18442,3.1,0.6733237902323405,0.0,0.3333333333333333,0.6666666666666666,"Safety, Comfort, Maintenance, Traffic, Aesthetics, General","easy (18), noisy (18), safe (15), tidy (12), amazing (9), fantastic (9), beautiful (9), unsafe (9), lovely (9), comfortable (9), broken (9), pretty (9), flow (3), good (3), messy (3), roomy (3)",732
Croydon,St George's Hospital,Hospital,51.42656299999999,-0.1752284,3.7,0.6857633948326111,0.0,0.4,0.6,"Maintenance, Cleanliness, Aesthetics, General","good (21), tidy (18), messy (15), safe (12), amazing (9), worst (9), great (9), clean (9), easy (6), noisy (3)",1181
Croydon,Tooting medical center,Hospital,51.4202157,-0.1611604,3.4,0.7504957020282745,0.0,0.2,0.8,"Accessibility, Comfort, Cleanliness, Atmosphere, Maintenance, Aesthetics, General","comfortable (18), clean (9), modern (9), maintained (9), welcoming (9), relaxing (9), excellent (9), lovely (9), messy (6)",258
Croydon,Royal Marsden Hospital - Sutton,Hospital,51.34336099999999,-0.1905314,4.7,0.8134204705556234,0.0,0.2,0.8,"Maintenance, Cleanliness, General","good (18), messy (9), new (9), clean (9), amazing (9), safe (6), lively (2)",221
Croydon,Knights Hill Surgery,Hospital,51.432525,-0.106057,4.3,0.6296966075897217,0.06666666666666667,0.5333333333333333,0.4,"Maintenance, General","safe (12), easy (9), new (9), good (9), noisy (6), messy (6), tidy (6)",283
Croydon,Tooting South Medical Centre,Hospital,51.4220882,-0.1616424,2.9,0.5776834050814311,0.2,0.2,0.6,"Accessibility, Comfort, Maintenance, Aesthetics, Traffic, General","safe (21), improved (12), messy (12), good (12), central (9), wonderful (9), welcoming (9), great (9), tidy (6)",270
Croydon,Merton Medical Practice,Hospital,51.4160135,-0.1847003,2.8,0.6045414984226227,0.2,0.4666666666666667,0.3333333333333333,"Maintenance, Aesthetics, Accessibility, General","old (9), wonderful (9), messy (6), tidy (6), improved (6), near (3)",176
Croydon,British Vintage Wireless and Television Museum,Museum,51.4334618,-0.09298709999999999,4.8,0.6381928543249766,0.06666666666666667,0.5333333333333333,0.4,"Maintenance, Aesthetics, Accessibility, General","old (18), lovely (12), gorgeous (9), good (9), great (9), safe (6), perfect (3), beautiful (3), near (3), lively (3), tidy (3)",19
Croydon,Merton Priory Chapter House,Museum,51.4140701,-0.1815798,4.7,0.5782951474189758,0.06666666666666667,0.6,0.3333333333333333,"Maintenance, Traffic, Safety, General","excellent (9), parking (9), safe (9), secure (9), old (9), fantastic (6), tidy (3)",21
Croydon,"St. Margaret's Badminton Club, Tooting",Museum,51.4375305,-0.1583116,4.3,0.8028372393714057,0.0,0.0,1.0,"Aesthetics, General","great (9), wonderful (9), lovely (9), excellent (9)",6
Croydon,Gregs Brom Art,Art Gallery,51.3826818,0.0099936,4.0,0.5530737638473511,0.0,1.0,0.0,Aesthetics,"lovely (18), busy (3)",1
Croydon,Frederick Charles Art - Fine Art Dealer,Art Gallery,51.3765789,0.0115339,1.5,0.8622477730115254,0.0,0.0,1.0,"Maintenance, Accessibility, General","terrible (9), tidy (9), safe (9), good (9), noisy (3), messy (3), convenient (3)",13
Croydon,MAGAN Gallery London,Art Gallery,51.43605600000001,-0.1601565,3.7,0.8760100934240553,0.0,0.0,1.0,"Safety, Comfort, Atmosphere, Maintenance, Aesthetics, Traffic, General","wonderful (18), noisy (18), fantastic (9), safe (9), vibrant (9), lively (9), inviting (9), terrible (9), beautiful (3), flow (3), lovely (3), tidy (3)",6
Croydon,Gallery Midnight,Art Gallery,51.4381855,-0.1555049,4.9,0.8277566035588583,0.0,0.0,1.0,"Comfort, Atmosphere, Maintenance, Aesthetics, Traffic, General","lovely (15), vibrant (9), busy (9), great (9), beautiful (9), welcoming (9), lighting (3), calm (3), safe (3), tidy (3)",8
Croydon,South Norwood Recreation Ground,Park,51.3953384,-0.07803890000000001,4.0,0.49237122933069866,0.0,1.0,0.0,"Accessibility, Safety, Comfort, Cleanliness, Maintenance, Aesthetics, Traffic, General","good (21), parking (12), old (9), lovely (9), walking (9), neat (9), lighting (9), safe (9), new (9), great (9), rubbish (9), cozy (6), risky (3), near (3), messy (3), tidy (3)",528
Croydon,Northbrook Road Playground,Park,51.3935942,-0.09463919999999999,3.0,0.45043838024139404,0.0,1.0,0.0,,"tidy (3), noisy (3)",2
Croydon,Whitehorse Community Garden,Park,51.3889927,-0.09584119999999999,3.0,0.4101242224375407,0.3333333333333333,0.6666666666666666,0.0,"Traffic, Aesthetics, General","lovely (9), terrible (9)",1
Croydon,Thornton Heath Recreation Ground,Park,51.40159619999999,-0.1069526,4.2,0.5901945054531097,0.13333333333333333,0.4666666666666667,0.4,"Safety, Comfort, Cleanliness, Maintenance, Aesthetics, General","clean (15), secure (9), pleasant (9), inviting (9), good (9), broken (9), lovely (9), safe (3), great (3), parking (3)",155
Croydon,Rising Star Day Care,Park,51.40496030000001,-0.09751039999999998,5.0,0.7864658137162527,0.0,0.0,1.0,"Maintenance, General, Cleanliness, Safety","fantastic (9), old (9), great (9), dirty (9), safe (9), new (9), clean (9), messy (3), good (3), parking (3)",5
Croydon,Grangewood Park,Park,51.40334739999999,-0.08985069999999999,4.4,0.7317647794882457,0.0,0.26666666666666666,0.7333333333333333,"Accessibility, Comfort, Cleanliness, Maintenance, Aesthetics, Traffic, General","parking (33), lovely (24), beautiful (18), amazing (18), good (12), great (9), pleasant (9), clean (9), new (9), flow (9), perfect (9), gorgeous (9), walking (6), ugly (3), safe (3), near (3)",996
Croydon,Wilford Road Recreation Ground,Park,51.38675399999999,-0.09949219999999999,3.1,0.5892966747283935,0.0,0.7333333333333333,0.26666666666666666,"Noise, Comfort, Cleanliness, Maintenance, General","great (18), safe (12), good (12), rubbish (9), unpleasant (9), dirty (9), broken (9), shouting (9), parking (6), noisy (3), tidy (3), messy (3), dark (3), dead (3), cars (3), calm (3), cozy (3), bad (3), poor (3)",17
Croydon,Warwick Gardens,Park,51.4002706,-0.1172374,3.7,0.6494058966636658,0.0,0.0,1.0,,lovely (2),3
Croydon,Crystal Palace Football Club,Stadium,51.39822689999999,-0.08520449999999999,4.3,0.566632890701294,0.0,0.8666666666666667,0.13333333333333333,"Safety, Accessibility, General","great (27), safe (18), poor (18), easy (9), worst (9), fantastic (9), far (6), parking (3), noisy (3), lovely (1)",4373
Croydon,Fox Limousines,Point Of Interest,51.3937025,-0.08791249999999999,4.7,0.8745691776275635,0.0,0.13333333333333333,0.8666666666666667,"Maintenance, Accessibility, General","updated (18), amazing (18), great (9), difficult (9), good (9), excellent (9), tidy (6), cars (3), safe (3)",159
Croydon,JH Glazing,General Contractor,51.3948139,-0.09336830000000002,5.0,0.608824594815572,0.4,0.0,0.6,"Maintenance, Cleanliness, General","good (27), repaired (21), damaged (18), great (9), safe (9), old (9), new (9), perfect (9), excellent (9), spotless (9), messy (6), tidy (6), noisy (6), bad (3), roomy (3)",10
Croydon,Flemmings,Accounting,51.38600669999999,-0.1155766,3.0,0.0,0.0,0.0,0.0,,,4
Croydon,Thornton Heath Station,Transit Station,51.3985543,-0.09968589999999998,2.3,0.47144208947817484,0.6,0.2,0.2,"Noise, Aesthetics, Accessibility, Safety","music (27), loud (18), central (9), police (9), lovely (9), convenient (3), safe (3), noisy (3)",15
Croydon,Selhurst Station,Transit Station,51.39205679999999,-0.08878839999999999,2.7,0.6634955724080404,0.2,0.13333333333333333,0.6666666666666666,"Cleanliness, General","great (9), amazing (9), dirty (9), bad (3), noisy (3), safe (3)",10
Croydon,Thornton Heath Station (Stop C),Bus Station,51.398457,-0.09943099999999998,4.0,0.3639433681964874,1.0,0.0,0.0,,,2
Croydon,Thornton Heath Station (Stop D),Bus Station,51.3986792,-0.0991571,3.0,0.2998606264591217,1.0,0.0,0.0,"Traffic, Atmosphere","busy (9), noisy (3)",1
Croydon,Norwood Junction Station (Stop E),Bus Station,51.398632,-0.075085,3.3,0.6684543987115225,0.0,0.5,0.5,General,"bad (9), poor (9), busy (3)",6
Croydon,Norwood Junction Station (Stop S),Bus Station,51.397396,-0.07417399999999998,3.5,0.3786187171936035,0.6666666666666666,0.3333333333333333,0.0,,busy (3),2
Croydon,Norwood Junction Station (Stop T),Bus Station,51.39761,-0.074007,2.5,0.0,0.0,0.0,0.0,,,2
Croydon,Peall Road (Stop Y),Bus Station,51.38875830000001,-0.1210798,2.0,0.3973843952020009,0.3333333333333333,0.6666666666666666,0.0,,busy (3),1
Croydon,Drake Road (Stop J),Bus Station,51.3850308,-0.1201034,5.0,0.0,0.0,0.0,0.0,,,1
Croydon,Norbury Hall Park,Park,51.4078574,-0.1195447,4.2,0.6700964371363322,0.0,0.6,0.4,"Accessibility, Cleanliness, Atmosphere, Maintenance, Traffic, Aesthetics, General","parking (21), good (18), busy (9), isolated (9), tidy (9), lovely (9), old (9), broken (9), rubbish (9), safe (6), walking (6), flow (6), messy (6), relaxing (3)",186
Croydon,"CPMI Church, The House of Prayer (THoP)",Church,51.40384969999999,-0.1013553,4.5,0.5959550261497497,0.0,0.7333333333333333,0.26666666666666666,"Noise, Comfort, Aesthetics, General","good (21), music (18), lovely (9), beautiful (9), welcoming (3)",11
Croydon,Pawsons Road Baptist Church,Church,51.3940993,-0.0940546,4.5,0.5985359648863474,0.0,0.8,0.2,General,"good (18), safe (3)",10
Croydon,Winners Chapel International Croydon,Church,51.39195749999999,-0.09432799999999998,4.8,0.6366133868694306,0.13333333333333333,0.26666666666666666,0.6,General,"great (18), good (18), wonderful (9), lovely (6), peaceful (3), tidy (3), safe (3)",27
Croydon,Life Grace Ministries International,Church,51.402579,-0.1002354,4.0,0.49227986070844865,0.3333333333333333,0.3333333333333333,0.3333333333333333,Cleanliness,"spotless (9), tidy (3), clean (3)",7
Croydon,Selhurst Evangelical Church,Church,51.39433830000001,-0.08755259999999998,4.4,0.7520804246266682,0.0,0.2,0.8,General,"excellent (9), good (9), lovely (6), safe (3)",19
Croydon,"Croydon University Hospital, St Barnabas Worship Centre",Church,51.3902959,-0.1092616,4.0,0.5474598487218221,0.2,0.4,0.4,"Noise, Cleanliness, Atmosphere, Aesthetics, Traffic","calm (18), parking (15), clean (9), tidy (9), lovely (9), quiet (9), busy (9), noisy (9), stunning (6)",28
Croydon,Prophetic Resurrection Ministry - Croydon,Church,51.38601309999999,-0.09895799999999998,4.5,0.6890308837095896,0.0,0.26666666666666666,0.7333333333333333,,"safe (12), peaceful (3), messy (3), good (3)",33
Croydon,Garnet Road Car Park,Parking,51.3979124,-0.0976456,4.3,0.0,0.0,0.0,0.0,,,3
Croydon,Sainsbury's Crystal Palace,Parking,51.39822710000001,-0.08774440000000001,3.6,0.6453977545102437,0.26666666666666666,0.26666666666666666,0.4666666666666667,"Noise, Comfort, Atmosphere, Maintenance, Traffic, General","busy (18), walking (18), safe (15), good (9), unpleasant (9), shouting (9), great (9), improved (9), tidy (6), fantastic (6), messy (3)",21
Croydon,Selhurst Park Stadium,Parking,51.3982037,-0.0877283,4.5,0.5115764379501343,0.2,0.4,0.4,"General, Maintenance, Accessibility, Safety","police (9), far (9), great (6), parking (3)",15
Croydon,Croydon Hospital Patient & Visitor Car Park,Parking,51.38990459999999,-0.1115031,5.0,0.5449927449226379,0.0,1.0,0.0,,good (3),1
Croydon,Norwood Junction Station Car Park,Parking,51.3973387,-0.0752169,3.0,0.5008224149545034,0.0,1.0,0.0,"General, Cleanliness, Accessibility, Safety","good (12), clean (9), safe (9), far (9)",2
Croydon,Clifford Road Car Park,Parking,51.39775359999999,-0.07375889999999999,4.3,0.5485709309577942,0.0,1.0,0.0,General,good (9),3
Croydon,Croydon Cemetery Car Park,Parking,51.3941479,-0.123973,4.2,0.5429299414157868,0.0,0.8,0.2,"Noise, Cleanliness, Atmosphere, Maintenance, Aesthetics, Traffic","parking (18), lovely (15), calm (9), peaceful (9), maintained (6), safe (3)",9
Croydon,Singing Lessons,School,51.4013414,-0.09515309999999999,4.9,0.6800621747970581,0.0,0.2,0.8,"Accessibility, Noise, Comfort, Aesthetics, General","messy (12), good (9), welcoming (9), lovely (9), enjoyable (9), near (3), improved (2)",9
Croydon,Kumon Maths & English,School,51.40398089999999,-0.09595279999999998,5.0,0.8124165256818136,0.0,0.0,1.0,"Maintenance, Comfort, Aesthetics, General","amazing (18), safe (12), old (9), lovely (9), welcoming (9), tidy (3), great (3), good (3), improved (3)",74
Croydon,Allens Montessori Day Nursery,School,51.4023648,-0.1017431,5.0,0.8135886391003927,0.0,0.0,1.0,"Comfort, Aesthetics, General","lovely (18), excellent (9), welcoming (9), good (9), safe (3)",2
Croydon,King Fishers Day Nurseries,School,51.3962423,-0.1061296,4.7,0.83961021900177,0.0,0.13333333333333333,0.8666666666666667,"Maintenance, Comfort, Aesthetics","lovely (18), welcoming (18), safe (9), new (9), inviting (9), good (6), messy (3), roomy (3), noisy (3)",43
Croydon,Drum Lessons,School,51.4013414,-0.09515309999999999,5.0,0.9214750329653422,0.0,0.0,1.0,"Maintenance, General","great (9), good (9), lovely (3), tidy (3), safe (3)",1
Croydon,Ivy League Nursery,School,51.3979776,-0.0779852,4.6,0.7989911675453186,0.0,0.06666666666666667,0.9333333333333333,"Accessibility, Safety, Comfort, Aesthetics, General","amazing (27), great (27), safe (27), lovely (25), far (18), good (18), wonderful (9), spacious (9), tidy (6), roomy (3), dark (3), dead (3), noisy (2)",10
Croydon,Lullaby's at Little Village,School,51.3874782,-0.0884757,4.0,0.6886295427878698,0.0,0.5,0.5,"Maintenance, Comfort, Aesthetics, General","excellent (36), safe (21), great (18), old (18), wonderful (18), lovely (15), tidy (12), comfortable (9), good (3)",4
Croydon,Little Ann Day Nursery,School,51.3979203,-0.0925585,4.7,0.8180469274520874,0.0,0.0,1.0,"Maintenance, Cleanliness, Aesthetics, General","old (18), clean (9), amazing (9), great (9), messy (6), tidy (3), safe (3), beautiful (3), lovely (3), noisy (3), good (3), ugly (3)",15
Croydon,Parchmore Pre-school,School,51.400757,-0.100217,5.0,0.0,0.0,0.0,0.0,,,1
