Borough,Location Name,Type,latitude,longitude,Rating,Overall Sentiment Score,Negative Score,Neutral Score,Positive Score,Main Issues,Emotion Keywords,Review Count
Enfield,Aldersbrook Avenue Recreation Ground,Park,51.65869679999999,-0.075011,4.5,0.6212732036908467,0.0,0.4,0.6,"Maintenance, Traffic, Safety, General","safe (18), good (9), modern (9), fantastic (9), excellent (9), walking (7), parking (6), noisy (6), messy (3), tidy (3), lovely (3)",201
Enfield,Kings Garden Design,Park,51.65428379999999,-0.1035756,5.0,0.5604382356007894,0.0,0.6666666666666666,0.3333333333333333,General,amazing (3),3
Enfield,AirHop Adventure & Trampoline Park Enfield,Park,51.6434614,-0.05902779999999998,4.4,0.7186658044656118,0.06666666666666667,0.13333333333333333,0.8,"Safety, Cleanliness, Atmosphere, Maintenance, General","perfect (18), clean (18), amazing (18), fantastic (15), good (9), active (9), great (9), maintained (9), safe (6), messy (3), shouting (3)",2692
Enfield,Bush Hill Park,Park,51.6482129,-0.0675675,4.3,0.7287688970565795,0.0,0.2,0.8,"Cleanliness, Atmosphere, Maintenance, Traffic, Aesthetics, General","good (36), maintained (21), amazing (18), great (18), parking (14), walking (12), relaxing (9), lovely (9), new (9), bikes (3), flow (3)",548
Enfield,Enfield Playing Fields Football Pitches and outdoor gym,Park,51.6532812,-0.06248169999999999,4.3,0.5888316551844279,0.0,0.6666666666666666,0.3333333333333333,"Comfort, Cleanliness, Atmosphere, Maintenance, Traffic, General","great (18), parking (18), fantastic (9), excellent (9), rubbish (9), tight (9), busy (9), crowded (9), good (9), walking (9), lovely (3), safe (3), old (3)",197
Enfield,Saddlers Square,Park,51.65233220000001,-0.08464179999999999,5.0,0.0,0.0,0.0,0.0,,,1
Enfield,Town Park,Park,51.6496331,-0.0857231,4.5,0.5495875597000122,0.2,0.4,0.4,"Accessibility, Safety, Cleanliness, Atmosphere, Maintenance, Aesthetics, Traffic, General","parking (26), safe (21), lovely (21), walking (21), good (18), great (18), active (9), scenic (9), perfect (9), convenient (9), fantastic (9), clean (9), beautiful (9), relaxing (6), old (3), tidy (3), updated (3)",725
Enfield,The Millennium Fountain,Park,51.6536899,-0.08789459999999999,4.6,0.6639869054158528,0.0,0.4,0.6,"Noise, Cleanliness, Atmosphere, Maintenance, Aesthetics, General","lovely (27), old (18), attractive (18), relaxing (12), safe (12), good (9), new (9), rubbish (9), clean (9), peaceful (9), walking (6), parking (5), tidy (3)",82
Enfield,The Livia Memorial Garden,Park,51.653547,-0.09047759999999999,5.0,0.4147594173749288,0.5,0.5,0.0,"Aesthetics, Noise, Atmosphere, Traffic","safe (12), walking (9), beautiful (9), peaceful (9), noisy (3), vehicle (3)",2
Enfield,Crawford Circle,Park,51.6550105,-0.07180939999999998,5.0,0.5382513668802049,0.2222222222222222,0.4444444444444444,0.3333333333333333,General,great (9),4
Enfield,Park Link,Park,51.648697,-0.0892016,5.0,0.0,0.0,0.0,0.0,,,1
Enfield,Enfield ay allotments,Park,51.6545879,-0.0689844,5.0,0.0,0.0,0.0,0.0,,,2
Enfield,"New river path, short scenic riverside walk",Park,51.6387328,-0.08733170000000001,4.2,0.5061906609270308,0.1111111111111111,0.8888888888888888,0.0,Aesthetics,"walking (6), lovely (6), safe (3)",9
Enfield,Cineworld - Enfield,Movie Theater,51.6501849,-0.06088419999999999,4.1,0.6483493427435557,0.0,0.4,0.6,"Accessibility, Noise, Comfort, Cleanliness, Atmosphere, Maintenance, Traffic, Aesthetics, General","great (27), comfortable (18), clean (18), parking (15), cars (12), busy (9), lovely (9), loud (9), easy (9), good (9), noisy (9), quiet (9), poor (6), tidy (3), safe (3), roomy (3), maintained (3)",5126
Enfield,Lloyds Bank,Bank,51.6524256,-0.08041240000000001,3.5,0.7495351254940033,0.0,0.2,0.8,"Maintenance, General","new (27), tidy (9), old (9), good (9), great (9), excellent (9), perfect (7), poor (3), messy (3)",103
Enfield,Ladbrokes,Point Of Interest,51.6468796,-0.0649092,5.0,0.8386607567469279,0.0,0.0,1.0,General,amazing (6),2
Enfield,William Hill,Point Of Interest,51.6418572,-0.06858620000000001,4.0,0.0,0.0,0.0,0.0,,,1
Enfield,Waterhouse Photography,Point Of Interest,51.6422929,-0.0964167,5.0,0.9287815531094868,0.0,0.0,1.0,"Accessibility, Comfort, Maintenance, Aesthetics, General","comfortable (27), gorgeous (9), wonderful (9), tidy (9), amazing (9), great (9), easy (9), stunning (6), beautiful (3), messy (3), safe (3), noisy (3)",19
Enfield,Supreme,General Contractor,51.66602,-0.08318679999999999,3.3,0.7842321435610453,0.2,0.0,0.8,"Noise, Cleanliness, Traffic, General","noisy (18), parking (9), spotless (9), terrible (9), dark (3), dead (3), shouting (2)",10
Enfield,Ladybird hair and beauty,Hair Care,51.642409,-0.067688,4.5,0.9023388663927714,0.0,0.0,1.0,"Accessibility, Maintenance, Aesthetics, Traffic, General","amazing (24), good (21), great (18), walking (9), excellent (9), old (9), lovely (9), far (9), fantastic (9), tidy (3), safe (3)",37
Enfield,Palace Gardens Shopping Centre,Shopping Mall,51.6511338,-0.0836375,4.1,0.6315770606199901,0.0,0.6,0.4,"Cleanliness, Safety, General","great (18), terrible (9), horrible (9), clean (9), security (9), messy (3)",2435
Enfield,Enfield Town Station,Transit Station,51.65208370000001,-0.07933299999999999,3.4,0.49285776217778526,0.13333333333333333,0.8,0.06666666666666667,"Maintenance, Cleanliness, Traffic, General","good (12), clean (9), parking (9), noisy (6), busy (3)",7
Enfield,Enfield Town,Transit Station,51.65210709999999,-0.0793673,3.6,0.5810294389724732,0.0,0.5333333333333333,0.4666666666666667,"Accessibility, Safety, Cleanliness, Traffic, Aesthetics, General","bad (18), safe (12), lovely (9), good (9), great (9), clean (9), tidy (9), messy (6), near (3), flow (3), lighting (3), noisy (3), far (3)",78
Enfield,Gordon Hill,Transit Station,51.663048,-0.09424529999999999,3.7,0.5992917080720266,0.0,0.4666666666666667,0.5333333333333333,"Noise, Cleanliness, Atmosphere, Traffic, General","great (18), tidy (18), good (15), clean (15), parking (12), walking (10), quiet (9), excellent (9), noisy (6), cars (3), safe (3), pretty (3), old (3)",30
Enfield,Enfield Civic Centre,Transit Station,51.6535606,-0.0806645,1.0,0.6671087344487509,0.0,0.0,1.0,,safe (3),1
Enfield,Enfield Police Station,Transit Station,51.65571200000001,-0.080374,3.6,0.4349839488665263,0.25,0.75,0.0,"General, Safety","crime (27), police (18), good (15), safe (12), great (9), messy (6), tidy (3)",10
Enfield,Enfield War Memorial,Transit Station,51.6540395,-0.08830199999999999,4.0,0.0,0.0,0.0,0.0,,,1
Enfield,Enfield Chase Station,Transit Station,51.6532271,-0.0899591,2.6,0.6615505754947663,0.2,0.13333333333333333,0.6666666666666666,"Maintenance, Aesthetics, Accessibility, General","old (18), new (18), busy (12), noisy (12), messy (12), tidy (9), far (9), excellent (9), lovely (9), fantastic (9), great (9), walking (3), safe (3), good (3)",16
Enfield,Private Road,Transit Station,51.64468949999999,-0.07496399999999999,1.0,0.0,0.0,0.0,0.0,,,1
Enfield,Enfield Town / Silver Street (Stop H),Bus Station,51.6528612,-0.080526,4.5,0.6797294418017069,0.0,0.0,1.0,General,"great (9), busy (3)",2
Enfield,Enfield Town Station (Stop N),Bus Station,51.6523341,-0.0783386,4.3,0.37678763270378113,1.0,0.0,0.0,,,6
Enfield,Enfield Town Station (Stop L),Bus Station,51.6524808,-0.0781857,5.0,0.46096829573313397,0.6666666666666666,0.0,0.3333333333333333,,,1
Enfield,Enfield Civic Centre (Stop G),Bus Station,51.6542809,-0.0807413,3.0,0.37285032868385315,1.0,0.0,0.0,,busy (1),3
Enfield,Bush Hill Park,Bus Station,51.641518,-0.06919499999999999,1.0,0.6552423040072123,0.0,0.0,1.0,,"busy (6), messy (3)",1
Enfield,Bush Hill Park Station,Bus Station,51.641399,-0.06854900000000001,5.0,0.0,0.0,0.0,0.0,,,1
Enfield,Grange Park Station (Stop A),Bus Station,51.64250200000001,-0.0979,1.0,0.0,0.0,0.0,0.0,,,1
Enfield,Baird Road (Stop H),Bus Station,51.6490583,-0.05788240000000001,4.0,0.0,0.0,0.0,0.0,,,1
Enfield,Palace Exchange Shopping Centre,Shopping Mall,51.65170369999999,-0.0820115,4.2,0.5866139610608418,0.0,0.6,0.4,"General, Cleanliness, Aesthetics, Traffic","safe (21), parking (12), clean (9), tidy (9), lovely (9), great (9), good (9), messy (6), cars (6), upgraded (3)",3327
Enfield,Enfield Town Station,Shopping Mall,51.65207220000001,-0.0793337,4.2,0.5283612847328186,0.26666666666666666,0.3333333333333333,0.4,"Cleanliness, Aesthetics, Accessibility, General","good (12), awful (9), near (9), great (9), pretty (9), disappointing (9), tidy (9), safe (9), clean (9), noisy (6), neat (3), new (3), connected (3)",1017
Enfield,Enfield Shopping Centre,Shopping Mall,51.6521396,-0.08488369999999999,4.3,0.4919464230537415,0.06666666666666667,0.9333333333333333,0.0,"Maintenance, Traffic, Accessibility, General","new (9), parking (9), perfect (5), ugly (3), far (3), bad (3), busy (3), lovely (3), safe (3), noisy (3)",140
Enfield,Colosseum Retail Park,Shopping Mall,51.6509199,-0.05898879999999999,4.2,0.5373576740423839,0.0,0.8,0.2,"Aesthetics, Cleanliness, Traffic, General","good (21), clean (9), noisy (6), lovely (3), tidy (3), safe (3)",646
Enfield,Enfield Museum,Museum,51.6505231,-0.0805643,3.5,0.49164239764213563,0.13333333333333333,0.8666666666666667,0.0,Comfort,"enjoyable (9), tidy (3), good (3)",22
Enfield,Jaywalks,Tourist Attraction,51.6535231,-0.0773452,5.0,0.603627602259318,0.0,0.6666666666666666,0.3333333333333333,,,1
Enfield,North Enfield recreation ground,Park,51.6668209,-0.07862659999999998,4.4,0.5117499073346455,0.06666666666666667,0.8,0.13333333333333333,"Noise, Cleanliness, Atmosphere, Maintenance, Aesthetics, Traffic, General","great (51), good (36), parking (15), walking (12), old (9), noisy (9), muddy (9), lovely (9), quiet (9), busy (9), tidy (6), poor (3), safe (3)",168
Enfield,Hilly Fields Park,Park,51.66906979999999,-0.08814749999999999,4.6,0.7244451264540355,0.0,0.4,0.6,"Accessibility, Noise, Atmosphere, Traffic, Aesthetics, General","great (42), walking (33), parking (18), near (15), safe (12), amazing (9), wonderful (9), perfect (9), music (9), busy (9), easy (9), beautiful (9), bad (9), noisy (6), lovely (6), quiet (3)",577
Enfield,Enfield Town Park Boating Lake,Natural Feature,51.64911069999999,-0.08529769999999999,4.5,0.5033374230066935,0.6666666666666666,0.0,0.3333333333333333,,parking (3),2
Enfield,Adath Yisroel Burial Ground (בית החיים ענפילד),Cemetery,51.6621233,-0.06724089999999999,4.9,0.41391064325968424,0.4666666666666667,0.5333333333333333,0.0,"Maintenance, Cleanliness, Atmosphere, General","clean (9), maintained (9), dead (9), good (9), safe (3), tidy (3)",13
Enfield,Lavender Hill Cemetery,Cemetery,51.66641809999999,-0.09376939999999999,4.8,0.605155082543691,0.0,0.6666666666666666,0.3333333333333333,"Noise, Cleanliness, Atmosphere, Maintenance, Traffic, General","clean (27), maintained (27), great (12), safe (12), walking (9), busy (6), quiet (6), messy (3)",23
Enfield,Enfield Baptist Church,Church,51.65087390000001,-0.08462680000000002,4.7,0.6736687541007995,0.0,0.4,0.6,"Comfort, Cleanliness, Traffic, General","parking (15), great (15), spacious (9), welcoming (9), cars (6), clean (6), safe (3), roomy (3), noisy (3), good (3), lovely (3), tidy (3)",60
Enfield,Kingdom Hall of Jehovah's Witnesses,Church,51.65975530000001,-0.0784859,5.0,0.5307656079530716,0.0,0.8333333333333334,0.16666666666666666,General,great (6),21
Enfield,The Church of Jesus Christ of Latter-day Saints,Church,51.655033,-0.097643,4.7,0.6235924204190572,0.2,0.2,0.6,"Maintenance, Noise, Atmosphere, General","good (18), peaceful (18), old (9), calm (9), great (9), safe (3), lovely (3)",14
Enfield,"St Mark's Church, Bush Hill Park",Church,51.6449142,-0.0664216,4.3,0.571369332075119,0.3333333333333333,0.26666666666666666,0.4,"Maintenance, Aesthetics, General","beautiful (9), good (9), new (9), safe (3), lovely (3)",20
Enfield,Holy Family Convent,Church,51.6496531,-0.079726,5.0,0.7150301287571589,0.0,0.5,0.5,General,wonderful (9),4
Enfield,Revival Christian Church of Enfield - a parish of the Redeemed Christian Church of God (RCCG).,Church,51.6495142,-0.0802624,4.9,0.6468003392219543,0.0,0.5333333333333333,0.4666666666666667,"Noise, Comfort, Atmosphere, General","welcoming (18), messy (9), amazing (9), peaceful (9), lovely (6), safe (6), great (3)",42
Enfield,St John of God Hospitaller Services,Church,51.6526289,-0.0732242,3.0,0.641240656375885,0.0,0.0,1.0,"Maintenance, General, Accessibility, Safety","tidy (12), messy (12), good (9), terrible (9), far (9), threatening (9), difficult (6)",2
Enfield,Lancaster Road UR Church,Church,51.6641643,-0.0821866,4.8,0.5938180949952867,0.1111111111111111,0.2222222222222222,0.6666666666666666,"Maintenance, Accessibility","easy (9), safe (3)",9
Enfield,Bush Hill Park Community Church,Church,51.643125,-0.06635959999999999,4.6,0.5900243699550629,0.06666666666666667,0.4666666666666667,0.4666666666666667,"Comfort, Aesthetics, General","great (18), lovely (7), welcoming (6)",10
Enfield,Beacon of Light Spiritualist Church Enfield,Church,51.66380729999999,-0.0668782,4.7,0.698002564907074,0.06666666666666667,0.3333333333333333,0.6,"Safety, Comfort, Atmosphere, Maintenance, Aesthetics, General","amazing (18), welcoming (15), good (12), tidy (12), beautiful (9), calm (9), messy (9), dangerous (9), bad (9), dead (9), worst (9), enjoyable (9), relaxing (9), lively (6), great (3), lovely (3), walking (3)",27
Enfield,Enfield Vineyard Church,Gym,51.6649433,-0.0873988,4.6,0.6422958850860596,0.13333333333333333,0.4666666666666667,0.4,"Accessibility, Safety, Noise, Comfort, Aesthetics, General","safe (21), amazing (18), lovely (12), uncomfortable (9), music (9), accessible (9), welcoming (9), convenient (9), wonderful (6), great (6), good (3), messy (3), fantastic (3)",48
Enfield,Polska Parafia św. Rodziny Enfield & Our Lady of Walsingham Enfield,Church,51.6617966,-0.09716810000000001,4.5,0.46928072969118756,0.4,0.4,0.2,"Noise, Atmosphere, Maintenance, Aesthetics, Traffic, General","parking (21), beautiful (9), peaceful (9), quiet (9), old (9), lovely (9), amazing (9), roomy (3), cars (3), lively (3)",62
Enfield,Suffolks Baptist Church,Church,51.6602682,-0.0575678,4.4,0.5224495679140091,0.0,1.0,0.0,General,"good (21), excellent (9), wonderful (9)",7
Enfield,"Our Lady of Mount Carmel & St George RC Church, Enfield",Church,51.6498541,-0.08033359999999999,4.8,0.6517962316672007,0.0,0.4,0.6,"Accessibility, Noise, Comfort, Atmosphere, Maintenance, Traffic, Aesthetics, General","lovely (22), safe (21), parking (18), beautiful (18), peaceful (12), near (9), welcoming (9), great (9), easy (9), gorgeous (9), lighting (3), good (3)",171
Enfield,"St Andrew's Church, Enfield",Church,51.6530003,-0.08200949999999999,4.3,0.5834377904733022,0.0,0.4666666666666667,0.5333333333333333,"Cleanliness, Atmosphere, Maintenance, Aesthetics, General","beautiful (27), old (18), messy (15), safe (9), lively (9), fantastic (9), wonderful (9), lovely (3), good (3), peaceful (3)",32
Enfield,Bury Street Community Church,Church,51.6345944,-0.0765394,5.0,0.6940656105677286,0.0,0.4,0.6,"Comfort, Aesthetics, General","lovely (15), welcoming (9), great (9)",16
Enfield,Jubilee Church London,Church,51.6501797,-0.0604494,4.7,0.7347005565961202,0.0,0.26666666666666666,0.7333333333333333,"Safety, Noise, Comfort, Atmosphere, Maintenance, Aesthetics, General","safe (18), messy (12), beautiful (9), wonderful (9), vibrant (9), welcoming (9), loud (9), damaged (9), walking (6), connected (6), lively (6), lovely (3), dark (3), dead (3), tidy (3), modern (3), active (3)",188
Enfield,St Pauls Centre,Church,51.6531226,-0.08819099999999999,4.3,0.6139941334724426,0.0,0.6,0.4,"Accessibility, Comfort, Cleanliness, Maintenance, Traffic, Aesthetics, General","lovely (18), easy (18), clean (15), parking (9), great (9), near (9), welcoming (9), busy (3)",42
Enfield,Car Parking - Enfield Council,Parking,51.65385860000001,-0.0845995,3.1,0.4654609203338623,0.4,0.5333333333333333,0.06666666666666667,"Maintenance, Accessibility","easy (9), tidy (9), convenient (9), safe (6), cars (6), parking (6), near (6), noisy (3), old (2)",13
Enfield,New River Loop,Parking,51.6525389,-0.0794429,4.3,0.4862857113281886,0.16666666666666666,0.8333333333333334,0.0,"Accessibility, Noise, Atmosphere, Traffic, Aesthetics, General","parking (21), good (18), lovely (9), great (9), busy (9), easy (9), quiet (6), walking (3), cars (3)",6
Enfield,Genotin Road Car Park,Parking,51.65108420000001,-0.07921000000000002,5.0,0.48146095871925354,0.0,1.0,0.0,,,2
Enfield,Church Ln Parking,Parking,51.6537424,-0.08112699999999998,3.8,0.5081511388222376,0.0,1.0,0.0,"Traffic, Accessibility","parking (18), convenient (9), near (9), difficult (9)",5
Enfield,Palace Exchange Parking,Parking,51.6501247,-0.0815717,4.0,0.6203794240951538,0.0,0.6666666666666666,0.3333333333333333,"Accessibility, Comfort, Atmosphere, Traffic, General","parking (30), cars (15), good (12), tight (9), convenient (9), busy (9), tidy (6), driving (6), noisy (3), safe (3)",41
Enfield,Sydney Road (Small) Car Park,Parking,51.6497454,-0.0819096,4.1,0.5070655306180318,0.2,0.6,0.2,"Traffic, Accessibility, General","cars (10), easy (10), far (9), great (9), good (9), parking (6), near (3)",11
Enfield,Little Park Gardens,Parking,51.65369399999999,-0.08438849999999999,4.4,0.5967640976111094,0.0,0.6,0.4,"Aesthetics, General","lovely (12), great (9), good (9), busy (6), parking (3)",18
Enfield,YourParkingSpace,Parking,51.6515213,-0.07622980000000001,5.0,0.0,0.0,0.0,0.0,,,2
Enfield,"NCP Car Park, Enfield",Parking,51.65197629999999,-0.0760343,5.0,0.0,0.0,0.0,0.0,,,1
Enfield,Palace Gardens Car Park,Parking,51.65172099999999,-0.0856909,3.3,0.6484517097473145,0.2,0.2,0.6,"Accessibility, Maintenance, Aesthetics, Traffic, General","parking (78), cars (36), safe (15), convenient (9), vehicle (9), great (9), noisy (9), bad (6), walking (6), tidy (3), good (3)",52
Enfield,Bush Hill Park Station Car Park,Parking,51.6418643,-0.069788,5.0,0.0,0.0,0.0,0.0,,,2
Enfield,Sainsbury's,Parking,51.6526632,-0.0581486,4.5,0.4673865387837092,0.0,1.0,0.0,,"safe (3), neat (2), near (2), new (2)",11
Enfield,David Lloyd Car Park,Parking,51.6602261,-0.06226509999999999,4.0,0.5525360107421875,0.3333333333333333,0.16666666666666666,0.5,,"tidy (3), cars (3), parking (3)",2
Enfield,Car Park Gordon Hill Station | APCOA,Parking,51.6640127,-0.0941163,3.3,0.573512335618337,0.0,0.3333333333333333,0.6666666666666666,"Traffic, Safety","dangerous (9), pedestrian (9)",3
Enfield,Enfield Town Library,Library,51.65169239999999,-0.0862059,4.3,0.5956898689270019,0.0,0.4,0.6,"Accessibility, Safety, Noise, Comfort, Cleanliness, Atmosphere, Maintenance, Aesthetics, Traffic","loud (18), police (18), dark (9), rubbish (9), lovely (9), busy (9), easy (9), tidy (6), clean (6), safe (3), roomy (3), welcoming (3), good (3)",242
Enfield,"John Jackson Library, Bush Hill Park",Library,51.6453609,-0.0664982,4.4,0.6061330219109853,0.13333333333333333,0.3333333333333333,0.5333333333333333,"Noise, Cleanliness, Aesthetics, General","good (27), dirty (9), screaming (9), ugly (9), easy (3), tidy (3), noisy (3), dark (3), dead (3)",19
Enfield,Ridge Avenue Library,Library,51.6361748,-0.08186520000000001,4.1,0.6649719099203746,0.26666666666666666,0.13333333333333333,0.6,"Safety, Noise, Cleanliness, Atmosphere, Maintenance, Aesthetics, General","messy (12), peaceful (9), amazing (9), gorgeous (9), police (9), clean (9), new (9), lighting (3), busy (3), flow (3), far (3), good (3)",38
Enfield,The Sampson School of English,School,51.6622767,-0.08511389999999999,5.0,0.8286682446797689,0.0,0.2,0.8,"Atmosphere, General","excellent (18), safe (12), good (9), great (3)",15
Enfield,London School of Arts,School,51.6523119,-0.0811094,4.7,0.7126824835936229,0.13333333333333333,0.13333333333333333,0.7333333333333333,"Accessibility, Noise, Maintenance, Aesthetics, General","good (21), great (18), amazing (15), lovely (12), fantastic (9), music (9), easy (9), roomy (6), noisy (6), messy (6), safe (6), tidy (3)",47
Enfield,Safar Academy Enfield,School,51.6544947,-0.08420930000000001,5.0,0.0,0.0,0.0,0.0,,,1
Enfield,Kumon Maths & English,School,51.65805289999999,-0.0887261,4.5,0.7953470190366109,0.0,0.0,1.0,"Maintenance, Accessibility, General","safe (27), tidy (12), good (12), improved (9), excellent (9), disappointing (9), noisy (9), great (9), messy (3), near (3)",25
Enfield,HappyWoods Nursery,School,51.6613485,-0.0828003,4.5,0.8450207471847534,0.0,0.0,1.0,"Maintenance, Comfort, Aesthetics, General","lovely (18), safe (18), amazing (18), welcoming (9), wonderful (9), new (9), beautiful (9), improved (3), pretty (3), roomy (3), peaceful (3), parking (3)",15
Enfield,Polska szkola enfield,School,51.651167,-0.0618457,4.3,0.910259852806727,0.0,0.0,1.0,General,"worst (9), tidy (3)",6
Enfield,Young Notes,School,51.66341019999999,-0.0870219,5.0,0.8544520404603746,0.0,0.0,1.0,"Aesthetics, General","lovely (12), fantastic (9), tidy (6), safe (3)",4
Enfield,Bright Horizons Enfield Hilly Fields Day Nursery and Preschool,School,51.66753899999999,-0.08328799999999999,5.0,0.7139889895915985,0.0,0.5,0.5,"Noise, Aesthetics, Safety, General","safe (24), great (18), lovely (13), music (9), fantastic (9), roomy (3), tidy (3)",2
Enfield,Nuffield Health Enfield Fitness & Wellbeing Gym,Gym,51.6486035,-0.08116550000000002,3.3,0.6097754220167796,0.2,0.4,0.4,"Accessibility, Comfort, Cleanliness, Atmosphere, Maintenance, Traffic, General","good (18), upgraded (18), great (18), welcoming (18), parking (12), fantastic (9), roomy (9), new (9), central (9), old (9), busy (9), modern (9), maintained (9), near (3), cars (3), safe (3), tidy (3), improved (3)",152
Enfield,The Cavell Hospital,Hospital,51.6588982,-0.1030082,4.6,0.6194775521755218,0.06666666666666667,0.5333333333333333,0.4,"Maintenance, Comfort, Aesthetics, General","excellent (36), lovely (18), messy (12), tidy (12), updated (9), comfortable (9), great (9), good (9)",763
Enfield,Gold Angels Medical Aesthetics,Hospital,51.6516586,-0.0797682,4.9,0.7275567412376404,0.0,0.26666666666666666,0.7333333333333333,"Cleanliness, Atmosphere, Maintenance, Aesthetics, General","excellent (27), good (21), messy (15), clean (9), neat (9), lovely (9), amazing (9), calm (9), roomy (3), noisy (3)",39
Enfield,St Michael’s Primary Care Centre,Hospital,51.6620497,-0.08487730000000002,3.5,0.615455424785614,0.0,0.6,0.4,"Comfort, Cleanliness, Maintenance, Aesthetics, Traffic, General","walking (24), old (18), clean (14), messy (9), comfortable (9), fantastic (9), excellent (9), good (6), noisy (6), lovely (6), safe (3), roomy (3), tidy (3)",32
Enfield,Baytree House,Hospital,51.6579566,-0.08960689999999999,3.0,0.0,0.0,0.0,0.0,,,2
Enfield,Gold Medical Centre,Hospital,51.6516636,-0.07977359999999999,4.9,0.6063270151615143,0.26666666666666666,0.2,0.5333333333333333,"Maintenance, Comfort, Aesthetics, General","good (12), messy (9), welcoming (9), great (9), safe (3), tidy (3)",70
Enfield,Clean Ears Direct,Hospital,51.6523426,-0.0829782,5.0,0.9270363847414652,0.0,0.0,1.0,"Maintenance, General","amazing (9), new (9)",1
Enfield,BMI The Cavell Hospital,Hospital,51.658893,-0.102974,3.0,0.5223189493020376,0.0,0.8333333333333334,0.16666666666666666,,"safe (3), messy (3)",2
Enfield,Lee Valley Regional Park Authority,Park,51.67495,-0.0610306,4.5,0.7490662852923076,0.0,0.2,0.8,"Noise, Cleanliness, Atmosphere, Maintenance, Aesthetics, Traffic, General","peaceful (27), parking (20), beautiful (18), good (18), lovely (16), maintained (9), scenic (9), perfect (9), relaxing (9), great (9), clean (9), noisy (6), cars (3), dirty (3), walking (3)",2488
Enfield,Trent Park,Park,51.66009479999999,-0.1345135,4.6,0.6710878054300944,0.0,0.5333333333333333,0.4666666666666667,"Comfort, Cleanliness, Atmosphere, Maintenance, Aesthetics, Traffic","beautiful (27), parking (27), new (18), pretty (9), muddy (9), enjoyable (9), safe (9), relaxing (9), busy (9), lovely (6), good (6), walking (3), noisy (3), cars (3)",3026
Enfield,"Winchmore Hill Sports Club,The Paulin Ground",Park,51.6324804,-0.0894919,4.4,0.6766678790251414,0.0,0.4,0.6,"Accessibility, Comfort, Aesthetics, Traffic, General","great (36), parking (9), fantastic (9), perfect (9), enjoyable (9), near (9), wonderful (6), lovely (6), lively (3), safe (3)",207
Enfield,Firs Farm Wetlands Park & Playing Fields,Park,51.6256632,-0.08830059999999999,4.5,0.6529777030150096,0.0,0.4666666666666667,0.5333333333333333,"Accessibility, Comfort, Aesthetics, Traffic, General","parking (18), walking (18), lovely (12), tidy (9), pleasant (9), convenient (9), pretty (9), plain (9), comfortable (9), welcoming (9), excellent (9), easy (9), safe (3), messy (3)",587
Enfield,Kaplan Drive / Pennington Drive Public Open Space,Park,51.6455699,-0.1154114,4.0,0.32733334600925446,0.6666666666666666,0.3333333333333333,0.0,,,10
Enfield,Woodcroft Wildspace,Park,51.631508,-0.1059125,4.7,0.7523780663808187,0.0,0.2,0.8,"Maintenance, Atmosphere, Accessibility, General","amazing (27), great (18), old (9), easy (9), tidy (6), safe (3), good (3), cozy (3)",85
Enfield,Forty Hall Estate,Tourist Attraction,51.66994209999999,-0.06887289999999999,4.6,0.6656398236751556,0.0,0.4,0.6,"Cleanliness, Maintenance, Aesthetics, Traffic, General","beautiful (27), good (18), lovely (12), perfect (12), walking (10), clean (9), maintained (9), great (9), lively (3), safe (3), noisy (3)",2840
Enfield,Enfield Distribution Park,Park,51.6462764,-0.0304398,4.0,0.40885444978872937,0.4166666666666667,0.5833333333333334,0.0,"Maintenance, General","modern (9), good (9), parking (3)",29
Enfield,JJL Trees LTD,Moving Company,51.68365339999999,-0.0990977,5.0,0.7782465537389119,0.0,0.0,1.0,"Cleanliness, Aesthetics, General","excellent (18), great (15), tidy (15), clean (6), dark (3), dead (3)",38
Enfield,Enfield Distribution Park,Park,51.6631997,-0.0272053,4.7,0.4221802552541097,0.5,0.5,0.0,,,3
Enfield,Jubilee Park,Park,51.6353437,-0.0582025,4.4,0.7135499556859334,0.0,0.0,1.0,"Accessibility, Noise, Comfort, Cleanliness, Atmosphere, Maintenance, Traffic, Aesthetics, General","parking (41), peaceful (27), lovely (27), great (18), rubbish (18), safe (15), walking (13), beautiful (12), relaxing (12), charming (9), maintained (9), perfect (9), serene (9), lively (9), calm (9), busy (9), accessible (9), pleasant (9), flow (3), cars (3)",782
Enfield,Ladbrokes,Point Of Interest,51.63499040000001,-0.093377,1.0,0.47785355647404987,0.0,1.0,0.0,,,1
Enfield,Chase Farm Hospital,Hospital,51.66688560000001,-0.1029535,3.7,0.6723768750826518,0.0,0.6,0.4,"Accessibility, Safety, Comfort, Cleanliness, Atmosphere, Maintenance, Aesthetics, Traffic, General","messy (72), good (51), tidy (45), wonderful (18), clean (18), beautiful (12), amazing (9), spacious (9), parking (9), security (9), lovely (9), noisy (9), dead (9), threatening (9), new (9), great (9), excellent (9), convenient (3), roomy (3), far (3), connected (3), spotless (3), pleasant (2)",525
Enfield,Enfield Bus Garage (Arriva),Bus Station,51.6476312,-0.05068460000000001,5.0,0.8577913641929626,0.0,0.0,1.0,,busy (3),2
Enfield,William Hill,Point Of Interest,51.64759830000001,-0.034403,3.0,0.6189350287119547,0.2222222222222222,0.0,0.7777777777777778,General,great (9),6
Enfield,Oakwood,Subway Station,51.6476401,-0.1318275,4.3,0.532508377234141,0.2,0.6,0.2,"Accessibility, Cleanliness, Maintenance, Traffic, Aesthetics, General","beautiful (18), central (18), safe (9), perfect (9), bikes (9), clean (9), near (9), walking (3), updated (3), connected (2), good (1)",145
Enfield,Southgate,Subway Station,51.632317,-0.12779,4.3,0.5999923566977183,0.13333333333333333,0.26666666666666666,0.6,"Noise, Atmosphere, Maintenance, Aesthetics, General","quiet (9), elegant (9), excellent (9), tidy (6), lighting (3), busy (3), old (3), messy (3), safe (3)",100
Enfield,Chase Farm Hospital / Main Entrance,Bus Station,51.66557700000001,-0.104077,5.0,0.5923196325699488,0.3333333333333333,0.0,0.6666666666666666,"Maintenance, Cleanliness, Accessibility, General","new (9), clean (6), fantastic (3), messy (3)",4
Enfield,Edmonton Fire Station (Stop EE),Bus Station,51.62745700000001,-0.071946,3.0,0.6469208300113678,0.0,0.0,1.0,General,"great (9), safe (3), busy (3), noisy (3)",4
Enfield,Turkey Street Station,Bus Station,51.672279,-0.04782699999999999,4.1,0.6013361190756162,0.16666666666666666,0.4166666666666667,0.4166666666666667,"General, Cleanliness, Safety","busy (24), tidy (12), safe (9), clean (9), good (9), messy (3), amazing (3)",10
Enfield,Ponders End Station (Stop PT),Bus Station,51.642654,-0.035832,4.5,0.32724008957544964,1.0,0.0,0.0,,"busy (3), tidy (3)",2
Enfield,Edmonton Green Shopping Centre,Shopping Mall,51.6247756,-0.0573816,3.9,0.6677865902582805,0.0,0.4,0.6,"Accessibility, Safety, Comfort, Cleanliness, Atmosphere, Maintenance, Traffic, General","good (30), outdated (18), great (18), convenient (18), parking (18), noisy (12), modern (9), safe (9), excellent (9), spacious (9), easy (9), security (9), improved (9), busy (9), new (9), tidy (6), pretty (3), lovely (3)",7847
Enfield,South Mall,Shopping Mall,51.62364150000001,-0.058619,4.0,0.5377539018789927,0.2,0.5333333333333333,0.26666666666666666,"Accessibility, Comfort, Cleanliness, Atmosphere, Maintenance, Traffic, General","good (24), busy (21), clean (9), tidy (9), rubbish (9), safe (9), convenient (9), easy (9), perfect (9), pleasant (9), maintained (9), accessible (9), parking (9), near (6), ugly (3), risky (3)",1944
Enfield,Whitewebbs Museum of Transport,Museum,51.6813431,-0.09507639999999999,4.8,0.6162615319093069,0.2,0.4,0.4,"Maintenance, Traffic, Aesthetics, General","great (45), cars (27), safe (27), good (27), lovely (18), bikes (18), old (18), vehicle (12), fantastic (9), appealing (9), excellent (9), tidy (3), walking (3)",332
Enfield,"All Saints Church, Edmonton",Tourist Attraction,51.6258502,-0.0655293,4.4,0.5891214390595754,0.2,0.26666666666666666,0.5333333333333333,"Noise, Comfort, Atmosphere, Maintenance, General","renovated (9), great (9), welcoming (9), quiet (9), active (6), fantastic (6), good (3), safe (3), old (3), peaceful (3)",65
Enfield,Rumiؒ Mosque,Mosque,51.62074459999999,-0.0622832,4.8,0.785451610883077,0.0,0.2,0.8,"Accessibility, Noise, Comfort, Cleanliness, Atmosphere, Maintenance, Aesthetics, Traffic, General","peaceful (30), welcoming (24), beautiful (18), clean (18), wonderful (18), maintained (12), parking (9), serene (9), stunning (9), near (9), convenient (9), busy (6), messy (6), safe (6), roomy (3), noisy (3), good (3), connected (3)",477
Enfield,Whitewebbs Park,Park,51.6751632,-0.08523900000000001,4.5,0.5759859979152679,0.2,0.2,0.6,"Accessibility, Noise, Cleanliness, Atmosphere, Maintenance, Aesthetics, Traffic, General","parking (49), lovely (36), peaceful (27), beautiful (27), great (27), walking (21), perfect (18), maintained (9), stunning (9), relaxing (9), muddy (9), busy (9), fantastic (9), quiet (9), old (9), amazing (9), music (9), good (9), safe (6), tidy (6), charming (3), attractive (3), near (3), protected (3), wonderful (3)",176
Enfield,Woodlands Lake,Tourist Attraction,51.67525769999999,-0.0703014,4.7,0.5391383369763693,0.2,0.4666666666666667,0.3333333333333333,"Aesthetics, Noise, Atmosphere, General","peaceful (12), beautiful (9), wonderful (9), pretty (9), relaxing (7), tidy (3), safe (3), good (3)",20
Enfield,Flash Lane Aqueduct,Tourist Attraction,51.6775974,-0.08795029999999998,4.2,0.5295426030953725,0.2,0.4,0.4,"Accessibility, Noise, Cleanliness, Maintenance, Aesthetics, Traffic, General","old (36), lovely (18), new (18), near (15), muddy (12), safe (12), flow (12), walking (9), beautiful (9), amazing (9), music (9), parking (3), good (3)",17
Enfield,20th Edmonton Scouts,Tourist Attraction,51.629051,-0.0575705,5.0,0.0,0.0,0.0,0.0,,,1
Enfield,Deansway tunnel,Tourist Attraction,51.6248601,-0.08083539999999999,3.3,0.6384427646795908,0.0,0.5,0.5,Aesthetics,"lovely (6), poor (3), safe (3)",3
Enfield,Grovelands Park,Park,51.62986959999999,-0.1170059,4.7,0.6133503794670105,0.0,0.8,0.2,"Maintenance, Cleanliness, Aesthetics, General","perfect (27), lovely (27), parking (17), old (9), safe (9), great (9), clean (9), maintained (9), walking (6), beautiful (6), tidy (6), spotless (3), poor (3)",2332
Enfield,Grovelands Park,Natural Feature,51.6336609,-0.1101954,4.7,0.6530919035275777,0.0,0.26666666666666666,0.7333333333333333,"Aesthetics, Comfort, Traffic, General","parking (30), lovely (21), walking (18), great (15), enjoyable (9), good (6), noisy (3)",82
Enfield,Boxer's Lake,Natural Feature,51.6496208,-0.1145042,4.6,0.5109418610731761,0.13333333333333333,0.6666666666666666,0.2,"Maintenance, Aesthetics, Accessibility, General","beautiful (18), lovely (18), far (9), old (9), bad (9), pretty (9), busy (6), safe (6), poor (3), noisy (3), good (3), parking (3), messy (3)",15
Enfield,Boating Lake,Natural Feature,51.6318475,-0.1136933,4.5,0.6066799726751115,0.0,0.3333333333333333,0.6666666666666666,"Atmosphere, General","good (9), relaxing (9), safe (3), tidy (3), dark (3), dead (3), walking (3), parking (3)",4
Enfield,King George's Reservoir,Natural Feature,51.6439141,-0.0206271,4.8,0.5279964937104119,0.1111111111111111,0.4444444444444444,0.4444444444444444,"Aesthetics, Atmosphere, General","beautiful (9), great (9), relaxing (7), calm (3)",14
Enfield,William Girling Reservoir,Natural Feature,51.62943139999999,-0.0250353,4.3,0.5280643542607625,0.3333333333333333,0.2,0.4666666666666667,"Aesthetics, Accessibility","beautiful (9), good (3), near (3)",12
Enfield,Whitewebbs Wood,Natural Feature,51.6794431,-0.087099,4.7,0.6668411129050784,0.1111111111111111,0.2222222222222222,0.6666666666666666,"Cleanliness, Maintenance, Aesthetics, Traffic, General","walking (12), lovely (12), great (9), new (9), good (9), muddy (9)",6
Enfield,Williams Wood,Natural Feature,51.6616272,-0.1247123,5.0,0.3471364776293437,1.0,0.0,0.0,Maintenance,old (3),1
Enfield,Boxer's Lake,Natural Feature,51.6502803,-0.1133993,4.0,0.3016302486260732,1.0,0.0,0.0,,,1
Enfield,Shaws Wood,Natural Feature,51.6580027,-0.1272819,4.0,0.0,0.0,0.0,0.0,,,1
Enfield,Ride Wood,Natural Feature,51.6655703,-0.1321205,5.0,0.0,0.0,0.0,0.0,,,1
Enfield,South Osiers,Natural Feature,51.68702949999999,-0.0704982,4.2,0.4969632923603058,0.0,1.0,0.0,General,good (9),6
Enfield,Square Planting,Natural Feature,51.68834330000001,-0.0764121,4.2,0.6752251784006754,0.0,0.0,1.0,"Aesthetics, Atmosphere","beautiful (9), relaxing (6)",17
Enfield,Edmonton Cemetery,Cemetery,51.63033219999999,-0.07935949999999999,3.9,0.6100599646568299,0.0,0.5333333333333333,0.4666666666666667,"Accessibility, Safety, Cleanliness, Atmosphere, Maintenance, Aesthetics, General","beautiful (27), maintained (18), empty (18), tidy (15), safe (12), accessible (9), neglected (9), neat (9), clean (9), terrible (9), unsafe (9), noisy (3), dark (3), dead (3), new (3), muddy (3), good (3)",31
Enfield,Western Cemetery (Cheshunt),Cemetery,51.68482780000001,-0.0598683,4.3,0.5085455079873403,0.25,0.5,0.25,"Aesthetics, Maintenance, Noise, Atmosphere","peaceful (9), beautiful (9), lovely (3)",9
Enfield,Jewish Joint Burial Society,Cemetery,51.6861858,-0.0679632,5.0,0.6786021788914999,0.0,0.0,1.0,Aesthetics,beautiful (9),3
Enfield,Hertford Road Cemetery,Cemetery,51.65541630000001,-0.0476388,3.9,0.5124403287967046,0.25,0.5,0.25,"Traffic, Accessibility","vehicle (9), convenient (9)",7
Enfield,Strayfield Road Cemetery,Cemetery,51.67192739999999,-0.09925249999999998,4.2,0.4936990201473236,0.2,0.6,0.2,"Safety, Cleanliness, Maintenance, Traffic, General","maintained (18), driving (9), unsafe (6), safe (6), noisy (6), walking (3), poor (3), damaged (3), vehicle (3), messy (3), flow (3), peaceful (3)",11
Enfield,Western & West End Great Synagogue,Cemetery,51.6850385,-0.059945,5.0,0.0,0.0,0.0,0.0,,,1
Enfield,"St Thomas's Church, Oakwood",Church,51.6451448,-0.126217,4.8,0.7852516134579977,0.0,0.2,0.8,"Safety, Comfort, Maintenance, Traffic, Aesthetics, General","welcoming (27), wonderful (18), lovely (18), good (18), beautiful (9), modern (9), great (9), safe (4), fantastic (3)",40
Enfield,St Edmunds R C Church,Church,51.62911769999999,-0.05652409999999999,4.6,0.5974054872989655,0.13333333333333333,0.26666666666666666,0.6,"Noise, Cleanliness, Atmosphere, Maintenance, Aesthetics, Traffic, General","lovely (27), messy (24), wonderful (9), old (9), maintained (9), peaceful (9), bad (9), driving (6), safe (6), good (6), ugly (6), quiet (3)",108
Enfield,"St Paul's Church, Winchmore Hill",Church,51.6354656,-0.1059373,4.6,0.6503908018271128,0.2,0.3333333333333333,0.4666666666666667,"Noise, Comfort, Aesthetics, General","safe (21), wonderful (18), lovely (12), music (9), beautiful (9), silent (9), welcoming (6), good (3), pretty (3), cars (3), parking (3)",35
Enfield,Ponders End Methodist Church,Church,51.6496249,-0.0466147,4.8,0.6306842406590779,0.06666666666666667,0.4,0.5333333333333333,"Comfort, Cleanliness, Maintenance, Aesthetics, General","lovely (18), new (12), great (9), modern (9), wonderful (9), beautiful (9), spacious (9), clean (9), neat (3), near (3)",13
Enfield,Lincoln Road Chapel,Church,51.6436439,-0.0485849,4.7,0.6935877203941345,0.0,0.4,0.6,"Noise, Comfort, Cleanliness, Maintenance, Aesthetics, General","great (18), tidy (12), wonderful (9), pleasant (9), new (9), clean (9), amazing (9), excellent (9), music (9), lovely (9), perfect (3)",16
Enfield,Victory in Christ Ministries,Church,51.64572039999999,-0.04629229999999999,4.7,0.8321847001711528,0.0,0.0,1.0,,"safe (21), lovely (6), messy (6), peaceful (3)",14
Enfield,Winchmore Hill United Reformed Church,Church,51.6322576,-0.1012923,4.3,0.6907411456108093,0.0,0.2,0.8,"Accessibility, Noise, Comfort, Maintenance, Aesthetics, Traffic, General","new (45), lovely (24), old (18), great (18), parking (12), central (9), good (9), amazing (9), safe (6), near (6), wonderful (6), welcoming (6), music (3), roomy (3), cars (3), dark (3), dead (3), noisy (3), appealing (3), fantastic (3)",15
Enfield,Ponders End URC Church,Church,51.6447703,-0.0475767,4.4,0.6184179226557414,0.06666666666666667,0.3333333333333333,0.6,"Maintenance, Aesthetics, Accessibility, General","great (18), near (9), lovely (6), old (3), cars (3), parking (3)",15
Enfield,Albany Pool Car Park,Parking,51.66850909999999,-0.04083209999999999,3.8,0.5079837813973427,0.08333333333333333,0.75,0.16666666666666666,"Cleanliness, Maintenance, Aesthetics, Traffic, General","parking (12), safe (12), damaged (9), rubbish (9), old (9), horrible (6), lovely (3), tidy (3), noisy (3), ugly (3), cars (3)",4
Enfield,Dudrich (Holdings) Limited,Parking,51.63404449999999,-0.1269949,3.1,0.7185916026433309,0.0,0.2,0.8,"Comfort, Maintenance, Traffic, Aesthetics, General","parking (27), tidy (15), noisy (12), pleasant (9), great (9), awful (9), messy (6), safe (3), poor (3), wonderful (3)",99
Enfield,Enfield Highway Library,Library,51.6588287,-0.04680820000000001,3.9,0.5754831433296204,0.0,0.4666666666666667,0.5333333333333333,"Accessibility, Noise, Cleanliness, Atmosphere, Maintenance, General","good (18), quiet (18), loud (9), great (9), tidy (6), clean (6), noisy (3), excellent (3), shouting (3), lovely (3), difficult (3)",18
Enfield,Winchmore Hill Library,Library,51.6284343,-0.09827550000000002,4.6,0.5840590198834738,0.13333333333333333,0.4666666666666667,0.4,"Accessibility, Noise, Comfort, Cleanliness, Atmosphere, Aesthetics, General","lovely (21), calm (18), great (18), clean (9), silent (9), cozy (9), near (9), central (9), safe (9), peaceful (9), amazing (9), good (9), messy (3)",23
Enfield,Edmonton Green Library,Library,51.6239158,-0.0583531,4.2,0.6980091551939647,0.0,0.26666666666666666,0.7333333333333333,"Safety, Noise, Comfort, Cleanliness, Atmosphere, Traffic, Aesthetics, General","security (36), good (15), lovely (12), neat (9), comfortable (9), noisy (9), busy (9), screaming (9), tidy (9), clean (9), welcoming (9), enjoyable (9), horrible (9), messy (6)",108
Enfield,Ponders End Library,Library,51.6456935,-0.04685479999999999,3.9,0.5447258472442627,0.0,0.8,0.2,"Accessibility, Noise, Comfort, Cleanliness, Atmosphere, Maintenance, General","new (36), safe (9), far (9), excellent (9), modern (9), good (9), quiet (9), comfortable (9), clean (7), messy (3), tidy (3), connected (3)",9
Enfield,Ordnance Unity Centre Library,Library,51.67200459999999,-0.03944889999999999,3.9,0.6225651443004608,0.0,0.6,0.4,"Accessibility, Noise, Cleanliness, Atmosphere, Maintenance, Aesthetics, General","good (69), poor (33), messy (27), loud (24), quiet (18), safe (15), pretty (12), near (9), clean (9), noisy (6), difficult (3), peaceful (3), dark (3), dead (3), tidy (3)",56
Enfield,Oakwood Library,Library,51.6489033,-0.1292606,4.8,0.6048025548458099,0.0,0.6,0.4,"Maintenance, Accessibility, General","good (18), great (9), easy (9), safe (6), parking (3), busy (3), old (2)",12
Enfield,Bullsmoor Library,Library,51.6763987,-0.049522,4.5,0.48019849757353467,0.0,1.0,0.0,"Noise, Atmosphere, General","good (9), quiet (9), safe (3), noisy (3)",4
Enfield,NightStories,Library,51.668881,-0.0335189,5.0,0.0,0.0,0.0,0.0,,,1
Enfield,Millfield House Library,Library,51.6165201,-0.0811186,4.0,0.5196079611778259,0.0,1.0,0.0,,,4
Enfield,Butterflies Child & Baby Care Services Ltd,School,51.6293827,-0.07531580000000002,4.9,0.8479561487833659,0.0,0.0,1.0,"Maintenance, Aesthetics, General","lovely (24), amazing (24), safe (12), great (9), new (9), roomy (6), fantastic (6), connected (3), tidy (3), messy (3)",15
Enfield,TTP Swim School Ltd (Take The Plunge Swim School Ltd),School,51.6512198,-0.0439223,4.9,0.6943265199661255,0.06666666666666667,0.06666666666666667,0.8666666666666667,"Accessibility, Safety, Maintenance, Aesthetics, General","old (18), safe (12), lovely (9), amazing (9), great (9), good (9), fantastic (9), near (2)",8
Enfield,The Latymer School,School,51.6257086,-0.0741212,4.2,0.5907993137836456,0.0,0.8,0.2,"Noise, Cleanliness, General","good (27), music (9), great (9), dirty (9), messy (8)",95
Enfield,Capel Manor College,University,51.6792351,-0.0552097,4.5,0.6604420065879821,0.0,0.4,0.6,"Accessibility, Safety, Cleanliness, Maintenance, Traffic, Aesthetics, General","safe (15), cars (12), parking (12), lovely (12), old (9), maintained (9), good (9), easy (9), near (9), amazing (9), difficult (9), fantastic (9), great (9), flow (3), tidy (3), perfect (3)",144
Enfield,"Capital City College Enfield centre (formerly The College of Haringey, Enfield and North East London - Enfield Centre)",University,51.6530894,-0.04681439999999999,4.4,0.6362403531869253,0.0,0.4,0.6,"General, Maintenance, Aesthetics, Safety","tidy (63), good (33), messy (27), safe (15), dark (9), amazing (9), lovely (9), beautiful (9), bad (9), great (9), terrible (9), security (9), horrible (9), noisy (6), secure (3), improved (3), active (3)",111
Enfield,CECOS College London - Edmonton Green Campus,University,51.62391340000001,-0.05873790000000001,4.2,0.7014861385027568,0.2,0.0,0.8,"Maintenance, Accessibility, General","messy (24), safe (18), excellent (18), tidy (15), convenient (9), easy (9), amazing (9), far (9), difficult (6), noisy (6), improved (3), updated (3), great (3), lovely (3), wonderful (3)",167
Enfield,St Ignatius College,School,51.67306870000001,-0.05588890000000001,3.6,0.5260310033957164,0.4,0.2,0.4,"Accessibility, Noise, Cleanliness, Maintenance, Traffic, General","good (57), horrible (18), tidy (15), rubbish (9), great (9), walking (9), difficult (9), traffic (9), terrible (9), messy (6), noisy (3), bad (3), safe (3), crowded (3), busy (3)",36
Enfield,Enfield College,University,51.6530032,-0.04652099999999999,4.3,0.5230028688907623,0.06666666666666667,0.7333333333333333,0.2,"General, Cleanliness, Maintenance, Safety","clean (9), perfect (9), good (9), lighting (7), tidy (3)",43
Enfield,estelworld college,University,51.6398536,-0.0474531,4.9,0.8789884805679321,0.0,0.0,1.0,"Accessibility, Comfort, Cleanliness, Maintenance, Aesthetics, General","amazing (27), comfortable (18), far (9), pleasant (9), clean (9), fantastic (9), safe (3), tidy (3)",104
Enfield,Barnet and Southgate College - Edmonton Green Campus,University,51.6230072,-0.05852040000000001,4.4,0.6971246520678203,0.0,0.2,0.8,"Accessibility, Noise, Comfort, Cleanliness, Atmosphere, Aesthetics, General","good (36), clean (30), great (27), excellent (9), far (9), lovely (9), difficult (9), comfortable (9), accessible (9), quiet (6), messy (6)",20
Enfield,Compass,Hospital,51.6334795,-0.0529465,5.0,0.6457372307777405,0.0,0.0,1.0,"Cleanliness, Traffic","clean (9), parking (9)",2
Enfield,MHP - Freezywater Primary Care Centre,Hospital,51.6743765,-0.0381906,1.6,0.9435052315394084,0.0,0.0,1.0,"Maintenance, Accessibility, General","new (9), broken (9), far (9), worst (9), terrible (9), poor (9), tidy (6), safe (6), noisy (3), ugly (3), loud (3)",208
Enfield,The Kings Oak Hospital,Hospital,51.6677907,-0.1055218,4.6,0.8295216083526611,0.0,0.0,1.0,"Safety, Comfort, Cleanliness, Maintenance, Aesthetics, General","excellent (36), messy (21), great (18), clean (18), modern (9), welcoming (9), amazing (9), good (9), lovely (9), comfortable (9), tidy (6), roomy (3), dark (3), dead (3), spotless (3), cars (3), safe (3)",696
Enfield,Skely Piano,Museum,51.6423047,-0.0296444,4.5,0.5586894725759824,0.25,0.5,0.25,"Comfort, Accessibility, General","far (9), safe (9), fantastic (9), pleasant (3), lighting (3), near (3), messy (3)",4
Enfield,capitArt,Art Gallery,51.63368920000001,-0.1270901,4.9,0.7510355412960052,0.0,0.0,1.0,Aesthetics,beautiful (9),29
Enfield,Wildlife Rescue & Ambulance Service (Enfield),Tourist Attraction,51.65746199999999,-0.139431,4.5,0.6221103966236115,0.0,0.4666666666666667,0.5333333333333333,"Accessibility, Cleanliness, Atmosphere, Maintenance, Aesthetics, Traffic, General","lovely (36), great (18), parking (18), maintained (9), far (9), safe (9), old (9), busy (9), wonderful (9), noisy (6), roomy (3), good (3), walking (2)",428
Enfield,Southgate Green,Park,51.6245955,-0.1254691,4.3,0.585259477297465,0.0,0.6666666666666666,0.3333333333333333,"Accessibility, Maintenance, Traffic, Aesthetics, General","lovely (33), great (18), safe (9), good (9), parking (9), lively (3), near (3), old (3)",97
Enfield,Conway Road Recreation Ground,Park,51.62328619999999,-0.1188227,4.5,0.5534498651822408,0.0,0.8,0.2,"Accessibility, Noise, Comfort, Cleanliness, Atmosphere, Aesthetics, General","lovely (18), great (9), near (9), peaceful (9), good (9), enjoyable (9), tidy (9), clean (6), walking (3)",44
Enfield,Tottenhall Recreation Ground,Park,51.61056019999999,-0.095211,4.3,0.6671010275681813,0.13333333333333333,0.2,0.6666666666666666,"Safety, Cleanliness, Maintenance, Traffic, General","good (27), great (24), walking (18), safe (15), maintained (15), parking (12), messy (12), noisy (9), old (9), wonderful (3), bikes (3), cars (3), tidy (3)",246
Enfield,Garden of Remembrance,Park,51.6165868,-0.1179233,4.7,0.6432514429092407,0.0,0.2,0.8,"Accessibility, Safety, Noise, Atmosphere, Traffic, Aesthetics, General","quiet (18), peaceful (9), good (9), wonderful (9), difficult (9), beautiful (9), security (9), parking (3), flow (3), noisy (3)",46
Enfield,High Street Car Park,Transit Station,51.6847232,-0.03413249999999999,5.0,0.5561654567718506,0.0,1.0,0.0,"Traffic, General","parking (9), bad (9)",1
Enfield,Cockfosters,Subway Station,51.6516667,-0.1497377,4.1,0.6102629919846853,0.0,0.6,0.4,"Accessibility, Safety, Comfort, Cleanliness, Atmosphere, Maintenance, Aesthetics, Traffic, General","safe (21), beautiful (18), good (18), clean (12), neglected (9), busy (9), awful (9), easy (9), old (9), spacious (9), cars (6), roomy (3), noisy (3), tidy (3), parking (3)",102
Enfield,Meridian Water,Train Station,51.6099769,-0.05013119999999999,3.4,0.578775284687678,0.2,0.4,0.4,"Accessibility, Noise, Cleanliness, Atmosphere, Maintenance, Aesthetics, General","easy (27), quiet (18), good (18), clean (15), new (9), modern (9), tidy (9), far (9), pretty (9), near (9), great (9), noisy (3), safe (3)",69
Enfield,Waltham Cross,Transit Station,51.6850458,-0.02658719999999999,3.8,0.4554065664609273,0.4,0.4,0.2,"Cleanliness, Traffic, General","parking (12), clean (9), noisy (6), great (3), updated (3), cars (3), safe (3)",44
Enfield,White Hart Lane,Train Station,51.6045434,-0.07074840000000002,4.1,0.5664651493231455,0.06666666666666667,0.7333333333333333,0.2,"Accessibility, Noise, Cleanliness, Atmosphere, Maintenance, Traffic","new (18), busy (18), crowded (12), quiet (9), far (9), improved (9), walking (6), tidy (6), clean (3), noisy (3), old (3), modern (3)",103
Enfield,Arnos Grove Station,Transit Station,51.6161583,-0.1332221,1.9,0.7189882536729176,0.0,0.4,0.6,"Maintenance, Aesthetics, Accessibility, General","noisy (18), central (18), old (9), terrible (9), good (6), safe (3)",14
Enfield,Arnos Grove,Subway Station,51.6163462,-0.1334511,4.1,0.5857162435849508,0.2,0.06666666666666667,0.7333333333333333,"Cleanliness, General","clean (9), tidy (9), dirty (9), good (9), noisy (6), busy (3), cars (3), parking (3), bad (3)",113
Enfield,Arriva London - Edmonton Garage,Transit Station,51.6073108,-0.040739,4.2,0.5256955603758494,0.3333333333333333,0.4,0.26666666666666666,"Maintenance, General","new (9), safe (6), busy (6), broken (3), plain (3), fantastic (3)",13
Enfield,Bowes Park,Transit Station,51.607143,-0.1204531,3.7,0.5336748977502187,0.0,0.8,0.2,"Accessibility, Safety, Noise, Cleanliness, Atmosphere, Maintenance, Aesthetics, General","great (21), quiet (18), easy (18), new (18), noisy (15), good (12), tidy (9), walking (9), peaceful (9), crowded (9), dark (9), improved (9), safe (9), convenient (9), lovely (9), parking (6), near (3)",30
Enfield,Bounds Green,Subway Station,51.6071396,-0.1243025,4.1,0.46888123552004496,0.3333333333333333,0.6666666666666666,0.0,"Maintenance, Aesthetics, General","safe (9), good (9), awful (9), lovely (9), noisy (6), parking (3), walking (3), modern (3), updated (3)",79
Enfield,Cork Tree Retail Park,Shopping Mall,51.6130849,-0.03223,4.1,0.6687482078870137,0.0,0.4,0.6,"Accessibility, Noise, Comfort, Cleanliness, Atmosphere, Maintenance, Traffic, General","parking (87), great (27), easy (27), excellent (18), convenient (18), clean (18), good (12), fantastic (9), welcoming (9), maintained (9), pleasant (9), rubbish (9), traffic (9), busy (9), cars (6), safe (6), pedestrian (3), vehicle (3), tidy (3), messy (3), difficult (3)",2468
Enfield,Pavilions Shopping Centre,Shopping Mall,51.6866721,-0.032331,3.8,0.7214638849099477,0.0,0.3333333333333333,0.6666666666666666,"Accessibility, Safety, Cleanliness, Atmosphere, Traffic, General","parking (33), easy (18), safe (12), tidy (12), convenient (9), relaxing (9), great (9), clean (9), good (9), cars (6), lovely (3), near (3)",2418
Enfield,Empire House,Shopping Mall,51.60849959999999,-0.08592859999999998,3.3,0.41614332298437756,0.5,0.5,0.0,"Accessibility, Safety, Comfort, Traffic, General","security (9), parking (9), convenient (9), great (9), near (9), spacious (6), modern (3), busy (3), safe (3), connected (1)",3
Enfield,Pavilions Shopping Centre Car park,Shopping Mall,51.6866063,-0.0325738,1.0,0.5770026445388794,0.0,0.6666666666666666,0.3333333333333333,,noisy (6),1
Enfield,High Road,Shopping Mall,51.6009804,-0.0678096,4.0,0.5434522032737732,0.3333333333333333,0.3333333333333333,0.3333333333333333,"Traffic, General","great (9), good (9), walking (7)",6
Enfield,Go Ape Cockfosters London,Tourist Attraction,51.65421449999999,-0.1518371,4.7,0.8964030424753825,0.0,0.0,1.0,"Accessibility, Safety, Comfort, Maintenance, Aesthetics, General","amazing (27), safe (15), difficult (12), good (12), old (12), comfortable (9), fantastic (9), great (9), beautiful (9), easy (9), parking (6), tidy (3), shouting (3), lovely (1)",1218
Enfield,Bruce Castle Museum,Museum,51.59914939999999,-0.0754686,4.4,0.6780881285667419,0.0,0.2,0.8,"Accessibility, Noise, Atmosphere, Maintenance, Aesthetics, General","lovely (18), old (18), wonderful (18), quiet (18), safe (12), gorgeous (9), new (9), great (9), parking (3), walking (3), near (3)",434
Enfield,"George Grey, Earl of Harold Memorial-Obelisk",Tourist Attraction,51.6665296,-0.1425315,4.7,0.4954490621884664,0.4,0.2,0.4,"Noise, Comfort, Atmosphere","safe (12), pleasant (9), walking (6), parking (3)",37
Enfield,Pymmes Park,Park,51.6177077,-0.069621,4.2,0.5923362970352173,0.0,0.6,0.4,"Cleanliness, Atmosphere, Maintenance, Traffic, Aesthetics, General","parking (45), good (27), safe (18), maintained (18), beautiful (18), great (15), perfect (9), empty (9), calm (9), tidy (6), walking (3), relaxing (3)",1887
Enfield,Arnos Park,Park,51.6187815,-0.1314824,4.5,0.6347546855608622,0.0,0.4,0.6,"Noise, Comfort, Cleanliness, Atmosphere, Maintenance, Aesthetics, Traffic, General","parking (34), good (21), walking (19), peaceful (18), safe (15), perfect (9), fantastic (9), great (9), beautiful (9), clean (9), lovely (6), spacious (6), maintained (6), flow (3), tidy (3)",1145
Enfield,New Southgate Millennium Green,Park,51.6126204,-0.1395483,3.9,0.5471013923486073,0.13333333333333333,0.5333333333333333,0.3333333333333333,"Atmosphere, General","great (18), relaxing (12), awful (9), poor (9), walking (6), safe (6), parking (3), good (3), updated (3)",50
Enfield,Capel Manor Gardens,Park,51.680121,-0.0553427,4.6,0.6756197015444437,0.0,0.3333333333333333,0.6666666666666666,"Accessibility, Noise, Comfort, Cleanliness, Atmosphere, Maintenance, Aesthetics, Traffic, General","lovely (36), calm (21), beautiful (18), old (18), pleasant (9), accessible (9), great (9), neglected (9), quiet (9), good (9), parking (9), stunning (9), perfect (9), amazing (9), excellent (9), safe (6), noisy (3), walking (3), wonderful (3), flow (3), tidy (3)",1476
Enfield,Christ Church Cockfosters,Tourist Attraction,51.6514791,-0.1523917,4.8,0.8008331298828125,0.0,0.2,0.8,"Accessibility, Noise, Comfort, Maintenance, Aesthetics, General","great (36), lovely (30), wonderful (21), music (18), welcoming (18), comfortable (9), old (9), pleasant (9), amazing (9), central (9), fantastic (9), tidy (6), near (3), safe (3)",20
Enfield,Gilwell Park,Natural Feature,51.6498411,0.0022101,4.6,0.600508717695872,0.0,0.6666666666666666,0.3333333333333333,"Accessibility, Safety, Noise, Atmosphere, Maintenance, Aesthetics, General","good (21), lovely (19), great (18), safe (9), easy (9), new (9), fantastic (9), quiet (9), peaceful (9), amazing (9), parking (3)",208
Enfield,Oak Wood,Natural Feature,51.6589658,-0.1483485,5.0,0.0,0.0,0.0,0.0,,,1
Enfield,Cat Hill Chase Side Pond,Natural Feature,51.6448938,-0.1470731,5.0,0.4493001401424408,0.0,1.0,0.0,,"safe (12), tidy (3), good (3)",3
Enfield,Tumbling Bay,Natural Feature,51.6732463,-0.0164193,5.0,0.6798782845338186,0.0,0.5,0.5,Aesthetics,"lovely (11), safe (3)",3
Enfield,Jack's Lake,Natural Feature,51.6577937,-0.1633124,4.5,0.700871753692627,0.0,0.26666666666666666,0.7333333333333333,"Noise, Cleanliness, Atmosphere, Maintenance, Aesthetics, General","peaceful (18), beautiful (18), perfect (16), wonderful (9), new (9), serene (9), maintained (9), great (9), empty (9), relaxing (7), walking (6), fantastic (6), good (3), tidy (3), safe (3), noisy (3), messy (3)",51
Enfield,Banbury Reservoir,Natural Feature,51.6057386,-0.0338456,3.8,0.4958374599615733,0.0,1.0,0.0,Atmosphere,relaxing (5),4
Enfield,Bowyer's Water,Natural Feature,51.6946245,-0.0228792,4.8,0.6590004165967306,0.0,0.4,0.6,"Noise, Atmosphere, Aesthetics, Traffic, General","lovely (18), peaceful (18), good (18), great (9), pretty (9), cyclists (9), relaxing (5), walking (4), neat (3), near (3), new (3), safe (3), fantastic (3), calm (2)",30
Enfield,Wood Green Cemetery,Cemetery,51.6039655,-0.1051479,3.7,0.47613019347190855,0.13333333333333333,0.6666666666666666,0.2,"Safety, Noise, Cleanliness, Atmosphere, Maintenance, Traffic, Aesthetics, General","beautiful (18), peaceful (12), dangerous (9), dirty (9), maintained (9), bad (9), safe (6), flow (3)",13
Enfield,New Southgate Cemetery & Crematorium,Cemetery,51.6239425,-0.1436063,4.0,0.5749403794606527,0.06666666666666667,0.4666666666666667,0.4666666666666667,"Noise, Comfort, Cleanliness, Atmosphere, Maintenance, Aesthetics, General","old (18), ugly (9), horrible (9), pleasant (9), new (9), peaceful (9), tidy (5), noisy (3), safe (3)",49
Enfield,Edmonton Federation Cemetery Chapel (Jewish),Cemetery,51.6201513,-0.0538762,4.2,0.6144574731588364,0.5,0.0,0.5,Traffic,"walking (9), noisy (3)",5
Enfield,Tottenham Park Cemetery,Cemetery,51.62097410000001,-0.05027040000000001,4.1,0.8057461460431417,0.0,0.0,1.0,"Accessibility, Safety, Noise, Cleanliness, Atmosphere, Maintenance, Aesthetics, General","new (63), safe (21), neglected (18), tidy (12), improved (12), excellent (9), fantastic (9), far (9), worst (9), damaged (9), horrible (9), peaceful (9), noisy (6), parking (3), good (3), protected (3), muddy (3)",58
Enfield,Federation of Synagogues,Cemetery,51.62044340000001,-0.0503229,3.3,0.2846149206161499,1.0,0.0,0.0,,,6
Enfield,Western Cemetery (Edmonton),Cemetery,51.61959519999999,-0.0523513,4.7,0.25154396891593933,1.0,0.0,0.0,General,great (9),3
Enfield,Southgate Cemetery,Cemetery,51.625858,-0.1322929,4.7,0.5776828348636627,0.0,0.6,0.4,"Accessibility, Noise, Cleanliness, Atmosphere, Maintenance, Traffic, Aesthetics","easy (9), traffic (9), busy (9), maintained (9), beautiful (9), new (9), noisy (3)",10
Enfield,Chingford Mount Cemetery,Cemetery,51.6215962,-0.0111228,4.6,0.5983033974965414,0.0,0.4666666666666667,0.5333333333333333,"Noise, Cleanliness, Atmosphere, Maintenance, Aesthetics, Traffic","peaceful (24), maintained (18), walking (12), lovely (10), serene (9), old (9), music (9), quiet (9), beautiful (9), parking (3), calm (2)",35
Enfield,South Chingford Methodist Church,Church,51.61672289999999,-0.0165125,4.5,0.6980605840682983,0.0,0.0,1.0,"Comfort, Aesthetics, General","great (18), good (11), wonderful (9), perfect (9), inviting (9), lovely (9), spacious (9)",17
Enfield,"St Peter's Church, Lower Edmonton",Church,51.6284889,-0.0506525,4.2,0.6183490991592407,0.0,0.5333333333333333,0.4666666666666667,"Comfort, Atmosphere, Maintenance, Traffic, Aesthetics, General","messy (17), welcoming (15), driving (9), wonderful (9), fantastic (9), vibrant (9), tidy (6), bad (6), beautiful (6), lovely (6), good (3)",52
Enfield,Edmonton URC Church,Church,51.6199105,-0.06293699999999999,4.8,0.6306051214536031,0.0,0.0,1.0,,,4
Enfield,Tramway Christian Fellowship,Church,51.6355429,-0.05111719999999999,5.0,0.7187806102964613,0.1111111111111111,0.0,0.8888888888888888,"Comfort, Aesthetics, General","great (18), welcoming (12), excellent (9), beautiful (9)",4
Enfield,Christ the King Church,Church,51.64513,-0.1384652,4.7,0.7944701035817464,0.0,0.0,1.0,"Noise, Comfort, Atmosphere, Maintenance, Aesthetics, General","lovely (31), great (27), wonderful (24), welcoming (15), fantastic (12), peaceful (12), new (9), comfortable (9), excellent (9), tidy (6), pleasant (3), messy (3), good (3), lively (3)",65
Enfield,Waltham Cross Station (Greater Anglia),Parking,51.6846158,-0.0266863,4.1,0.5804881751537323,0.2,0.2,0.6,"Aesthetics, General","beautiful (9), wonderful (9), fantastic (9), noisy (6), tidy (3), safe (3), lovely (3), great (3)",172
Enfield,Oakwood Station Parking,Parking,51.6477898,-0.1310715,4.0,0.5485235194365183,0.06666666666666667,0.8,0.13333333333333333,"Traffic, Accessibility, Safety","parking (30), secure (18), convenient (18), messy (12), safe (9), tidy (6), near (3), noisy (3)",16
Enfield,Gleamachine,Parking,51.64259370000001,-0.1508316,5.0,0.5075818101565043,0.0,1.0,0.0,General,"excellent (9), tidy (3)",1
Enfield,Old Library Building,Library,51.6047457,-0.08720309999999999,4.4,0.5770141813490126,0.0,0.5555555555555556,0.4444444444444444,General,"perfect (7), amazing (3)",5
Enfield,South Chingford Community Library,Library,51.6166008,-0.0178084,4.9,0.6027669847011566,0.06666666666666667,0.2,0.7333333333333333,"Comfort, Aesthetics, General","lovely (18), great (18), good (18), welcoming (12), safe (2)",9
Enfield,Palmers Green Library,Library,51.6155658,-0.1105432,4.1,0.5808959682782491,0.0,0.4,0.6,"Accessibility, Noise, Atmosphere, Maintenance, Traffic, Aesthetics, General","tidy (18), lovely (15), safe (12), messy (12), good (12), difficult (9), new (9), parking (9), beautiful (9), great (9), noisy (9), roomy (6), quiet (6)",84
Enfield,Enfield Island Village Library,Library,51.6689775,-0.0162996,4.6,0.5806927581628164,0.06666666666666667,0.3333333333333333,0.6,"Noise, Cleanliness, Atmosphere, Maintenance, Aesthetics, General","good (27), quiet (9), tidy (9), lovely (9), great (9), safe (6), easy (3)",17
Enfield,Southgate Library,Library,51.63039259999999,-0.1283093,4.4,0.6324816823005677,0.2,0.06666666666666667,0.7333333333333333,"Noise, Cleanliness, Atmosphere, Maintenance, General","safe (12), crowded (9), worst (9), loud (9), great (9), rubbish (9), excellent (9), bad (9), noisy (6), cars (6), calm (6), cozy (6), tidy (3)",14
Enfield,Coombes Croft Library,Library,51.6035474,-0.06824179999999999,4.0,0.612009851137797,0.2,0.4,0.4,"Accessibility, Noise, Cleanliness, Atmosphere, Maintenance, General","messy (18), great (18), horrible (18), far (9), poor (9), old (9), loud (9), tidy (6), quiet (6), calm (6), safe (3), lovely (3)",44
Enfield,Five Pillars Taekwon-Do,School,51.6712141,-0.0311363,5.0,0.7627718766530355,0.0,0.2,0.8,"Maintenance, Comfort, Safety, General","great (27), messy (18), amazing (18), new (9), tidy (9), welcoming (9), dangerous (9), enjoyable (9), safe (6), noisy (3), walking (3), protected (3)",68
Enfield,Chickenshed,University,51.6444034,-0.145136,4.7,0.7469612220923106,0.0,0.3333333333333333,0.6666666666666666,"Accessibility, Noise, Comfort, Cleanliness, Maintenance, Aesthetics, General","great (51), clean (18), fantastic (18), far (15), safe (12), good (12), welcoming (9), spacious (9), accessible (9), beautiful (9), new (9), tidy (9), old (9), wonderful (9), lovely (6), dark (6), dead (6), parking (3), lively (3), crowded (3), lighting (3), music (3), messy (3)",384
Enfield,Best Tutors,School,51.61372950000001,-0.0634935,3.8,0.7917747060457866,0.0,0.0,1.0,"Maintenance, General","bad (18), improved (18), safe (12), poor (9), amazing (9), tidy (9), horrible (9), excellent (9), messy (8), noisy (6)",203
Enfield,Barnet and Southgate College - Southgate Campus,University,51.6301034,-0.1294376,3.7,0.6615788837273916,0.3333333333333333,0.06666666666666667,0.6,"Maintenance, Traffic, Aesthetics, General","good (75), messy (42), tidy (33), old (9), driving (9), lovely (6), noisy (3)",129
Enfield,Platinum Performing Arts,University,51.6159002,-0.0801209,5.0,0.8746238907178243,0.0,0.0,1.0,"Accessibility, Safety, Atmosphere, Maintenance, General","great (54), amazing (33), safe (9), accessible (9), new (9), active (9), fantastic (9), old (9), tidy (6), lovely (4), cars (3)",46
Enfield,Oak Hill College,University,51.6406019,-0.1465231,5.0,0.6559126277764639,0.0,0.4666666666666667,0.5333333333333333,"Aesthetics, Maintenance, Traffic, General","great (27), driving (9), beautiful (9), safe (6), fantastic (6), lively (3)",29
Enfield,Holistica Consulting,University,51.6291034,-0.0105625,4.5,0.8704174757003784,0.0,0.0,1.0,,,2
Enfield,London Business E-School,University,51.6251072,-0.1505041,5.0,0.8178892930348715,0.0,0.0,1.0,General,"good (9), lovely (2)",1
Enfield,Haringey Sixth Form College,University,51.606372,-0.07388730000000002,4.0,0.6413095235824585,0.0,0.4666666666666667,0.5333333333333333,"Comfort, Accessibility, General","great (21), tidy (18), good (12), uncomfortable (9), far (9)",65
Enfield,Unique Sixth Form,University,51.6137784,-0.0634736,4.3,0.726682968934377,0.0,0.4,0.6,Maintenance,"noisy (9), messy (9), roomy (3), tidy (3)",20
Enfield,North Middlesex University Hospital,Hospital,51.6131618,-0.0735832,2.3,0.7502455532550811,0.2,0.0,0.8,"Maintenance, General, Traffic, Safety","tidy (21), security (18), good (15), messy (12), bad (12), worst (9), ugly (9), parking (9), amazing (6), safe (6), noisy (3), dark (3), dead (3), easy (3), roomy (3), cars (3)",1635
Enfield,NL Clinic,Beauty Salon,51.63078799999999,-0.1280329,4.1,0.8467443188031515,0.0,0.0,1.0,"Aesthetics, Comfort, Traffic, General","comfortable (18), lovely (18), walking (9), messy (9), amazing (9), welcoming (9), wonderful (9), safe (6), tidy (3)",927
Enfield,Maternity Unit,Hospital,51.6135996,-0.0727728,2.8,0.7342883725961049,0.0,0.2,0.8,"Accessibility, Cleanliness, Maintenance, Traffic, General","bad (21), good (18), noisy (15), tidy (12), parking (9), messy (9), rubbish (9), safe (6), far (6), wonderful (3), attractive (3)",68
Enfield,East Barnet Health Centre,Hospital,51.6467222,-0.1667039,3.4,0.7725701073805491,0.0,0.4,0.6,"Aesthetics, General","good (18), messy (12), amazing (9), great (9), lovely (6), tidy (3)",284
Enfield,RSA Interpretation Centre,Museum,51.668302,-0.0164949,4.8,0.508737153477139,0.6666666666666666,0.0,0.3333333333333333,"Maintenance, General","good (12), safe (9), bad (9), tidy (3)",4
Enfield,Leontia Gallery,Art Gallery,51.61126609999999,-0.1187694,5.0,0.538528839747111,0.0,1.0,0.0,,,1
Enfield,OOF Gallery,Art Gallery,51.60288680000001,-0.0674779,4.8,0.5906066576639811,0.2,0.26666666666666666,0.5333333333333333,"Comfort, General","excellent (9), great (9), good (9), welcoming (6), noisy (3)",5
Enfield,LEDLEY KING MURAL,Art Gallery,51.6016619,-0.06854640000000001,4.4,0.7051885724067688,0.0,0.1111111111111111,0.8888888888888888,General,"great (9), amazing (6)",8
Enfield,Royal Gunpowder Mills,Tourist Attraction,51.69135560000001,-0.008942800000000002,4.5,0.6529093563556672,0.2,0.26666666666666666,0.5333333333333333,"Atmosphere, Maintenance, Aesthetics, Traffic, General","great (24), parking (18), safe (15), good (15), old (12), cars (9), pretty (9), walking (9), unsafe (3), tidy (3), roomy (3), dark (3), dead (3)",475
Enfield,Woodside Park,Park,51.6040465,-0.1108156,4.2,0.5837852279345195,0.2,0.5333333333333333,0.26666666666666666,"Accessibility, Noise, Atmosphere, Maintenance, Traffic, General","parking (33), good (12), near (12), busy (9), cars (9), driving (9), connected (9), new (9), walking (7), safe (6), quiet (6), messy (5), dark (3), dead (3), wonderful (3)",336
Enfield,Garfield Road Car Park,Transit Station,51.631587,0.0069652,5.0,0.303712139527003,1.0,0.0,0.0,,safe (6),1
Enfield,Seven Sisters Station (Stop E),Bus Station,51.58402999999999,-0.07411699999999999,3.9,0.4705382287502289,0.0,1.0,0.0,General,"good (9), safe (6)",9
Enfield,Wood Green,Subway Station,51.5974392,-0.1097711,4.1,0.4748604933420817,0.4,0.4,0.2,"Accessibility, Safety, Noise, Cleanliness, Atmosphere, Maintenance, Traffic, General","safe (21), great (18), busy (18), parking (15), noisy (12), police (9), vibrant (9), old (9), far (9), central (9), music (9), calm (9), crowded (9), amazing (9), clean (9), walking (6), cars (3), lovely (3), updated (3), near (3)",216
Enfield,Turnpike Lane,Subway Station,51.5903983,-0.1028194,3.9,0.5371907552083334,0.0,0.6,0.4,"Accessibility, Safety, Comfort, Cleanliness, Atmosphere, Maintenance, Aesthetics, Traffic, General","clean (27), busy (15), poor (9), beautiful (9), tidy (9), great (9), lively (9), convenient (9), dusty (9), maintained (9), secure (9), dark (9), near (9), easy (9), modern (3), lighting (3), repaired (3), lovely (3), noisy (3), safe (3), cars (3), calm (3), cozy (3)",197
Enfield,Totteridge & Whetstone,Subway Station,51.630241,-0.179144,4.0,0.4675990641117096,0.13333333333333333,0.6666666666666666,0.2,"Cleanliness, Atmosphere, Accessibility, General","accessible (18), noisy (9), parking (9), great (9), relaxing (7), clean (6), safe (6), walking (6), tidy (3), active (3), good (3), cars (3), busy (3)",42
Enfield,Seven Sisters,Subway Station,51.5834153,-0.07243659999999998,3.9,0.624380228916804,0.13333333333333333,0.26666666666666666,0.6,"Maintenance, Accessibility","convenient (18), central (9), good (3), noisy (3), dark (3), dead (3)",86
Enfield,High Barnet,Subway Station,51.65032830000001,-0.19391,4.3,0.5791119813919068,0.13333333333333333,0.4666666666666667,0.4,"Cleanliness, Traffic, Accessibility, General","parking (33), easy (18), central (18), clean (9), near (9), perfect (9), good (9), tidy (6), dark (3), dead (3), safe (3)",118
Enfield,Tottenham Hale,Subway Station,51.5884677,-0.06033870000000001,3.6,0.7054674744606018,0.13333333333333333,0.2,0.6666666666666666,"Cleanliness, Accessibility, General","easy (30), near (12), central (9), busy (9), convenient (9), great (9), perfect (9), worst (9), good (6), clean (6), crowded (3), parking (3)",117
Enfield,Blackhorse Road,Subway Station,51.5869505,-0.04098399999999999,3.9,0.4948037087917328,0.2,0.6,0.2,"Accessibility, Cleanliness, Atmosphere, Maintenance, Traffic, General","good (21), busy (15), connected (12), easy (12), modern (9), clean (9), bad (9), crowded (9), convenient (9), accessible (9), tidy (6), safe (3), walking (3), near (3), noisy (3)",123
Enfield,Tottenham Hale Retail Park,Shopping Mall,51.5870316,-0.06100299999999999,4.1,0.6355457961559295,0.0,0.7333333333333333,0.26666666666666666,"Accessibility, Safety, Noise, Comfort, Traffic, General","parking (33), traffic (18), lovely (12), bad (9), busy (9), near (9), tight (9), tidy (9), noisy (9), security (9), great (9), poor (9), safe (6), messy (3), convenient (2)",8502
Enfield,Friern Bridge Retail Park,Shopping Mall,51.61103649999999,-0.1431212,4.1,0.6079420487085978,0.0,0.5333333333333333,0.4666666666666667,"Accessibility, Safety, Comfort, Maintenance, Aesthetics, Traffic, General","parking (42), good (30), safe (27), beautiful (27), accessible (9), great (9), lovely (9), pedestrian (9), dark (9), charming (9), spacious (9), new (9), bad (6), busy (6)",3340
Enfield,Alexandra Palace,Tourist Attraction,51.5940573,-0.1297604,4.6,0.7719452540079753,0.0,0.2,0.8,"Aesthetics, Maintenance, Atmosphere, General","great (27), lovely (24), stunning (18), amazing (18), walking (9), empty (9), worst (9), parking (9), modern (9), scenic (9), good (6), cars (6), active (3), peaceful (3), noisy (3), safe (3)",22202
Enfield,Jurassic Falls Adventure Golf,Tourist Attraction,51.6048076,-0.0245295,4.3,0.5955781618754069,0.0,0.6,0.4,"Noise, Cleanliness, Atmosphere, Maintenance, Traffic, General","great (45), maintained (18), parking (12), busy (9), amazing (9), walking (9), safe (9), broken (9), quiet (9), tidy (9), old (9), bad (9), new (9), good (9), messy (6), clean (6), lovely (3), relaxing (3), cars (3)",791
Enfield,Waltham Abbey Gatehouse and Bridge,Tourist Attraction,51.6884525,-0.003782000000000001,4.6,0.6069480856259664,0.0,0.4,0.6,"Noise, Atmosphere, Maintenance, Aesthetics, Traffic, General","beautiful (36), parking (15), peaceful (9), great (9), lovely (9), cars (6), stunning (6), flow (3), walking (3), tidy (3), safe (3)",238
Enfield,Westbury Banks Nature Reserve,Park,51.5927113,-0.0997614,4.6,0.6025988310575485,0.16666666666666666,0.25,0.5833333333333334,"Aesthetics, Noise, Atmosphere, General","fantastic (9), amazing (9), peaceful (9), lovely (3)",5
Enfield,William Morris Gallery,Museum,51.5912678,-0.02028489999999999,4.7,0.5564645429452261,0.0,0.7333333333333333,0.26666666666666666,"Accessibility, Maintenance, Traffic, Aesthetics, General","parking (27), beautiful (18), lovely (15), safe (15), fantastic (9), good (9), near (9), excellent (9), walking (6), far (6), noisy (3)",1940
Enfield,Whetstone Stray,Park,51.6276483,-0.1817887,4.5,0.5455966313680013,0.06666666666666667,0.6,0.3333333333333333,"Accessibility, Safety, Cleanliness, Aesthetics, Traffic, General","rubbish (18), walking (11), good (9), beautiful (9), lighting (9), cyclists (9), near (9), clean (9), noisy (6), safe (3), messy (3), bikes (3), upgraded (3)",151
Enfield,Monken Hadley Common,Natural Feature,51.66088999999999,-0.1845948,4.8,0.7481406052907308,0.0,0.2,0.8,"Aesthetics, Cleanliness, Traffic, General","lovely (21), parking (12), muddy (9), walking (7), safe (6), wonderful (6), noisy (3), tidy (3), fantastic (3)",39
Enfield,"Ainslie Wood, London",Natural Feature,51.6106777,-0.0121397,4.5,0.5302364230155945,0.0,0.6666666666666666,0.3333333333333333,,walking (6),13
Enfield,The Highams Park,Natural Feature,51.61429709999999,0.009565599999999999,4.7,0.7465894063313802,0.0,0.13333333333333333,0.8666666666666667,"Aesthetics, Accessibility, General","lovely (19), parking (9), perfect (9), walking (9), great (9), near (9), stunning (9), beautiful (9), safe (6), relaxing (3), good (3)",30
Enfield,Coldfall Wood,Natural Feature,51.5970841,-0.1583464,4.5,0.6129505634307861,0.0,0.6,0.4,"Maintenance, Aesthetics, General","great (27), lovely (21), walking (9), good (9), old (9), tidy (3)",63
Enfield,Lockwood Reservoir,Natural Feature,51.5945495,-0.0478131,4.1,0.6413478751977285,0.0,0.0,1.0,General,"great (9), tidy (6), walking (3)",7
Enfield,High Maynard Reservoir,Natural Feature,51.5902744,-0.0459662,4.0,0.5522700846195221,0.0,0.6666666666666666,0.3333333333333333,General,"amazing (3), good (3)",2
Enfield,Cheshunt Cemetery,Cemetery,51.7009174,-0.0557279,4.4,0.6038091639677684,0.2,0.4,0.4,"Accessibility, Noise, Comfort, Cleanliness, Atmosphere, Maintenance, Traffic, Aesthetics, General","lovely (22), peaceful (18), tidy (18), safe (12), tight (9), beautiful (9), wonderful (9), dead (9), new (9), clean (9), near (5), noisy (3), flow (3), parking (3), lively (3)",9
Enfield,Tottenham Cemetery,Cemetery,51.6027609,-0.07755939999999999,4.3,0.5970693588256836,0.0,0.4666666666666667,0.5333333333333333,"Accessibility, Noise, Cleanliness, Atmosphere, Maintenance, Traffic, General","quiet (27), peaceful (18), safe (18), walking (15), tidy (15), good (12), difficult (9), clean (9), calm (9), old (3), parking (3)",46
Enfield,Trent Park Cemetery,Cemetery,51.6529348,-0.1499561,2.6,0.5436634302139283,0.3333333333333333,0.26666666666666666,0.4,"Accessibility, Cleanliness, Atmosphere, Maintenance, Aesthetics, Traffic","lovely (15), empty (9), tidy (9), messy (9), beautiful (9), filthy (9), old (9), central (9), flow (6), noisy (6), parking (3), safe (3), dark (3), dead (3), clean (3), broken (3)",10
Enfield,Willoughby Methodist Church,Church,51.5880607,-0.103882,4.6,0.5496342529853185,0.4,0.06666666666666667,0.5333333333333333,"Maintenance, General","old (18), good (9), great (6)",8
Enfield,Spruce Hill Baptist Church,Church,51.59655689999999,-0.0090719,4.2,0.49585791097746956,0.2222222222222222,0.5555555555555556,0.2222222222222222,"Aesthetics, Comfort, Atmosphere","lively (9), inviting (9), lovely (6), walking (4), safe (3)",5
Enfield,North Chingford Methodist Church,Church,51.63122180000001,0.0043926,4.7,0.5810859620571136,0.0,0.6,0.4,"Comfort, General","good (18), welcoming (3)",11
Enfield,Holy Trinity Lutheran Church,Church,51.5868861,-0.06768210000000001,3.8,0.6216913627253638,0.2222222222222222,0.1111111111111111,0.6666666666666666,General,excellent (9),6
Enfield,Maynard Place Parking,Parking,51.70874430000001,-0.1132295,5.0,0.6323982278505961,0.0,0.0,1.0,"Traffic, General","great (9), parking (6)",1
Enfield,The Mall West Car Park,Parking,51.5949657,-0.1108142,4.0,0.7242309053738912,0.0,0.4,0.6,"Safety, Maintenance, Aesthetics, Traffic, General","parking (21), terrible (18), tidy (9), horrible (9), pedestrian (9), safe (9), noisy (6), cars (6), broken (6), bad (3), appealing (3), walking (3), messy (3)",253
Enfield,Towndene Car Park,Parking,51.6308216,-0.1742118,1.0,0.8707091331481933,0.0,0.0,1.0,"Traffic, Atmosphere, Accessibility","parking (66), cars (24), tidy (21), empty (9), messy (6), noisy (6), convenient (3), wonderful (3), appealing (3), easy (1)",32
Enfield,PARKUPHERE - The destination website for parking in London,Parking,51.58856309999999,-0.0844003,4.3,0.8288238366444906,0.0,0.13333333333333333,0.8666666666666667,"Accessibility, Atmosphere, Aesthetics, Traffic, General","great (33), parking (27), easy (21), good (18), noisy (12), busy (9), perfect (9), fantastic (9), lovely (9), near (3), walking (3), tidy (3), cars (3)",11
Enfield,Totteridge & Whetstone Station Car Park,Parking,51.63139019999999,-0.178801,3.5,0.5350279072920482,0.4,0.3333333333333333,0.26666666666666666,"Maintenance, Traffic, Aesthetics, Accessibility","parking (91), cars (27), driving (9), easy (9), noisy (6), updated (3), messy (3), tidy (3)",23
Enfield,High Barnet Station (LUL),Parking,51.6502805,-0.1939535,4.0,0.5794922510782877,0.06666666666666667,0.5333333333333333,0.4,"Accessibility, Comfort, Cleanliness, Maintenance, Traffic, General","parking (33), great (18), convenient (12), old (9), fantastic (9), clean (9), modern (9), easy (9), good (9), comfortable (9), terrible (9), excellent (9), near (9), cars (6), noisy (3), improved (3), lovely (3), safe (3)",306
Enfield,Wood Green Library,Library,51.5954419,-0.1095723,3.7,0.6547984619935353,0.0,0.4,0.6,"Noise, Cleanliness, Atmosphere, Maintenance, Traffic, General","quiet (21), safe (15), walking (9), busy (9), parking (9), roomy (9), new (9), wonderful (9), great (9), amazing (9), dirty (9), clean (9), good (3)",201
Enfield,Marcus Garvey Library,Library,51.5879382,-0.0735676,3.9,0.5024114668369293,0.2,0.4,0.4,"Accessibility, Safety, Noise, Comfort, Atmosphere, Maintenance, Traffic, General","security (27), safe (21), peaceful (18), excellent (9), quiet (9), good (9), busy (9), active (9), comfortable (9), updated (6), tidy (3), great (3), pleasant (3), noisy (3), messy (3), lively (3), near (3)",95
Enfield,Chingford Library,Library,51.6315088,0.0028544,4.0,0.506273090839386,0.2,0.6,0.2,"Comfort, Cleanliness, Maintenance, Traffic, General","great (18), welcoming (9), good (9), clean (9), parking (9), old (9), messy (6), walking (6), safe (3), noisy (3)",50
Enfield,Cuffley Library,Library,51.7084096,-0.1128616,5.0,0.6582961678504944,0.0,0.0,1.0,General,"good (9), fantastic (9)",2
Enfield,Higham Hill Library,Library,51.595865,-0.027342,4.5,0.564076715707779,0.0,0.8,0.2,"Accessibility, Noise, Cleanliness, Atmosphere, Maintenance, Aesthetics, Traffic, General","peaceful (18), great (18), lovely (9), lively (9), easy (9), central (9), clean (9), old (9), busy (9), safe (6), amazing (6), messy (3)",38
Enfield,South Friern Library,Library,51.6006098,-0.1480598,4.1,0.5324964185555776,0.06666666666666667,0.7333333333333333,0.2,"Maintenance, Aesthetics, General","good (27), safe (12), lovely (9), modern (9), beautiful (9), old (9), tidy (6), lighting (3), messy (3)",19
Enfield,Hale End Library,Library,51.60933720000001,0.0011061,4.5,0.7410639762878418,0.0,0.0,1.0,"Maintenance, General","great (18), wonderful (9), fantastic (9), messy (3), lovely (3), safe (3), cars (3), parking (3)",41
Enfield,Bowes Road Library,Library,51.61538679999999,-0.1302745,4.1,0.6566326936086019,0.0,0.3333333333333333,0.6666666666666666,"Accessibility, Noise, Cleanliness, Atmosphere, Maintenance, Aesthetics, Traffic, General","great (24), quiet (18), tidy (18), good (18), safe (12), lovely (9), accessible (9), maintained (9), far (9), busy (9), dead (9), noisy (6), parking (3), messy (3)",9
Enfield,Saint Mary's Church of England Infant School,School,51.5872001,-0.1148153,5.0,0.8586541215578715,0.0,0.0,1.0,"Maintenance, Aesthetics, Accessibility, General","lovely (10), great (9), new (9), roomy (3), safe (3), difficult (3)",1
Enfield,Nuffield Health Friern Barnet Fitness & Wellbeing Gym,Gym,51.6133309,-0.1475771,3.3,0.6837563633918762,0.0,0.4,0.6,"Accessibility, Comfort, Cleanliness, Atmosphere, Maintenance, Aesthetics, Traffic, General","safe (33), fantastic (27), good (21), poor (21), clean (18), great (18), broken (18), lovely (9), busy (9), excellent (9), far (9), tidy (9), outdated (9), walking (9), pretty (9), dirty (9), maintained (9), awful (9), old (9), filthy (9), rubbish (9), welcoming (9), roomy (6), noisy (6), wonderful (6), dark (3), dead (3), messy (3)",256
Enfield,"Capital City College Tottenham centre (formerly The College of Haringey, Enfield and North East London - Tottenham Centre)",University,51.586632,-0.07180560000000002,3.6,0.5535531838734945,0.4,0.2,0.4,"Accessibility, Noise, Comfort, Atmosphere, Maintenance, Aesthetics, General","messy (48), bad (45), tidy (21), noisy (15), comfortable (9), difficult (9), excellent (9), awful (9), shouting (9), safe (6), good (6), active (3)",322
Enfield,North London College,University,51.5901206,-0.06988549999999999,3.8,0.7591268221537272,0.0,0.2,0.8,General,"excellent (18), great (18), noisy (6), neat (3), near (3), new (3)",16
Enfield,London College Of Law,University,51.5919967,-0.0561801,4.0,0.506262997786204,0.0,1.0,0.0,General,good (9),4
Enfield,Gill McGregor,University,51.706884,-0.0736902,5.0,0.7527632912000021,0.0,0.0,1.0,Aesthetics,"safe (9), stunning (9), lovely (9), tidy (3)",1
Enfield,London College of Graphic Design and Art (LCGA),University,51.5964059,-0.1137948,5.0,0.8223283886909485,0.0,0.0,1.0,,,2
Enfield,St Ann's Hospital,Hospital,51.58050280000001,-0.08891690000000001,2.6,0.7893923342227935,0.0,0.13333333333333333,0.8666666666666667,"Accessibility, Maintenance, Aesthetics, Traffic, General","lovely (18), messy (12), poor (9), disappointing (9), new (9), difficult (9), fantastic (9), safe (6), busy (3), tidy (3), noisy (3), flow (1)",94
Enfield,Lordship Lane Primary Care Centre,Hospital,51.59727110000001,-0.08055949999999999,3.4,0.7614576598008473,0.0,0.2,0.8,"Accessibility, Cleanliness, Aesthetics, Traffic, General","awful (18), wonderful (18), messy (12), great (9), clean (9), parking (9), easy (9), lovely (9), tidy (6), safe (6), cars (3)",87
Enfield,Lloyd Park Centre,Museum,51.59360699999999,-0.0211826,4.5,0.7079094926516215,0.0,0.06666666666666667,0.9333333333333333,"Maintenance, Aesthetics, General","great (54), lovely (21), old (9), beautiful (9), new (9), good (9), tidy (6), parking (6), muddy (3), walking (3), safe (3)",845
Enfield,Epping Forest District Museum,Museum,51.6866851,0.0003219,4.7,0.6194165746370951,0.0,0.4,0.6,Maintenance,"old (9), tidy (6), safe (3), good (3)",125
Enfield,Queen Elizabeth's Hunting Lodge,Tourist Attraction,51.6344536,0.0175728,4.5,0.6268310606479645,0.0,0.4666666666666667,0.5333333333333333,"Accessibility, Cleanliness, Maintenance, Aesthetics, General","great (18), lovely (9), maintained (9), renovated (9), far (9), good (3), messy (3), walking (3), beautiful (3), near (3), safe (3)",412
Enfield,Castle TimJim,Museum,51.60088980000001,-0.1105945,3.2,0.5594155569871266,0.06666666666666667,0.6,0.3333333333333333,"Maintenance, Aesthetics, Accessibility, General","beautiful (9), excellent (9), pretty (9), good (9), messy (3), wonderful (3), tidy (3), difficult (3)",10
Enfield,Markfield Beam Engine and Museum,Museum,51.5818538,-0.06147159999999999,4.6,0.6386307954788208,0.0,0.4,0.6,"Maintenance, Aesthetics, Accessibility, General","safe (12), perfect (9), great (9), wonderful (9), lovely (9), parking (6), amazing (3), near (3)",165
Enfield,Apple Tree & Blackberry Orchard Green,Museum,51.58455799999999,-0.1159989,3.0,0.45883028705914813,0.0,1.0,0.0,Safety,"safe (3), neglected (3), noisy (3)",1
Enfield,The Essential School of Painting - London Art School,Art Gallery,51.59346049999999,-0.1136821,5.0,0.7121668179829915,0.0,0.4,0.6,"Accessibility, Comfort, Cleanliness, Atmosphere, Maintenance, General","messy (30), rubbish (9), wonderful (9), excellent (9), difficult (9), chaotic (9), enjoyable (9), great (9), amazing (6), safe (6), tidy (3), noisy (3), dark (3), dead (3), lovely (3), lively (3)",22
Enfield,The Botanical Gallery,Art Gallery,51.62164309999999,-0.1762968,4.7,0.7400625944137573,0.0,0.0,1.0,,,3
Enfield,Winns Gallery/Artists' Studios,Art Gallery,51.59390070000001,-0.0213476,4.0,0.4570808907349904,0.4,0.6,0.0,"Accessibility, Safety, Maintenance, Aesthetics, General","great (63), parking (15), lighting (12), fantastic (12), good (9), lovely (9), near (9), disappointing (9), noisy (6), new (6), wonderful (6), beautiful (3), walking (3), modern (3), tidy (3)",13
Enfield,Forty Hall Country Park,Park,51.67146270000001,-0.06981000000000001,4.7,0.632141242424647,0.0,0.3333333333333333,0.6666666666666666,"Accessibility, Noise, Atmosphere, Maintenance, Traffic, Aesthetics, General","parking (32), near (18), far (15), walking (10), easy (9), accessible (9), beautiful (9), new (9), stunning (9), lovely (9), quiet (9), busy (9), great (9), peaceful (6), bikes (3), bad (3), lighting (3), cars (3)",1109
Enfield,Whitewebb Forest Pond,Park,51.6804634,-0.0807134,4.5,0.5740600466728211,0.06666666666666667,0.5333333333333333,0.4,"Noise, Cleanliness, Atmosphere, Maintenance, Aesthetics, Traffic, General","lovely (24), peaceful (18), good (9), quiet (9), broken (9), great (9), beautiful (9), busy (9), pretty (9), muddy (9), walking (6), safe (6), clean (3)",57
Enfield,Archers Wood,Park,51.6777999,-0.06986579999999999,4.5,0.6120569109916687,0.0,0.5,0.5,"Accessibility, Noise, Cleanliness, Atmosphere, Aesthetics, Traffic, General","lovely (9), parking (9), quiet (9), muddy (9), great (9), near (3), roomy (3), safe (3), walking (3)",4
Enfield,Greenfields Landscapes,Park,51.66113970000001,-0.09963490000000001,5.0,0.0,0.0,0.0,0.0,,,1
Enfield,"Collins Funeral Services, Enfield",Funeral Home,51.660144,-0.08705899999999998,5.0,0.6877768874168396,0.0,0.4,0.6,"Comfort, Aesthetics, Accessibility, General","beautiful (18), difficult (18), comfortable (18), wonderful (18), amazing (15), excellent (9), tidy (9), messy (9), safe (6), cozy (3), noisy (3)",24
Enfield,FK Domestics Ltd | Domestic Cleaning Company London,Laundry,51.6638883,-0.08188120000000002,4.0,0.7091797312100728,0.0,0.4,0.6,"Accessibility, Cleanliness, Atmosphere, Traffic, General","clean (101), great (36), good (27), spotless (18), busy (18), tidy (12), amazing (9), far (9), bad (9), excellent (9), messy (3), noisy (3), wonderful (3)",69
Enfield,Fairview New Homes Ltd,General Contractor,51.6637044,-0.08004649999999999,4.7,0.7374634345372518,0.0,0.2,0.8,"Accessibility, Safety, Atmosphere, Maintenance, Aesthetics, General","great (27), easy (18), new (18), messy (15), excellent (9), far (9), active (6), stunning (6), safe (3), tidy (3), noisy (3)",739
Enfield,James Whitaker Hair,Hair Care,51.66387,-0.08056859999999999,4.8,0.6567771037419637,0.0,0.4,0.6,"Comfort, Cleanliness, General","great (36), amazing (18), tidy (12), messy (12), welcoming (9), clean (9), good (9), safe (3)",76
Enfield,Conway Gardens / Clay Hill,Transit Station,51.668556,-0.07657699999999999,5.0,0.0,0.0,0.0,0.0,,,1
Enfield,Crews Hill Pumpkin Patch,Tourist Attraction,51.68296899999999,-0.09928260000000001,3.5,0.5560947259267172,0.06666666666666667,0.7333333333333333,0.2,"Accessibility, General","good (15), amazing (9), excellent (9), disappointing (9), far (9), safe (6), tidy (6), walking (3), lovely (3), noisy (3), messy (3)",23
Enfield,Home Plantation,Natural Feature,51.6906454,-0.0819607,5.0,0.0,0.0,0.0,0.0,,,1
Enfield,Home Plantation,Natural Feature,51.6906454,-0.0819607,4.0,0.5487260818481445,0.0,1.0,0.0,General,good (9),2
Enfield,Cinder Ash,Natural Feature,51.6891567,-0.09064,3.9,0.6783038477102915,0.0,0.5,0.5,General,"good (9), great (9), excellent (9)",14
Enfield,Jesus Church Forty Hill,Church,51.6708884,-0.0634911,5.0,0.4640183125933011,0.3333333333333333,0.4166666666666667,0.25,"Noise, Atmosphere, Accessibility, General","easy (9), quiet (6), perfect (3), parking (3), connected (3)",8
Enfield,"St Luke’s, Clay Hill",Church,51.6675553,-0.0846056,4.5,0.5487335205078125,0.06666666666666667,0.7333333333333333,0.2,"Comfort, Atmosphere, General","good (27), welcoming (18), active (9), excellent (9), fantastic (6), safe (3)",11
Enfield,Juno Pen Church of God,Church,51.6641608,-0.08362789999999999,2.0,0.24574874341487885,1.0,0.0,0.0,,,1
Enfield,Community of Christ Enfield,Church,51.6638302,-0.07936409999999999,5.0,0.0,0.0,0.0,0.0,,,1
Enfield,"St John the Baptist, Clay Hill",Church,51.6733352,-0.0948123,4.8,0.5819202164808909,0.0,0.6666666666666666,0.3333333333333333,"Noise, Atmosphere, Aesthetics, General","beautiful (18), peaceful (9), gorgeous (9), wonderful (6), walking (3)",5
Enfield,"St Michael and All Angels Church, Enfield",Church,51.6611547,-0.087249,4.5,0.693654191493988,0.0,0.2,0.8,"Noise, Comfort, Atmosphere, Maintenance, Aesthetics, General","welcoming (18), old (9), beautiful (9), excellent (9), quiet (3)",24
Enfield,"Christ Church URC, Enfield",Church,51.65808200000001,-0.08846470000000001,4.4,0.6845478971799215,0.0,0.3333333333333333,0.6666666666666666,"Noise, Comfort, Atmosphere, Maintenance, Aesthetics, General","safe (12), peaceful (12), great (9), beautiful (9), stunning (9), serene (9), welcoming (9), lovely (6), tidy (3), noisy (3), connected (3), good (3)",17
Enfield,London Christian Fellowship Church,Church,51.6781521,-0.05663539999999999,5.0,0.5541049391031265,0.16666666666666666,0.3333333333333333,0.5,Traffic,"parking (9), cars (9), walking (3)",11
Enfield,London Miracle Center (AFM) Apostolic Faith Missions UK,Church,51.6542722,-0.08327799999999999,4.9,0.7075345873832702,0.0,0.26666666666666666,0.7333333333333333,General,"lovely (9), wonderful (9), great (9)",19
Enfield,Whitewebbs Park Car Park,Parking,51.6793189,-0.07938650000000001,4.2,0.6626158634821574,0.06666666666666667,0.4,0.5333333333333333,"Accessibility, Safety, Atmosphere, Maintenance, Traffic, Aesthetics, General","old (18), great (9), busy (9), safe (9), awful (9), unsafe (9), beautiful (9), wonderful (6), walking (4), parking (3), good (3), noisy (3), tidy (3), lovely (3), fantastic (3)",14
Enfield,Forty Hall Parking,Parking,51.6700051,-0.06592570000000002,4.4,0.6018744111061096,0.0,0.6666666666666666,0.3333333333333333,"Accessibility, Comfort, Cleanliness, Maintenance, Traffic, Aesthetics, General","parking (39), lovely (27), safe (15), walking (15), difficult (9), uncomfortable (9), old (9), perfect (9), clean (9), far (6), cars (6)",46
Enfield,Whitewebbs Lane Car Park,Parking,51.6817818,-0.07963579999999999,5.0,0.5653965075810751,0.0,1.0,0.0,,,1
Enfield,MershyInternational,Parking,51.6652058,-0.06377429999999999,3.0,0.44733978311220807,0.6666666666666666,0.0,0.3333333333333333,,"cars (3), parking (3), messy (2)",2
Enfield,Myddelton House Car Park,Parking,51.67570260000001,-0.0604489,4.0,0.5056868029965295,0.0,0.8888888888888888,0.1111111111111111,"Maintenance, Traffic, General","parking (21), cars (3), bad (3)",7
Enfield,Chase Farm Multi Storey Car Park,Parking,51.666251,-0.1051323,4.5,0.5772523085276285,0.0,0.4,0.6,"Accessibility, Safety, Comfort, Maintenance, Traffic, General","parking (63), cars (27), security (27), old (18), great (9), good (9), tight (9), tidy (9), far (9), messy (3), bad (3), walking (3)",30
Enfield,Head Start Crews Hill Day Nursery & Pre-School,School,51.67498819999999,-0.09609899999999999,4.4,0.8552191972732544,0.0,0.0,1.0,"Accessibility, Safety, Comfort, Maintenance, Aesthetics, General","great (45), amazing (27), fantastic (18), lovely (18), safe (15), good (12), old (9), easy (9), spacious (9), perfect (9), updated (9), roomy (6), tidy (6), pretty (6), lighting (3), cars (3), parking (3), noisy (3), messy (3)",7
Enfield,Montessori by Busy Bees Enfield,School,51.66654750000001,-0.0735147,3.9,0.6640874743461609,0.0,0.2,0.8,"Accessibility, Safety, Comfort, Cleanliness, Atmosphere, Maintenance, Aesthetics, Traffic, General","new (18), safe (18), clean (15), tidy (12), busy (9), welcoming (9), messy (9), lovely (9), old (9), far (9), easy (9), excellent (9), good (6), noisy (3)",15
Enfield,Gina's Montessori Nursery School,School,51.6694092,-0.08065989999999999,4.8,0.8666584094365438,0.0,0.0,1.0,General,"wonderful (9), amazing (9), perfect (9), safe (3), tidy (3)",4
Enfield,Gillian's Riding School,School,51.6727643,-0.08848750000000001,4.0,0.6706507245699564,0.0,0.4,0.6,"Accessibility, Comfort, Atmosphere, Maintenance, Traffic, Aesthetics, General","safe (30), lovely (28), good (24), fantastic (24), tidy (18), great (18), wonderful (18), beautiful (18), active (9), busy (9), welcoming (9), old (9), improved (9), new (9), parking (3), lively (3)",95
Enfield,"The Oaks, Chase Farm",Hospital,51.66616210000001,-0.09932759999999999,2.6,0.7631224393844604,0.0,0.3333333333333333,0.6666666666666666,Maintenance,"roomy (3), noisy (3), tidy (3)",5
Enfield,Endoscopy Unit,Hospital,51.6666688,-0.1039997,5.0,0.822669631905026,0.0,0.0,1.0,"Accessibility, General","amazing (9), excellent (9), far (6), messy (3)",3
Enfield,GBL Landscapes,Park,51.69962779999999,-0.049759,4.9,0.8444151600201925,0.0,0.0,1.0,"Accessibility, Comfort, Cleanliness, Maintenance, Aesthetics, General","new (81), tidy (27), fantastic (18), messy (18), lovely (12), pleasant (9), excellent (9), easy (9), poor (9), enjoyable (9), old (9), beautiful (9), lively (3), remote (3), good (3), clean (3), noisy (3), damaged (3)",105
Enfield,Grow Cheshunt,Park,51.703985,-0.05591520000000001,4.8,0.5727005978425344,0.0,0.8,0.2,"Comfort, Aesthetics, Safety, General","lovely (24), great (18), good (15), safe (9), enjoyable (9), dark (9), cozy (3), noisy (3), lively (3)",11
Enfield,Albany Park,Park,51.6669242,-0.0329622,4.1,0.5444258868694305,0.2,0.4,0.4,"Noise, Cleanliness, Atmosphere, Maintenance, Aesthetics, Traffic, General","lovely (15), parking (12), walking (12), improved (9), peaceful (9), maintained (9), serene (9), perfect (9), great (9), beautiful (9), clean (9), rubbish (9), amazing (9), safe (6), relaxing (3)",627
Enfield,Turkey Street Station (Stop G),Bus Station,51.670357,-0.04099700000000001,4.0,0.38454920053482056,1.0,0.0,0.0,,busy (3),3
Enfield,Turkey Street Station (Stop L),Bus Station,51.671299,-0.04029100000000001,3.8,0.32382304469744366,1.0,0.0,0.0,,busy (3),5
Enfield,Enfield Lock Station (Stop B),Bus Station,51.67126799999999,-0.029764,2.5,0.6328223745028178,0.0,0.0,1.0,,"tidy (3), busy (3)",2
Enfield,Cedars Park,Park,51.6917926,-0.0414194,4.6,0.6823964993158976,0.0,0.3333333333333333,0.6666666666666666,"Accessibility, Safety, Noise, Cleanliness, Atmosphere, Maintenance, Aesthetics, Traffic, General","great (54), lovely (30), parking (24), clean (18), safe (15), walking (15), beautiful (9), busy (9), bad (9), calm (9), peaceful (9), old (9), fantastic (9), wonderful (9), easy (9), tidy (6), cars (3)",1589
Enfield,Cedars Nature Centre,Zoo,51.6919542,-0.0404926,4.6,0.6373615105946858,0.0,0.4,0.6,"Accessibility, Noise, Atmosphere, Aesthetics, General","lovely (45), wonderful (27), great (18), good (12), parking (9), peaceful (9), beautiful (9), accessible (9), relaxing (3), safe (3), tidy (3), noisy (3)",342
Enfield,Nursery Plantation,Natural Feature,51.6958944,-0.1085928,3.0,0.4761619170506795,0.0,1.0,0.0,"Accessibility, General","good (18), safe (3), difficult (3)",3
Enfield,Tilekiln Osiers,Natural Feature,51.6904633,-0.1039505,4.1,0.5115978717803955,0.0,1.0,0.0,,,14
Enfield,Tilekiln Osiers,Natural Feature,51.69145469999999,-0.1002575,5.0,0.0,0.0,0.0,0.0,,,1
Enfield,Adath Yisroel Cemetery,Cemetery,51.70086020000001,-0.07792479999999999,4.3,0.6546360022491879,0.0,0.3333333333333333,0.6666666666666666,Aesthetics,beautiful (9),6
Enfield,Union of Orthodox Hebrew Congregation Synagogue,Cemetery,51.7014569,-0.07850399999999999,4.3,0.49946704010168713,0.0,1.0,0.0,"Maintenance, Cleanliness, General","maintained (9), good (9)",4
Enfield,The Space @ St John's Church,Church,51.67518429999999,-0.0517546,4.0,0.650277293390698,0.3333333333333333,0.2222222222222222,0.4444444444444444,"Comfort, Atmosphere, Accessibility, General","welcoming (9), accessible (9), awful (9), safe (6), threatening (3), messy (3)",7
Enfield,Albany Church,Church,51.6686427,-0.0410351,4.0,0.5205748875935873,0.0,1.0,0.0,,safe (3),4
Enfield,"St George’s Church, Freezywater",Church,51.6738247,-0.0390764,4.8,0.7556818207105,0.0,0.2,0.8,"Noise, Comfort, Atmosphere, Aesthetics, General","great (27), welcoming (18), lovely (9), good (9), calm (9), peaceful (9), amazing (9), wonderful (6), fantastic (3)",25
Enfield,Totteridge Road Baptist Church,Church,51.6727407,-0.0361427,4.3,0.5115395029385884,0.13333333333333333,0.8,0.06666666666666667,"Maintenance, Comfort, General","great (18), old (9), excellent (9), welcoming (9), messy (8), tidy (6), crowded (3)",14
Enfield,Waltham Cross Library,Library,51.6867207,-0.0335109,4.1,0.6416977365811666,0.0,0.6,0.4,"Accessibility, Noise, Comfort, Cleanliness, Atmosphere, Aesthetics, General","quiet (27), lovely (9), good (9), neat (9), cozy (6), tidy (3), convenient (3), safe (3)",13
Enfield,St Helier Hall,School,51.6673473,-0.04097459999999999,4.7,0.7892332832018535,0.0,0.2,0.8,"Safety, Comfort, Maintenance, Aesthetics, General","good (12), safe (12), lovely (12), fantastic (9), welcoming (9), old (9), amazing (9), tidy (3), messy (3)",24
Enfield,Furzefield,Transit Station,51.71152499999999,-0.05011899999999999,4.0,0.0,0.0,0.0,0.0,,,1
Enfield,Brookfield Shopping Centre,Shopping Mall,51.7189471,-0.0386405,4.2,0.5260268946488699,0.0,0.8666666666666667,0.13333333333333333,"Accessibility, Noise, Comfort, Atmosphere, Maintenance, Traffic, Aesthetics, General","parking (57), great (36), safe (21), busy (18), good (18), far (12), upgraded (9), poor (9), traffic (9), cramped (9), chaotic (9), new (9), lovely (9), cars (6)",2592
Enfield,Cheshunt Reservoir (North),Natural Feature,51.714716,-0.0439546,5.0,0.6720507641633352,0.0,0.16666666666666666,0.8333333333333334,"Cleanliness, General","clean (9), good (9), parking (3), messy (3)",5
Enfield,Hooksmarsh,Natural Feature,51.7068156,-0.01292,4.9,0.5228878537813823,0.2,0.4666666666666667,0.3333333333333333,"Accessibility, Noise, Comfort, Cleanliness, Atmosphere, Traffic, Aesthetics, General","parking (42), beautiful (18), safe (18), walking (15), cars (9), fantastic (9), difficult (9), tight (9), peaceful (9), good (9), pretty (9), central (9), clean (9), great (9), lovely (6), bikes (3)",18
Enfield,Turnershill Marsh,Natural Feature,51.7041791,-0.0180873,4.0,0.3726205329100291,0.6666666666666666,0.3333333333333333,0.0,Aesthetics,lovely (3),1
Enfield,Cheshunt Lake,Natural Feature,51.7054968,-0.019565,4.8,0.5486294329166412,0.4,0.13333333333333333,0.4666666666666667,"Maintenance, Cleanliness, Atmosphere, General","maintained (18), good (15), excellent (9), amazing (9), dead (9), safe (3), lovely (3), tidy (3)",12
Enfield,Cheshunt Funeral Directors,Funeral Home,51.70294099999999,-0.0346712,4.6,0.854940903186798,0.0,0.0,1.0,"Maintenance, Aesthetics, Accessibility, General","difficult (18), wonderful (15), awful (9), lovely (9), easy (9), good (3), noisy (3), fantastic (3)",18
Enfield,Sewardstone Park Cemetery,Cemetery,51.6629864,-0.0007938999999999999,5.0,0.7134878714879354,0.0,0.26666666666666666,0.7333333333333333,"Accessibility, Safety, Noise, Cleanliness, Atmosphere, Aesthetics, Traffic, General","beautiful (39), clean (18), peaceful (18), parking (18), good (9), security (9), excellent (9), perfect (9), stunning (9), safe (6), tidy (3), messy (3)",7
Enfield,Waltham Abbey Cemetery,Cemetery,51.68263779999999,0.0029923,4.0,0.5636247164673276,0.3333333333333333,0.3333333333333333,0.3333333333333333,General,"good (9), excellent (9)",7
Enfield,Waltham Cross Baptist Church,Church,51.6880089,-0.0295975,3.9,0.609302245080471,0.16666666666666666,0.3333333333333333,0.5,"Noise, Comfort, Atmosphere, Accessibility","easy (10), quiet (9), far (9), improved (3), welcoming (3), lovely (3)",8
Enfield,Goffs Oak Community Library,Library,51.7103004,-0.0850549,4.6,0.6190697868665059,0.0,0.6,0.4,"Safety, Noise, Comfort, Atmosphere, Aesthetics","lovely (18), safe (15), relaxing (9), secure (9), silent (9), welcoming (9), quiet (9), comfortable (6), bad (3), busy (3), tidy (3)",19
Enfield,Cheshunt Library,Library,51.6998943,-0.0331981,4.4,0.5939518888791402,0.0,0.4666666666666667,0.5333333333333333,"Comfort, Cleanliness, Atmosphere, Maintenance, Aesthetics, Traffic, General","maintained (12), great (9), lovely (9), noisy (9), busy (9), modern (9), comfortable (9), good (9), appealing (9), safe (6), wonderful (3), old (3), walking (3)",53
Enfield,Waltham Abbey Library,Library,51.6866786,0.000122,4.7,0.6919520219167073,0.0,0.4,0.6,"Accessibility, Noise, Comfort, Atmosphere, General","great (9), quiet (9), comfortable (9), safe (9), accessible (9), good (9), tidy (6), cars (3), parking (3)",24
