Borough,Location Name,Type,latitude,longitude,Rating,Overall Sentiment Score,Negative Score,Neutral Score,Positive Score,Main Issues,Emotion Keywords,Review Count
Islington,Union Chapel,Church,51.5447911,-0.1025174,4.7,0.507316505908966,0.2,0.6,0.2,"Safety, Noise, Comfort, Cleanliness, Maintenance, Aesthetics, General","music (45), great (36), lovely (33), safe (30), tidy (24), beautiful (21), amazing (18), uncomfortable (18), comfortable (9), clean (9), maintained (9), security (9), wonderful (9), old (9), disappointing (9), gorgeous (9), stunning (9), lighting (9), poor (3), lively (3), charming (3), noisy (3)",2649
Islington,The Garage,Point Of Interest,51.54679520000001,-0.1037392,4.4,0.5529118776321411,0.4,0.26666666666666666,0.3333333333333333,"Safety, Noise, Atmosphere, Aesthetics, General","great (39), lovely (12), good (9), chaotic (9), music (9), security (9), tidy (3), noisy (3), crowded (3), lively (3), safe (3), pretty (3)",2164
Islington,Holloway Road Sub Post Office,Transit Station,51.5502899,-0.1090325,2.0,0.5413567622502645,0.0,1.0,0.0,"Cleanliness, General","safe (30), neglected (9), good (9), messy (6), tidy (3), lovely (3)",1
Islington,Highbury & Islington Station,Transit Station,51.54647680000001,-0.1043117,3.0,0.5169981141885122,0.2,0.4,0.4,"Noise, Comfort, Cleanliness, Atmosphere, Maintenance, Traffic, General","messy (15), poor (12), tidy (12), clean (9), good (9), walking (9), uncomfortable (9), busy (9), noisy (9), improved (9), safe (6), quiet (6), updated (3), active (3)",23
Islington,Caledonian Road & Barnsbury Station,Transit Station,51.543116,-0.1160098,5.0,0.0,0.0,0.0,0.0,,,3
Islington,Highbury Corner (Stop F),Transit Station,51.5448591,-0.1034033,3.8,0.33071810007095337,0.5,0.5,0.0,,busy (6),4
Islington,Highbury & Islington,Transit Station,51.5459924,-0.1045902,4.1,0.5893909235795339,0.0,0.6,0.4,"Accessibility, Noise, Atmosphere, Traffic, General","busy (18), convenient (18), great (18), loud (9), music (9), messy (9), tidy (9), walking (6), safe (6), far (3), noisy (3), cars (3), calm (3), cozy (3)",297
Islington,Caledonian Road & Barnsbury,Train Station,51.5435391,-0.1149985,4.0,0.6310656209786732,0.0,0.4,0.6,"Accessibility, Noise, Atmosphere, Aesthetics, General","accessible (18), difficult (18), busy (18), good (9), tidy (9), pretty (9), near (6), safe (6), quiet (6), perfect (5), noisy (3), easy (3)",43
Islington,One Stop Food & Wine,Transit Station,51.53220229999999,-0.1142669,5.0,0.9706972241401672,0.0,0.0,1.0,,,1
Islington,Canonbury,Transit Station,51.5486853,-0.0920922,4.2,0.5694296658039093,0.0,0.6,0.4,"Cleanliness, Aesthetics, Safety, General","tidy (15), clean (9), safe (9), good (9), stunning (9), roomy (3), bikes (3)",47
Islington,Angel,Subway Station,51.532249,-0.106029,4.3,0.5471543371677399,0.4,0.13333333333333333,0.4666666666666667,"Accessibility, Comfort, Maintenance, Aesthetics, General","safe (12), lovely (12), old (9), accessible (9), near (9), spacious (9), great (9), noisy (6), tidy (3)",231
Islington,City Garden Row Car Park,Transit Station,51.5313347,-0.09908009999999999,3.9,0.6874019424120585,0.0,0.26666666666666666,0.7333333333333333,"Accessibility, Safety, Cleanliness, Traffic, General","parking (24), easy (18), cars (12), secure (9), central (9), great (9), rubbish (9), noisy (3), messy (2)",7
Islington,Holloway Road Station,Transit Station,51.5525971,-0.1120347,3.3,0.475512554248174,0.0,1.0,0.0,Cleanliness,"dirty (9), noisy (3), safe (3), tidy (3)",3
Islington,Caledonian Road Station (Stop A),Transit Station,51.5481004,-0.1179118,5.0,0.8110974629720052,0.0,0.0,1.0,General,"busy (9), perfect (9), good (3)",1
Islington,Caledonian Road,Subway Station,51.54855149999999,-0.1182525,4.2,0.5683048844337464,0.0,0.7333333333333333,0.26666666666666666,"Accessibility, Atmosphere, Traffic, Aesthetics, General","safe (9), central (9), far (9), bad (9), busy (9), great (9), noisy (6)",60
Islington,Holloway Road,Subway Station,51.5528332,-0.1128521,3.5,0.6333944618701934,0.0,0.4,0.6,"Accessibility, Cleanliness, Atmosphere, Aesthetics, Traffic, General","good (24), busy (18), clean (9), tidy (9), noisy (9), disappointing (9), safe (9), terrible (9), central (9), updated (6), messy (3), walking (3), near (3), repaired (3)",75
Islington,King’s Cross,Transit Station,51.53160339999999,-0.1235978,4.4,0.6243888894716899,0.0,0.5333333333333333,0.4666666666666667,"Accessibility, Cleanliness, Atmosphere, Maintenance, Traffic, Aesthetics, General","safe (36), great (27), busy (27), good (27), beautiful (18), tidy (15), noisy (15), stunning (9), new (9), chaotic (9), clean (9), bad (9), near (9), active (6), connected (3), lovely (3), messy (3)",3129
Islington,King's Cross St. Pancras,Subway Station,51.53066279999999,-0.1231666,4.4,0.6486036936442058,0.13333333333333333,0.26666666666666666,0.6,"Accessibility, Safety, Noise, Cleanliness, Atmosphere, Maintenance, Aesthetics, Traffic, General","busy (21), traffic (18), great (18), safe (12), clean (12), modern (11), beautiful (9), old (9), convenient (9), maintained (9), wonderful (9), new (9), tidy (9), dirty (9), rubbish (9), disappointing (9), central (9), unsafe (9), walking (3), noisy (3)",1004
Islington,Old Street Station,Transit Station,51.52626840000001,-0.08795560000000001,3.0,0.44663383563359577,0.6666666666666666,0.0,0.3333333333333333,"Maintenance, Accessibility, General","old (27), great (9), near (9), worst (9), noisy (6), safe (3), connected (1)",4
Islington,Dalston Kingsland,Transit Station,51.54819130000001,-0.0756269,3.9,0.6216397821903229,0.13333333333333333,0.26666666666666666,0.6,General,"great (18), noisy (6), walking (3), old (1)",85
Islington,Islington Town Hall (Stop R),Bus Station,51.5419612,-0.1030842,4.0,0.5018459608157476,0.3333333333333333,0.16666666666666666,0.5,General,"good (18), busy (6)",3
Islington,Canonbury Road / Highbury Corner (Stop J),Bus Station,51.5444644,-0.1009191,3.0,0.539986789226532,0.5,0.0,0.5,,noisy (3),2
Islington,St Mary's Church (Stop N),Bus Station,51.538284,-0.102263,3.5,0.5156216224034628,0.0,1.0,0.0,,,4
Islington,Cross Street (Stop EA),Bus Station,51.53913679999999,-0.09847159999999999,4.3,0.4247911274433136,0.3333333333333333,0.6666666666666666,0.0,,busy (6),4
Islington,Essex Road Station (Stop ED),Bus Station,51.541035,-0.09649500000000001,3.0,0.6301805675029755,0.0,0.5,0.5,,"busy (3), safe (3)",4
Islington,Essex Road Station (Stop EB),Bus Station,51.54008830000001,-0.0968799,2.3,0.408393532037735,0.0,1.0,0.0,,,4
Islington,Essex Road Station (Stop EJ),Bus Station,51.540905,-0.09526100000000001,4.6,0.5273157159487406,0.0,1.0,0.0,,"busy (12), tidy (3)",5
Islington,Highbury Corner (Stop D),Bus Station,51.546116,-0.101504,4.0,0.5110024809837341,0.0,1.0,0.0,General,good (9),3
Islington,Highbury & Islington Station,Bus Station,51.546783,-0.1041384,3.2,0.44816507399082184,0.5,0.0,0.5,General,bad (9),10
Islington,Islington Green (Stop C),Bus Station,51.53618859999999,-0.1025222,4.0,0.0,0.0,0.0,0.0,,,1
Islington,Islington Green (Stop D),Bus Station,51.535774,-0.103132,4.0,0.525964637597402,0.0,1.0,0.0,Accessibility,near (6),1
Islington,Highbury & Islington Station (Stop A),Bus Station,51.54719230000001,-0.1052601,3.5,0.4666978319485982,0.0,1.0,0.0,,"safe (3), busy (3)",2
Islington,Liverpool Road / Chapel Market (Stop W),Bus Station,51.53452550000001,-0.1080646,3.0,0.6782096723715464,0.0,0.3333333333333333,0.6666666666666666,General,"bad (9), great (9), busy (3)",1
Islington,Barnsbury Road (Stop Y),Bus Station,51.5350434,-0.1111754,5.0,0.0,0.0,0.0,0.0,,,1
Islington,Caledonian Road & Barnsbury Station (Stop L),Bus Station,51.541861,-0.1171272,4.3,0.43715186417102814,0.0,1.0,0.0,Accessibility,"busy (15), near (9), safe (3)",3
Islington,Caledonian Road & Barnsbury Station (Stop K),Bus Station,51.5428657,-0.1174983,3.5,0.5317761252323786,0.0,0.8333333333333334,0.16666666666666666,Maintenance,"busy (27), new (9), improved (9), safe (6), updated (3), grimy (3)",2
Islington,Arsenal,Subway Station,51.5584175,-0.1056624,4.3,0.4558558205763499,0.4,0.6,0.0,,"walking (6), safe (3)",160
Islington,Angel Central,Shopping Mall,51.534183,-0.1061889,4.1,0.584970873594284,0.0,0.4,0.6,"Noise, Comfort, Cleanliness, Atmosphere, Aesthetics, General","lovely (27), welcoming (18), great (18), comfortable (9), music (9), crowded (9), clean (9), good (6), walking (6), safe (3), noisy (3)",4008
Islington,Coal Drops Yard,Shopping Mall,51.5360313,-0.1265524,4.5,0.6796524067719777,0.2,0.0,0.8,"Accessibility, Noise, Atmosphere, Maintenance, Aesthetics, General","great (27), modern (18), beautiful (18), old (18), central (18), perfect (18), safe (15), lovely (9), connected (9), easy (9), vibrant (9), wonderful (9), quiet (9), fantastic (9), lively (9), convenient (9), walking (6), good (3), neglected (3), bad (3), peaceful (3)",9388
Islington,dream changer e-commerce ltd,Shopping Mall,51.5374911,-0.09154929999999999,5.0,0.9199670950571696,0.0,0.0,1.0,,easy (2),1
Islington,Lower Stable Street,Shopping Mall,51.5364649,-0.1258868,4.4,0.7038509845733643,0.0,0.26666666666666666,0.7333333333333333,"Accessibility, General","great (9), safe (9), central (9), good (3), noisy (3)",11
Islington,TechBunks Ltd,Shopping Mall,51.52846699999999,-0.1159504,5.0,0.913576622804006,0.0,0.0,1.0,General,"good (9), perfect (3)",1
Islington,RnA - Ispares Ltd.,Shopping Mall,51.5272719,-0.08887919999999999,5.0,0.9513044357299805,0.0,0.0,1.0,,,1
Islington,The London Archives,Tourist Attraction,51.5253712,-0.1074675,4.5,0.6523139297962188,0.0,0.4,0.6,"Accessibility, Safety, Cleanliness, Maintenance, General","great (18), safe (12), good (12), accessible (9), clean (9), old (9), excellent (9), lighting (3), damaged (3), tidy (3), secure (3)",75
Islington,Highbury Fields,Park,51.5492907,-0.1028664,4.5,0.605643383661906,0.0,0.4,0.6,"Accessibility, Noise, Atmosphere, Maintenance, Aesthetics, Traffic, General","parking (36), new (24), near (18), safe (18), beautiful (18), great (18), walking (15), good (12), relaxing (12), scenic (9), accessible (9), vibrant (9), busy (9), quiet (9), peaceful (9), old (6), cozy (6), active (6), attractive (3), charming (3), lovely (1)",3261
Islington,Freightliners Farm,Tourist Attraction,51.54777499999999,-0.111466,4.5,0.5921081026395162,0.0,0.6666666666666666,0.3333333333333333,"Accessibility, Noise, Comfort, Cleanliness, Atmosphere, Maintenance, Aesthetics, Traffic, General","far (18), safe (12), maintained (9), clean (9), pleasant (9), great (9), busy (9), peaceful (9), lovely (6), walking (3), tidy (3)",477
Islington,Islington Museum,Museum,51.5263566,-0.1041707,4.3,0.6183686017990112,0.0,0.4,0.6,"Accessibility, Noise, Comfort, Atmosphere, Aesthetics, General","safe (18), fantastic (9), enjoyable (9), music (9), active (9), lovely (6), perfect (3), tidy (3), wonderful (3), noisy (3)",105
Islington,The Real Food Market Kings Cross,Tourist Attraction,51.53042670000001,-0.1236489,4.2,0.6707358539104462,0.0,0.26666666666666666,0.7333333333333333,"Maintenance, Aesthetics, General","great (18), pretty (18), safe (9), good (9), lovely (3), messy (3), disappointing (3), noisy (3)",265
Islington,Victoria Miro,Art Gallery,51.53036650000001,-0.09494899999999999,4.4,0.7518306692441304,0.0,0.06666666666666667,0.9333333333333333,"Accessibility, Safety, Traffic, Aesthetics, General","amazing (27), lovely (15), good (9), great (9), excellent (9), far (9), tidy (9), dark (9), central (9), pretty (9), parking (9), safe (6), near (3)",759
Islington,"St Mary's Church, Islington",Tourist Attraction,51.5384051,-0.1020307,4.5,0.6683794339497884,0.0,0.4,0.6,"Accessibility, Noise, Comfort, Cleanliness, Atmosphere, Maintenance, Traffic, Aesthetics, General","beautiful (21), near (12), busy (9), peaceful (9), quiet (9), pleasant (9), welcoming (9), clean (9), upgraded (9), maintained (9), great (9), parking (6), walking (6), lighting (3), safe (3), messy (3), lovely (3)",161
Islington,Culpeper Community Garden,Tourist Attraction,51.5348313,-0.1095818,4.6,0.7468748132387797,0.0,0.2,0.8,"Accessibility, Noise, Cleanliness, Atmosphere, Maintenance, Aesthetics, Traffic, General","beautiful (30), lovely (24), great (18), peaceful (12), tidy (9), accessible (9), clean (9), maintained (9), perfect (9), gorgeous (9), flow (6), safe (6), wonderful (3), parking (3), good (3), quiet (3)",421
Islington,Lewis Cubitt Park,Park,51.53820640000001,-0.1251412,4.3,0.5706522107124329,0.0,0.4666666666666667,0.5333333333333333,"Accessibility, Comfort, Atmosphere, Maintenance, Aesthetics, General","vibrant (9), new (9), great (9), safe (6), cozy (6), lovely (6), near (3), parking (3), walking (3)",427
Islington,Lewis Cubitt Square,Tourist Attraction,51.5371006,-0.1257077,4.5,0.6493234157562255,0.0,0.26666666666666666,0.7333333333333333,"Maintenance, Traffic, Aesthetics, General","amazing (21), modern (18), safe (15), pedestrian (9), lovely (9), fantastic (9), parking (6)",563
Islington,Stonebridge Gardens,Park,51.5392282,-0.07479129999999999,4.3,0.5645054618517558,0.0,0.6,0.4,"Atmosphere, Maintenance, Traffic, Aesthetics, General","lovely (36), parking (24), safe (12), great (9), old (9), busy (9), tidy (3), relaxing (3)",316
Islington,Cubitt Artists,Art Gallery,51.5323626,-0.1078823,4.0,0.6009072343508403,0.0,0.6,0.4,"Accessibility, Noise, Atmosphere, Maintenance, General","safe (12), amazing (12), far (9), excellent (9), good (9), tidy (6), lively (5), quiet (3), roomy (3)",65
Islington,Rosemary Gardens,Park,51.53841799999999,-0.0876285,4.4,0.6355847318967184,0.0,0.5333333333333333,0.4666666666666667,"Accessibility, Comfort, Atmosphere, Maintenance, Aesthetics, Traffic, General","good (27), lovely (21), walking (12), near (11), cozy (9), relaxing (9), busy (9), great (9), new (5), parking (3), neat (2)",613
Islington,Imperial Hall,Tourist Attraction,51.52633109999999,-0.08803219999999998,4.6,0.6999010960261027,0.0,0.2,0.8,"Maintenance, Aesthetics","beautiful (18), modern (9), old (9), safe (3), lively (3)",47
Islington,clueQuest - The Live Escape Game,Tourist Attraction,51.5362684,-0.1168681,4.9,0.8195197145144145,0.0,0.2,0.8,"Accessibility, Comfort, Atmosphere, Maintenance, General","perfect (54), amazing (27), roomy (24), fantastic (18), good (12), easy (9), excellent (9), great (9), far (9), messy (9), welcoming (6), tidy (6), new (3), lovely (3), safe (3), shouting (3)",2368
Islington,King Henry’s Walk Garden,Tourist Attraction,51.5479567,-0.08254330000000001,4.6,0.6440363725026449,0.0,0.6,0.4,"Noise, Atmosphere, Maintenance, Aesthetics, Traffic, General","great (27), lovely (12), quiet (9), peaceful (9), noisy (9), beautiful (9), amazing (9), old (9), good (9), flow (3)",90
Islington,Hang-Up Gallery,Art Gallery,51.53717899999999,-0.08493899999999999,4.4,0.7758302489916483,0.0,0.2,0.8,"Maintenance, General","excellent (18), great (18), new (9), amazing (9), perfect (9), lovely (6)",96
Islington,Barnsbury Wood,Natural Feature,51.54173249999999,-0.11443,3.8,0.5534224973784553,0.2222222222222222,0.4444444444444444,0.3333333333333333,"Aesthetics, Accessibility","lovely (6), near (3)",5
Islington,St Pancras Basin,Natural Feature,51.53674229999999,-0.1285299,4.8,0.6957923968633016,0.0,0.5555555555555556,0.4444444444444444,"Noise, Atmosphere, Maintenance, Aesthetics, General","beautiful (9), new (9), quiet (9), amazing (6), walking (3)",9
Islington,The Catholic Church of the Blessed Sacrament,Church,51.5368712,-0.11747,4.6,0.6350723524888356,0.2,0.06666666666666667,0.7333333333333333,"Maintenance, Comfort, Atmosphere, General","good (9), wonderful (9), great (9), crowded (9), enjoyable (9), new (9), walking (1)",50
Islington,"St Luke's Church, West Holloway",Church,51.5524413,-0.1215483,4.7,0.7809487183888754,0.0,0.0,1.0,"Cleanliness, Atmosphere, Maintenance, Aesthetics, General","great (27), wonderful (9), lovely (9), clean (9), modern (9), gorgeous (9), beautiful (9), amazing (9), active (9), good (6), safe (6), roomy (3), bad (3)",24
Islington,Shiloh Pentecostal Church,Church,51.5467714,-0.07500190000000001,4.8,0.6559935430685679,0.0,0.6,0.4,"Maintenance, Comfort, Aesthetics, General","perfect (18), beautiful (9), great (9), welcoming (9), lovely (9), good (9)",22
Islington,Polish Catholic Mission,Church,51.53407319999999,-0.1008535,4.7,0.5597245742877325,0.0,0.75,0.25,Aesthetics,"beautiful (18), poor (3)",14
Islington,New Unity,Church,51.54036059999999,-0.1023339,4.0,0.6693025628725687,0.0,0.4666666666666667,0.5333333333333333,"Cleanliness, General","great (18), good (12), wonderful (9), clean (9), tidy (3)",32
Islington,Islington United Reformed Church,Church,51.547282,-0.09395389999999998,4.8,0.7112783471743266,0.0,0.2,0.8,"Cleanliness, General","wonderful (9), clean (9), good (3)",12
Islington,Claremont URC Church,Church,51.53271129999999,-0.1084745,4.0,0.5156521797180176,0.0,1.0,0.0,"Atmosphere, Accessibility","calm (3), near (3), busy (3)",1
Islington,Emmanuel Ethiopian Evangelical Christian Fellowship,Church,51.53896280000001,-0.09973330000000001,4.8,0.6755666534105936,0.0,0.0,1.0,"Accessibility, General","far (9), great (9), safe (3)",4
Islington,St Crispin's Church,Church,51.5482542,-0.101936,5.0,0.7226421808203062,0.0,0.25,0.75,"Maintenance, General","wonderful (6), roomy (3), fantastic (3)",5
Islington,"Holy Trinity, Hoxton",Church,51.53101299999999,-0.09154339999999998,4.8,0.6969342947006225,0.0,0.4,0.6,"Comfort, Aesthetics","welcoming (9), stunning (9), safe (3)",8
Islington,St John the Evangelist RC Church,Church,51.5338918,-0.1030952,4.6,0.6919855733712514,0.2,0.0,0.8,"Aesthetics, General","beautiful (36), lovely (15), wonderful (9), perfect (9), lighting (3), tidy (3), peaceful (3)",52
Islington,Islington Central Methodist Church,Church,51.5499445,-0.1104054,4.0,0.5076848690708479,0.25,0.5,0.25,"Accessibility, General","great (9), safe (3), walking (1)",5
Islington,Caledonian Road Methodist Church,Church,51.5466576,-0.1181901,4.3,0.47326599309841794,0.4166666666666667,0.3333333333333333,0.25,,tidy (3),8
Islington,The Angel Church,Church,51.5303289,-0.1065035,5.0,0.7845831672350566,0.0,0.26666666666666666,0.7333333333333333,"Maintenance, Comfort, General","old (9), welcoming (6), lovely (6), amazing (6), dark (3), dead (3), tidy (3)",39
Islington,Evangelical Alliance,Church,51.5370644,-0.1199043,4.5,0.7841511915127436,0.0,0.0,1.0,"Accessibility, Cleanliness, Atmosphere, Aesthetics, General","great (18), amazing (9), neat (9), beautiful (9), accessible (9), wonderful (9), excellent (9), ugly (3)",8
Islington,Amwell Street Car Park - Green Parking,Parking,51.5269716,-0.1091386,4.2,0.6731681982676189,0.0,0.4,0.6,"Accessibility, Comfort, Cleanliness, Maintenance, Traffic, Aesthetics, General","parking (60), cars (18), lovely (18), safe (12), easy (9), maintained (9), tight (9), great (9), welcoming (9), pretty (9), good (9), tidy (3)",25
Islington,A2Z Airport Parking,Parking,51.53063249999999,-0.09356959999999998,2.1,0.7829566399256388,0.0,0.2,0.8,"Safety, Cleanliness, Maintenance, Traffic, General","cars (63), messy (58), vehicle (45), parking (30), tidy (21), dirty (18), unsafe (9), clean (9), poor (9), worst (9), driving (9), noisy (9), bad (9), busy (3), safe (3), good (3)",38
Islington,London Farringdon Travelodge Car Park,Parking,51.5271661,-0.1142593,3.7,0.6012164155642191,0.2,0.4,0.4,"Accessibility, Noise, Cleanliness, Aesthetics, Traffic, General","good (18), tidy (12), clean (9), excellent (9), poor (9), pretty (9), inconvenient (9), safe (9), traffic (9), driving (9), noisy (3), roomy (3), updated (3)",11
Islington,Direct Solutions For Parking LTD,Parking,51.5273574,-0.0890287,1.4,0.9106719772020976,0.0,0.0,1.0,"General, Safety","good (9), bad (9), safe (6), appealing (6), noisy (6), cars (3), parking (3)",18
Islington,City Car Parks and Storage,Parking,51.5309179,-0.08070949999999998,4.7,0.5992052356402079,0.2,0.4,0.4,"Comfort, Traffic, Safety, General","parking (30), good (30), safe (21), cars (12), great (9), fantastic (9), walking (9), security (9), tight (9), secure (6), tidy (6), vehicle (3), noisy (3), messy (3)",50
Islington,Parkfinda - Elia Mews Car Park Old street / Angel,Parking,51.53148780000001,-0.1013436,4.2,0.5152148405710856,0.2,0.5333333333333333,0.26666666666666666,"Aesthetics, Traffic, Accessibility, General","parking (36), tidy (18), great (18), central (9), cars (6), messy (6), safe (3), near (3)",80
Islington,Gillett Street Car Park,Parking,51.5488883,-0.077025,4.0,0.5004364212354024,0.06666666666666667,0.9333333333333333,0.0,"Traffic, Atmosphere, Safety, General","parking (33), good (18), great (15), cars (9), busy (9), secure (9), calm (3), tidy (3)",17
Islington,Solo Motorcycle Parking bay,Parking,51.5409053,-0.1025804,5.0,0.5384695927302042,0.0,1.0,0.0,,,1
Islington,Keen's Yard,Parking,51.5459004,-0.1008173,5.0,0.0,0.0,0.0,0.0,,,1
Islington,Motorcycle Parking Bay,Parking,51.5410233,-0.1093306,5.0,0.0,0.0,0.0,0.0,,,1
Islington,Motorcycle Parking Bay,Parking,51.53574870000001,-0.1015667,4.7,0.5355340341726939,0.0,0.8333333333333334,0.16666666666666666,"Traffic, General","good (18), parking (18)",3
Islington,Upper Street Car Park,Parking,51.5355052,-0.1046501,3.8,0.6178480227788289,0.06666666666666667,0.5333333333333333,0.4,"Accessibility, Safety, Atmosphere, Traffic, General","parking (36), good (18), easy (15), safe (12), cars (9), great (9), busy (9), noisy (6), tidy (6), pretty (3), dark (3), dead (3)",61
Islington,ParkBee Angel - Upper Street Car Park,Parking,51.535469,-0.104675,3.9,0.6671062628428142,0.0,0.4,0.6,"Accessibility, Safety, Noise, Comfort, Cleanliness, Traffic, General","easy (42), great (18), safe (18), tidy (15), parking (15), clean (9), cars (9), music (9), perfect (9), tight (9), pretty (3), noisy (3), rubbish (3), messy (3), walking (3)",19
Islington,Islington Central Library,Library,51.54913719999999,-0.1073761,4.5,0.6204596996307373,0.0,0.4666666666666667,0.5333333333333333,"Accessibility, Noise, Comfort, Atmosphere, Maintenance, Traffic, Aesthetics, General","good (39), safe (33), great (27), busy (18), beautiful (18), quiet (18), easy (18), peaceful (12), cramped (9), far (9), loud (9), plain (9), accessible (9), pretty (9), roomy (6), lovely (6), noisy (6), tidy (6), walking (3)",135
Islington,Society of Genealogists,Library,51.5313639,-0.09562210000000002,4.9,0.5849445541699727,0.0,0.6,0.4,"Accessibility, Noise, Maintenance, Aesthetics, General","good (33), new (18), near (9), great (9), far (9), pretty (9), excellent (9), roomy (3), walking (1)",16
Islington,Pancras Square Library,Library,51.5336248,-0.1266171,3.2,0.6489771385987599,0.0,0.6,0.4,"Maintenance, Safety, Accessibility, General","modern (27), safe (12), wonderful (9), great (9), good (9), poor (9), isolated (9), tidy (9), security (6), messy (4), noisy (3), parking (1)",89
Islington,Islington West Library,Library,51.54076360000001,-0.116273,4.4,0.638409145673116,0.0,0.4666666666666667,0.5333333333333333,"Aesthetics, General","good (27), lovely (21), great (9), safe (6), walking (3), tidy (3)",32
Islington,Shoreditch Library,Library,51.5304155,-0.080081,4.2,0.6125171462694804,0.0,0.8,0.2,"Accessibility, Noise, Comfort, Atmosphere, General","quiet (18), great (9), spacious (9), accessible (9), good (9), shouting (9), easy (9), central (9), noisy (6), connected (3)",62
Islington,City Law School Private Library,Library,51.5268669,-0.1005145,5.0,0.7601827730735143,0.0,0.16666666666666666,0.8333333333333334,General,excellent (9),7
Islington,COLLAGE,Library,51.5251472,-0.1077233,3.7,0.0,0.0,0.0,0.0,,,3
Islington,Finsbury Library,Library,51.5263331,-0.1041707,4.6,0.5916683952013652,0.2,0.4,0.4,"Accessibility, Comfort, Atmosphere, Maintenance, Aesthetics, General","lovely (36), amazing (15), old (12), noisy (9), tidy (9), excellent (9), safe (9), great (9), wonderful (9), uncomfortable (9), welcoming (9), difficult (9), calm (6), messy (6), good (3), damaged (3), near (3)",54
Islington,Islington South Library,Library,51.53904730000001,-0.09864719999999999,4.4,0.6929799437522888,0.0,0.06666666666666667,0.9333333333333333,"Accessibility, Cleanliness, Atmosphere, Aesthetics, General","great (18), difficult (9), easy (9), clean (9), calm (9), inconvenient (9), lovely (6), safe (6), roomy (3), tidy (3), messy (3), noisy (3)",46
Islington,Mildmay Library,Library,51.5475262,-0.0841893,4.5,0.7063315709431967,0.0,0.06666666666666667,0.9333333333333333,"Safety, Noise, Comfort, Atmosphere, Maintenance, Aesthetics, General","safe (27), good (18), lovely (18), new (18), tidy (9), quiet (9), excellent (9), great (9), spacious (9), busy (3), lively (3)",30
Islington,Lewis Carroll Childrens Library,Library,51.53717160000001,-0.1189862,4.4,0.4741525376836459,0.5,0.25,0.25,"Aesthetics, General","great (9), gorgeous (9), safe (3)",8
Islington,Little Free Library,Library,51.54092139999999,-0.1096649,4.2,0.6144497692584991,0.0,0.5,0.5,"Aesthetics, General","lovely (9), excellent (9), tidy (3), great (3), safe (3)",5
Islington,Islington Education Library Service,Library,51.5492581,-0.1069657,5.0,0.9266344706217448,0.0,0.0,1.0,"Aesthetics, Comfort, Atmosphere, General","wonderful (9), welcoming (9), calm (9), beautiful (9), perfect (9)",1
Islington,Little Free Library,Library,51.53604919999999,-0.08576009999999999,3.8,0.6590072671572368,0.0,0.26666666666666666,0.7333333333333333,"Maintenance, General","great (18), wonderful (9), noisy (6), protected (3), damaged (3), broken (3), tidy (3)",8
Islington,Aga Khan Library,Library,51.5376662,-0.1248632,5.0,0.7086728811264038,0.0,0.3333333333333333,0.6666666666666666,"Aesthetics, Accessibility, General","great (9), wonderful (6), far (6), fantastic (3)",8
Islington,Kindred Islington Nursery and Preschool,School,51.5381785,-0.0909516,4.6,0.7712613582611084,0.0,0.2,0.8,"Maintenance, Comfort, Aesthetics, General","lovely (24), old (18), safe (12), amazing (9), good (9), welcoming (9), comfortable (9), new (9), wonderful (6), connected (3), messy (3), roomy (3), fantastic (3)",19
Islington,Nuffield Health Islington Fitness & Wellbeing Gym,Gym,51.5369585,-0.1013407,3.3,0.6652152935663859,0.0,0.4,0.6,"Noise, Comfort, Cleanliness, Atmosphere, Maintenance, Aesthetics, Traffic, General","good (51), great (27), clean (18), safe (18), pretty (18), noisy (15), tidy (12), dirty (9), welcoming (9), enjoyable (9), broken (9), disappointing (9), busy (9), music (9), lovely (3), quiet (3), messy (3), poor (3), updated (3), walking (3), crowded (3)",161
Islington,SAE Institute London,University,51.5372695,-0.0769864,3.3,0.4847976307074229,0.4,0.4,0.2,"Aesthetics, Noise, Atmosphere, General","safe (21), great (18), good (18), tidy (12), music (9), excellent (9), messy (3), active (3)",71
Islington,Islington Tennis Centre and Gym,Gym,51.5462302,-0.1217962,4.1,0.6586208641529083,0.2,0.2,0.6,"Safety, Comfort, Cleanliness, Maintenance, Aesthetics, General","great (45), good (27), roomy (12), horrible (9), uncomfortable (9), welcoming (9), dirty (9), improved (9), lighting (9), safe (6), lovely (6), noisy (3), tidy (3)",272
Islington,Les Petites Etoiles Bilingual Montessori - Angel,School,51.53693380000001,-0.1027754,4.7,0.7617083052794139,0.13333333333333333,0.06666666666666667,0.8,"Maintenance, Atmosphere, General","wonderful (18), amazing (18), safe (12), tidy (9), lovely (9), new (9), good (9), fantastic (9), noisy (3), roomy (3)",25
Islington,Bright Horizons Mount Carmel Day Nursery and Preschool,School,51.551548,-0.1127324,4.6,0.7787934382756551,0.0,0.2,0.8,"Accessibility, Comfort, Cleanliness, Maintenance, Traffic, General","wonderful (18), messy (17), safe (12), excellent (9), welcoming (9), new (9), great (9), convenient (9), clean (9), bikes (9), roomy (3), lovely (3), noisy (3), fantastic (3)",10
Islington,The Angel Laser Clinic,Hair Care,51.5392964,-0.1064617,4.8,0.7611870487531026,0.0,0.26666666666666666,0.7333333333333333,"Accessibility, Comfort, Cleanliness, Maintenance, Aesthetics, General","amazing (27), clean (18), great (18), modern (18), comfortable (9), welcoming (9), pristine (9), excellent (9), near (9), messy (8), safe (6), tidy (3), good (3)",243
Islington,Transcendental Meditation London Islington & City– Official,School,51.53562549999999,-0.1058398,5.0,0.0,0.0,0.0,0.0,,,1
Islington,The Gower School - Montessori Nursery,School,51.54831739999999,-0.1247965,4.4,0.8638936082522074,0.0,0.0,1.0,"Accessibility, Safety, Noise, Comfort, Cleanliness, Maintenance, Aesthetics, General","excellent (27), wonderful (27), great (27), good (21), safe (21), lovely (15), amazing (9), music (9), comfortable (9), difficult (9), enjoyable (9), maintained (9), inviting (9), tidy (6), roomy (6), old (3), peaceful (3), near (3), parking (3)",35
Islington,Comet Nursery School & Children's Centre,School,51.5360328,-0.0806963,4.3,0.7586809933185578,0.0,0.2,0.8,"Accessibility, Safety, Noise, Maintenance, General","good (30), safe (27), wonderful (18), difficult (12), great (12), new (9), excellent (9), music (9), noisy (3), messy (3)",16
Islington,Malvern House London,School,51.53127540000001,-0.1177779,4.8,0.7458162109057108,0.0,0.2,0.8,"Maintenance, Atmosphere, Accessibility, General","good (27), amazing (18), wonderful (15), fantastic (12), far (9), safe (9), great (9), new (9), perfect (7), messy (6), improved (6), calm (3)",424
Islington,"City St George's, University of London",University,51.5279719,-0.1024624,4.3,0.6483663360277812,0.0,0.4,0.6,"Accessibility, Comfort, Cleanliness, Maintenance, Aesthetics, General","central (18), modern (18), near (15), safe (9), connected (9), pleasant (9), scenic (9), far (9), great (9), new (9), welcoming (9), clean (9), pretty (9), poor (9), awful (9), good (3), old (3), walking (3), dark (3), dead (3)",491
Islington,Central Saint Martins,University,51.5363807,-0.1245762,4.3,0.5714531600475311,0.2,0.2,0.6,"Accessibility, Safety, Noise, Comfort, Atmosphere, Maintenance, Aesthetics, General","central (18), good (18), dangerous (18), safe (15), messy (12), beautiful (9), wonderful (9), pleasant (9), new (9), great (9), lively (9), buzzing (9), comfortable (9), tidy (6), noisy (3), bad (3), crime (3)",241
Islington,CNM - College of Naturopathic Medicine,University,51.5303023,-0.1141168,4.5,0.7413537462552389,0.06666666666666667,0.13333333333333333,0.8,"Accessibility, Comfort, Atmosphere, Maintenance, Aesthetics, General","amazing (33), messy (15), welcoming (9), wonderful (9), new (9), pretty (9), far (9), safe (3), noisy (3), perfect (3), dark (3), dead (3)",263
Islington,Royal College of Veterinary Surgeons (RCVS),University,51.52748,-0.108816,2.5,0.6079536020755768,0.2,0.4,0.4,"General, Aesthetics, Accessibility, Safety","tidy (15), beautiful (9), noisy (9), safe (9), poor (9), terrible (9), police (9), messy (3), roomy (3)",29
Islington,The Institute of Ismaili Studies,University,51.53752679999999,-0.1249399,4.9,0.6621372640132904,0.0,0.3333333333333333,0.6666666666666666,"Noise, Comfort, Atmosphere, Aesthetics, General","great (18), beautiful (18), welcoming (9), quiet (9)",33
Islington,Aga Khan University's Institute for the Study of Muslim Civilisations (AKU-ISMC),University,51.53761890000001,-0.1247662,4.8,0.7561744491259257,0.0,0.0,1.0,"Noise, Atmosphere, Maintenance, Aesthetics, General","great (18), peaceful (9), excellent (9), beautiful (9), modern (9), stunning (9), amazing (9), lovely (6)",18
Islington,Hair Extension Training Academy,University,51.5272357,-0.0886604,3.0,0.5400450527667999,0.0,0.7777777777777778,0.2222222222222222,"Maintenance, General","awful (9), safe (3), tidy (3)",3
Islington,Capital City College King's Cross centre (formerly Westminster Kingsway College - King's Cross Centre),University,51.526947,-0.1186528,3.5,0.6192484001318613,0.2,0.0,0.8,"Accessibility, Safety, Maintenance, Aesthetics, General","poor (27), horrible (18), security (18), good (18), terrible (9), safe (6), parking (6), lively (3), easy (3), messy (3), noisy (3)",154
Islington,"Capital City College Holloway centre (formerly City and Islington College - Centre for Business, Arts and Technology)",University,51.5549456,-0.1192688,3.1,0.5738362510999043,0.0,0.8,0.2,"Maintenance, Noise","noisy (15), messy (9), tidy (9), safe (3), improved (3), dark (3), dead (3)",87
Islington,Society for Research into Higher Education,University,51.5347849,-0.1182627,4.8,0.5913875823219618,0.0,0.5,0.5,General,great (9),9
Islington,London Metropolitan University - Rocket Complex,University,51.5514927,-0.1104579,4.8,0.3804778804381688,0.6,0.3333333333333333,0.06666666666666667,General,"great (9), good (9)",9
Islington,ShippingCollege,University,51.530556,-0.0935477,5.0,0.7065390944480896,0.0,0.0,1.0,General,great (9),1
Islington,City-Insights,University,51.54902740000001,-0.1213227,1.0,0.6895960569381714,0.0,0.0,1.0,,,1
Islington,"City, University of London College Building",University,51.5272742,-0.1042031,4.5,0.6933683355649313,0.06666666666666667,0.3333333333333333,0.6,"Noise, Comfort, Accessibility, General","great (18), fantastic (9), welcoming (9), excellent (9), near (9), tidy (3)",30
Islington,Short Courses at Central Saint Martins,University,51.53636879999999,-0.1254932,4.0,0.0,0.0,0.0,0.0,,,1
Islington,Real Way of Life,University,51.532442,-0.122204,5.0,0.8703965544700623,0.0,0.0,1.0,"Maintenance, General","new (18), excellent (9)",2
Islington,City Road Medical Centre,Doctor,51.5280151,-0.0913951,2.7,0.7203316807746887,0.0,0.0,1.0,"Maintenance, Accessibility, General","great (18), good (9), new (9), fantastic (9), excellent (9), far (9), awful (9), easy (3)",123
Islington,Moorfields Eye Hospital,Hospital,51.52744680000001,-0.09003160000000002,4.0,0.6726908961931864,0.0,0.4666666666666667,0.5333333333333333,"Cleanliness, Atmosphere, Maintenance, Aesthetics, General","good (66), messy (18), worst (18), bad (18), noisy (12), calm (9), new (9), old (9), clean (9), awful (9), lovely (9), safe (3), easy (3), improved (3), walking (3), tidy (3)",857
Islington,The Medical Centre,Hospital,51.5508119,-0.1096174,3.5,0.8160459379355113,0.0,0.26666666666666666,0.7333333333333333,"Accessibility, Noise, Atmosphere, Maintenance, General","safe (15), good (12), awful (9), shouting (9), excellent (9), easy (9), bad (9), messy (6), horrible (6), amazing (6), peaceful (3)",53
Islington,London Doctors Clinic Islington,Doctor,51.5354334,-0.1040871,4.3,0.769757334391276,0.0,0.2,0.8,"Maintenance, General","great (9), good (9), old (9), excellent (9), poor (9), safe (6), tidy (3), cars (3), calm (3), cozy (3), messy (3), easy (1)",164
Islington,Herve Durant Psychotherapy + Psychotherapie en Francais London / King Cross - Angel N1 /,Hospital,51.5320082,-0.1099646,5.0,0.7304889718691508,0.0,0.2,0.8,General,"messy (16), good (9), improved (3)",6
Islington,"Jaheed Khan, Consultant Eye Surgeon, Moorfields Eye Hospital",Hospital,51.5276773,-0.0911953,4.8,0.7838392754395803,0.0,0.2,0.8,"Safety, Comfort, Atmosphere, Aesthetics, Traffic, General","great (27), safe (24), excellent (18), fantastic (9), welcoming (9), lovely (9), amazing (9), good (9), busy (9), improved (3)",29
Islington,Nuffield hearing centre,Hospital,51.5289825,-0.1184661,5.0,0.9273080031077067,0.0,0.0,1.0,Aesthetics,lovely (9),1
Islington,The Richard Desmond Children’s Eye Centre,Hospital,51.5269995,-0.0902446,4.6,0.726352604230245,0.0,0.4666666666666667,0.5333333333333333,"Comfort, Cleanliness, Atmosphere, Maintenance, General","good (30), clean (9), amazing (9), old (9), welcoming (9), great (9), active (9), safe (6), noisy (6), lovely (3), walking (3), tidy (3)",24
Islington,London Doctors Clinic Kings Cross,Doctor,51.52949719999999,-0.1203824,3.9,0.7823710322380066,0.0,0.0,1.0,"Accessibility, Cleanliness, Maintenance, Aesthetics, General","messy (21), tidy (18), terrible (18), good (12), excellent (9), perfect (9), new (9), clean (9), easy (9), great (9), cars (6), calm (6), cozy (6), safe (3), roomy (3), dark (3), dead (3)",299
Islington,Islington Green Dental Practice - IGDP Limited,Hospital,51.53590380000001,-0.1040509,4.5,0.815929667154948,0.0,0.0,1.0,"Safety, Comfort, Cleanliness, Atmosphere, Aesthetics, General","great (36), comfortable (9), dark (9), welcoming (9), crowded (9), excellent (9), good (9), messy (9), amazing (9), tidy (6), safe (3), noisy (3)",97
Islington,Islington Central Medical Centre,Hospital,51.544511,-0.1055302,3.3,0.840581206480662,0.0,0.0,1.0,General,"amazing (36), fantastic (18), wonderful (9), excellent (9), safe (6), tidy (6), easy (3), noisy (3), messy (3)",301
Islington,Amwell Group Practice,Hospital,51.5282119,-0.1106169,3.5,0.6449372172355652,0.2,0.4,0.4,"Accessibility, Safety, Noise, Comfort, Cleanliness, Atmosphere, Maintenance, Aesthetics, General","threatening (27), good (21), safe (21), tidy (21), noisy (21), messy (18), new (18), awful (9), horrible (9), far (9), difficult (9), terrible (9), great (9), welcoming (9), quiet (9), trash (9), old (9), roomy (3), lively (3), risky (3), dark (3), dead (3)",93
Islington,St Leonard's Hospital,Hospital,51.53392119999999,-0.07725430000000001,3.2,0.77113170226415,0.0,0.2,0.8,"Maintenance, Aesthetics, General","safe (12), noisy (9), old (9), good (9), new (9), tidy (6), lovely (6), cars (3), parking (3)",80
Islington,New North Health Centre,Hospital,51.53811220000001,-0.0921834,2.5,0.6039966682593028,0.2,0.2,0.6,"Accessibility, Atmosphere, Maintenance, Traffic, Aesthetics, General","tidy (30), messy (27), safe (27), wonderful (12), easy (12), busy (9), excellent (9), new (9), lovely (9), good (9), deteriorating (9), far (9), bad (9), noisy (6), near (3), improved (3), dark (3), dead (3), lighting (3)",19
Islington,Sistine Chapel London,Museum,51.5329699,-0.0855311,4.5,0.5389692862828572,0.3333333333333333,0.2,0.4666666666666667,General,"great (9), safe (3), messy (2)",8
Islington,Science Centre,University,51.55325299999999,-0.1116783,5.0,0.0,0.0,0.0,0.0,,,1
Islington,Arsenal Museum,Museum,51.5566103,-0.1080692,4.1,0.7105757315953573,0.0,0.3333333333333333,0.6666666666666666,"Atmosphere, Aesthetics, Accessibility, General","easy (9), fantastic (6), safe (6), tidy (6)",101
Islington,Braille Window,Museum,51.54528570000001,-0.0773413,5.0,0.0,0.0,0.0,0.0,,,1
Islington,Budapest Services,Art Gallery,51.52510090000001,-0.09452360000000001,4.0,0.6192598740259806,0.0,0.6666666666666666,0.3333333333333333,,,2
Islington,Site of Red Bull Theatre,Museum,51.52429679999999,-0.1035911,5.0,0.6512387990951538,0.0,0.0,1.0,General,great (9),1
Islington,Dog Eared Films,Art Gallery,51.53045729999999,-0.1190603,5.0,0.0,0.0,0.0,0.0,,,1
Islington,Peer Gallery,Art Gallery,51.52985090000001,-0.08034780000000001,4.4,0.723267940680186,0.0,0.2,0.8,"Aesthetics, General","great (36), amazing (9), beautiful (9), excellent (9), wonderful (6), fantastic (3)",30
Islington,Quentin Blake Centre for Illustration,Art Gallery,51.52907849999999,-0.1085105,4.3,0.7041707615057627,0.0,0.26666666666666666,0.7333333333333333,"Accessibility, Noise, Atmosphere, Maintenance, Aesthetics, General","new (45), great (36), old (18), safe (12), lovely (9), fantastic (9), good (9), beautiful (9), far (9), peaceful (9), attractive (9), amazing (6), tidy (3), walking (3)",229
Islington,Jost Münster,Art Gallery,51.5388858,-0.09898439999999999,5.0,0.0,0.0,0.0,0.0,,,1
Islington,Centre for Recent Drawing,Art Gallery,51.5458071,-0.1044801,4.8,0.7223939249912897,0.0,0.25,0.75,"Maintenance, General","great (27), amazing (9), fantastic (6), good (3)",8
Islington,KELDER,Art Gallery,51.53367799999999,-0.1086884,4.1,0.49441568553447723,0.0,1.0,0.0,"Cleanliness, Atmosphere, General","good (45), bad (9), crowded (9), tidy (6), noisy (3), clean (3)",17
Islington,White Conduit Projects,Art Gallery,51.5336179,-0.1087412,4.6,0.6211425205071767,0.0,0.4666666666666667,0.5333333333333333,"Atmosphere, General","great (9), crowded (9), fantastic (9), good (9), roomy (3)",16
Islington,New Art Projects London,Art Gallery,51.5312855,-0.1026877,4.1,0.5530151089032491,0.2,0.4666666666666667,0.3333333333333333,"General, Aesthetics, Accessibility, Safety","great (36), lovely (15), safe (12), difficult (9), messy (3), parking (3), bikes (3), near (3)",14
Islington,Tripp Gallery,Art Gallery,51.52974829999999,-0.1106222,5.0,0.0,0.0,0.0,0.0,,,2
Islington,Lever Gallery,Art Gallery,51.5268157,-0.1004165,4.7,0.5922214349110921,0.0,0.7333333333333333,0.26666666666666666,"Aesthetics, General","great (18), safe (9), excellent (9), bad (9), lovely (6), noisy (3), good (1)",14
Islington,The Regent's Park,Park,51.53331300000001,-0.1557646,4.7,0.7486474672953288,0.0,0.2,0.8,"Accessibility, Noise, Comfort, Cleanliness, Atmosphere, Maintenance, Aesthetics, Traffic, General","beautiful (36), parking (21), maintained (18), peaceful (18), enjoyable (9), neat (9), safe (9), gorgeous (9), far (9), spacious (9), lovely (9), calm (9), perfect (7), stunning (6), flow (6), wonderful (3), amazing (3), quiet (3), walking (3), messy (3)",47064
Islington,Granville Square garden,Park,51.5276846,-0.1135453,4.2,0.6164565841356914,0.0,0.6,0.4,"Cleanliness, Maintenance, Traffic, Aesthetics, General","beautiful (27), parking (12), old (9), maintained (9), neat (9), wonderful (9), flow (3), tidy (3), relaxing (3), lively (2)",31
Islington,Russell Square,Park,51.52175,-0.12589,4.5,0.6683481931686401,0.0,0.2,0.8,"Safety, Noise, Comfort, Cleanliness, Atmosphere, Maintenance, Traffic, Aesthetics, General","lovely (36), parking (18), beautiful (18), crowded (9), safe (9), good (9), clean (9), maintained (9), great (9), peaceful (9), pleasant (6), flow (3), relaxing (3), tidy (3), walking (3)",10152
Islington,Postman's Park,Park,51.516767,-0.09771500000000002,4.6,0.6321589211622874,0.0,0.4666666666666667,0.5333333333333333,"Accessibility, Noise, Comfort, Cleanliness, Atmosphere, Maintenance, Aesthetics, Traffic, General","parking (18), lovely (18), quiet (18), safe (15), amazing (15), spacious (9), pleasant (9), central (9), maintained (9), great (9), tidy (9), scenic (9), beautiful (6), good (3), walking (3), flow (3)",1221
Islington,Argyle Square Public Basketball Court,Park,51.5292915,-0.1225276,4.0,0.611611662308375,0.0,0.4,0.6,"Maintenance, Aesthetics, General","good (27), great (9), pretty (9), damaged (9), terrible (9), noisy (3), bad (3), tidy (3), safe (3), parking (3)",67
Islington,Clissold Park,Park,51.5616965,-0.0882314,4.7,0.6942800561587016,0.0,0.2,0.8,"Accessibility, Safety, Cleanliness, Aesthetics, General","parking (27), great (27), safe (24), easy (18), good (18), clean (12), lovely (12), beautiful (9), central (9), messy (9), muddy (9), tidy (3), dark (3), dead (3)",7163
Islington,"Camley Street Natural Park, London Wildlife Trust",Park,51.53504149999999,-0.1273936,4.6,0.5852727969487508,0.0,0.5333333333333333,0.4666666666666667,"Noise, Comfort, Atmosphere, Aesthetics, Traffic, General","peaceful (24), safe (12), busy (9), lively (9), spacious (9), good (9), pleasant (9), wonderful (9), calm (9), walking (9), lovely (9), beautiful (6), parking (6), tidy (6), crowded (6)",573
Islington,Haggerston Park,Park,51.5327588,-0.0669747,4.5,0.669574518998464,0.0,0.26666666666666666,0.7333333333333333,"Accessibility, Cleanliness, Atmosphere, Aesthetics, General","far (15), safe (15), parking (12), lovely (9), good (9), great (9), perfect (9), beautiful (9), gorgeous (9), clean (9), relaxing (3), near (3)",2617
Islington,Spitalfields City Farm,Park,51.5221634,-0.06743489999999999,4.6,0.7002106428146362,0.0,0.3333333333333333,0.6666666666666666,"Accessibility, Noise, Comfort, Cleanliness, Atmosphere, Maintenance, Aesthetics, General","lovely (24), safe (18), good (18), far (15), bustling (9), great (9), maintained (9), new (9), excellent (9), amazing (9), peaceful (9), relaxing (9), parking (6), welcoming (6), walking (3), tidy (3)",951
Islington,St Ethelburga's Centre for Reconciliation and Peace Venue,Tourist Attraction,51.5155664,-0.0820783,4.8,0.8703844745953878,0.0,0.0,1.0,"Accessibility, Noise, Comfort, Cleanliness, Atmosphere, Aesthetics, General","great (54), beautiful (36), perfect (18), amazing (18), tidy (12), wonderful (9), lovely (9), fantastic (9), gorgeous (9), music (9), central (9), cozy (9), clean (9), good (3), noisy (3), safe (3), lively (3)",296
Islington,Regent's Park Office,Park,51.5284194,-0.1512811,4.6,0.5927792549133301,0.2,0.26666666666666666,0.5333333333333333,"Aesthetics, Accessibility, General","amazing (24), beautiful (18), parking (18), good (9), excellent (9), great (9), safe (6), difficult (3)",190
Islington,St Dunstan in the East Church Garden,Tourist Attraction,51.509715,-0.0824601,4.7,0.5910111506779988,0.0,0.6,0.4,"Accessibility, Noise, Atmosphere, Maintenance, Aesthetics, Traffic, General","peaceful (36), great (36), quiet (18), empty (18), beautiful (15), safe (15), calm (12), crowded (9), good (9), damaged (9), parking (9), old (9), serene (9), perfect (9), lovely (9), pretty (9), walking (7), relaxing (3), near (3), flow (3)",7342
Islington,Danscape Gardens Limited,Park,51.5468581,-0.08435550000000001,4.8,0.6656630615393321,0.06666666666666667,0.4,0.5333333333333333,"Accessibility, Cleanliness, Maintenance, Aesthetics, General","excellent (27), great (18), tidy (12), old (9), new (9), difficult (9), amazing (9), lovely (9), clean (9), fantastic (9)",19
Islington,"St Luke's Garden, Islington",Park,51.52564800000001,-0.09415160000000003,4.3,0.5949114223321279,0.0,0.6,0.4,"Noise, Comfort, Cleanliness, Atmosphere, Maintenance, Aesthetics, Traffic, General","walking (21), peaceful (18), lovely (18), clean (18), old (18), comfortable (9), good (9), traffic (9), quiet (9), safe (6), tidy (6)",200
Islington,Butterfield Green,Park,51.5543,-0.07987890000000002,4.4,0.598566867907842,0.0,0.6666666666666666,0.3333333333333333,"Noise, Atmosphere, Maintenance, Aesthetics, General","good (30), lovely (21), old (18), parking (15), safe (15), crowded (9), serene (9), quiet (9), pretty (9), fantastic (9), tidy (6), neat (6), near (6), new (6), updated (3), noisy (3), walking (3)",320
Islington,Myddelton Square garden,Park,51.53020209999999,-0.1079794,4.4,0.6002926429112753,0.0,0.5333333333333333,0.4666666666666667,"Noise, Atmosphere, Maintenance, Aesthetics, Traffic","peaceful (18), quiet (15), beautiful (9), lovely (9), busy (9), pretty (9), relaxing (7), safe (3), messy (3), calm (3), old (3), parking (3), flow (3)",209
Islington,St Pancras International,Transit Station,51.53111620000001,-0.1258659,4.4,0.5186424831549327,0.2,0.6,0.2,"Accessibility, Safety, Comfort, Cleanliness, Atmosphere, Maintenance, Traffic","security (27), busy (9), clean (9), easy (9), safe (9), connected (9), convenient (9), modern (9), pleasant (9), tidy (6), good (3), pretty (3)",4816
Islington,Liverpool Street,Transit Station,51.51875159999999,-0.08143740000000001,4.3,0.7124505201975505,0.0,0.2,0.8,"Accessibility, Comfort, Cleanliness, Atmosphere, Maintenance, Aesthetics, Traffic, General","safe (21), great (18), spacious (18), excellent (18), beautiful (9), enjoyable (9), pretty (9), modern (9), central (9), easy (9), busy (9), near (9), convenient (9), crowded (3), tidy (3)",3193
Islington,Euston,Transit Station,51.5280408,-0.1333271,3.9,0.5540195147196452,0.0,0.8,0.2,"Accessibility, Comfort, Cleanliness, Atmosphere, Maintenance, Traffic, General","busy (30), pleasant (18), easy (18), crowded (12), parking (9), bikes (9), tidy (9), dirty (9), bad (9), broken (9), clean (9), perfect (3), new (3), safe (3)",3099
Islington,Herbrand Street Car Park,Bus Station,51.5238788,-0.1254874,4.0,0.8255264361699423,0.0,0.0,1.0,"Comfort, Cleanliness, Safety","clean (9), spacious (9), security (9), walking (3), cars (3), parking (3)",1
Islington,Albany Street Police Station,Bus Station,51.5265959,-0.1440576,3.0,0.48888904352982837,0.16666666666666666,0.8333333333333334,0.0,Safety,"police (9), noisy (6)",3
Islington,Cannon Street,Subway Station,51.5110809,-0.09035030000000001,4.2,0.6667616645495097,0.0,0.3333333333333333,0.6666666666666666,"Accessibility, Noise, Cleanliness, Atmosphere, Aesthetics, Traffic, General","pretty (45), easy (27), clean (27), safe (18), central (9), good (9), rubbish (9), crowded (9), spotless (9), great (9), lovely (9), traffic (9), wonderful (9), walking (7), noisy (6), near (3), tidy (3)",99
Islington,Fenchurch Street,Train Station,51.5117122,-0.07906189999999999,4.1,0.6264823734760284,0.0,0.6,0.4,"Maintenance, Comfort, Cleanliness, Aesthetics","new (18), lovely (12), broken (9), unpleasant (9), pretty (9), noisy (6), safe (6), clean (6), old (5), tidy (3), cars (3), parking (3)",218
Islington,Saint Dunstan in the East Church Tower,Transit Station,51.50979100000001,-0.0827674,4.7,0.5520656108856201,0.0,0.5,0.5,"Maintenance, Aesthetics","beautiful (9), old (9)",3
Islington,Fitness First - Great Marlborough Street,Bus Station,51.5148191,-0.1389422,4.8,0.5867916226387024,0.2,0.13333333333333333,0.6666666666666666,"Safety, Comfort, Cleanliness, Maintenance, General","great (36), good (21), clean (18), dark (9), new (9), welcoming (9), tidy (6), safe (3), lovely (3), messy (3), roomy (3)",10
Islington,Hoxton station,Transit Station,51.53023650000001,-0.0760657,4.3,0.5592690924803416,0.06666666666666667,0.7333333333333333,0.2,"Maintenance, Cleanliness, Accessibility, General","good (18), great (18), near (9), modern (9), tidy (6), clean (6), messy (5), noisy (3), cyclists (3), safe (3)",12
Islington,Barbican Station,Transit Station,51.52067659999999,-0.09762519999999998,4.0,0.0,0.0,0.0,0.0,,,8
Islington,St John Street (Stop J),Bus Station,51.5226031,-0.1039438,4.8,0.4774580630991194,0.4444444444444444,0.2222222222222222,0.3333333333333333,General,great (9),5
Islington,Shoreditch High Street Station (Stop N),Bus Station,51.52496299999999,-0.07724299999999998,3.8,0.592955920431349,0.3333333333333333,0.3333333333333333,0.3333333333333333,General,"great (9), good (9), busy (3), safe (3)",6
Islington,"Avenue Q, West End Musical",Bus Station,51.5110988,-0.1272925,3.5,0.5096009771029154,0.16666666666666666,0.6666666666666666,0.16666666666666666,General,"great (6), lovely (3)",2
Islington,Old Street,Transit Station,51.5256641,-0.08753,3.9,0.6488051096598307,0.0,0.6,0.4,"Accessibility, Safety, Noise, Cleanliness, Atmosphere, Maintenance, Aesthetics, Traffic, General","old (45), new (30), great (18), tidy (18), pedestrian (18), safe (15), clean (12), lighting (9), dirty (9), easy (9), improved (9), pretty (9), quiet (9), lovely (9), fantastic (9), modern (9), messy (6), traffic (6), neat (3), near (3)",413
Islington,Barbican,Subway Station,51.5202192,-0.09767709999999999,4.2,0.5062550127506256,0.13333333333333333,0.6666666666666666,0.2,"Accessibility, Safety, Atmosphere, Maintenance, Traffic, Aesthetics, General","old (19), dark (12), good (12), safe (9), ugly (9), beautiful (9), disappointing (9), pretty (9), lovely (9), accessible (9), crowded (9), noisy (6), dead (3), flow (3), tidy (3)",117
Islington,Russell Square,Subway Station,51.5230788,-0.1242635,4.0,0.6470544060071309,0.0,0.26666666666666666,0.7333333333333333,"Accessibility, Noise, Cleanliness, Atmosphere, Maintenance, Traffic, Aesthetics","safe (33), busy (27), walking (19), convenient (18), central (9), maintained (9), clean (9), bustling (9), beautiful (9), accessible (9), modern (9), lovely (9), easy (9), charming (6), tidy (3), good (3), crowded (3)",213
Islington,Mornington Crescent,Subway Station,51.5343501,-0.1388961,4.1,0.5372059961160024,0.2,0.4666666666666667,0.3333333333333333,"Accessibility, Noise, Comfort, Atmosphere, Maintenance, Aesthetics, General","beautiful (9), good (9), pleasant (9), quiet (9), easy (9), old (9), safe (6), walking (6), lovely (6), messy (3), tidy (3)",108
Islington,Chancery Lane,Subway Station,51.5182067,-0.1114984,4.0,0.5059459626674652,0.2,0.6,0.2,"Accessibility, Noise, Cleanliness, Atmosphere, Traffic, General","clean (18), tidy (18), busy (18), safe (12), central (9), quiet (9), good (9), noisy (3), dark (3), dead (3)",101
Islington,Moorgate,Transit Station,51.51850709999999,-0.0883927,4.2,0.6255181550979614,0.0,0.4666666666666667,0.5333333333333333,"Accessibility, Cleanliness, Atmosphere, Maintenance, Traffic, Aesthetics, General","old (18), tidy (15), convenient (9), modern (9), maintained (9), busy (9), easy (9), clean (9), new (9), central (9), great (9), pretty (9), amazing (9), connected (3), safe (3)",991
Islington,Camden Town,Subway Station,51.5393847,-0.1426546,4.4,0.6780325035254161,0.0,0.4,0.6,"Accessibility, Noise, Comfort, Atmosphere, Traffic, General","safe (18), good (18), walking (12), lively (9), vibrant (9), enjoyable (9), crowded (9), buzzing (9), music (9), dark (6), dead (6), perfect (5), noisy (3), messy (3), tidy (3), charming (3), convenient (3), quiet (3), connected (3), parking (3)",1081
Islington,Kentish Town,Transit Station,51.5503953,-0.1405159,3.7,0.5087166547775268,0.4,0.2,0.4,"Accessibility, Cleanliness, Maintenance, Aesthetics, General","grimy (18), safe (12), charming (9), good (9), great (9), central (9), clean (9), new (9), noisy (6), tidy (3), upgraded (3), near (3)",116
Islington,Euston Square,Subway Station,51.52563500000001,-0.1350197,4.0,0.5591281155745188,0.0,0.8,0.2,"Accessibility, Cleanliness, Atmosphere, Maintenance, Traffic, General","good (27), fantastic (9), maintained (9), busy (9), safe (9), convenient (9), crowded (9), walking (6), clean (6), noisy (3)",113
Islington,Holborn,Subway Station,51.51742770000001,-0.1199958,3.9,0.6307083050409953,0.0,0.5333333333333333,0.4666666666666667,"Accessibility, Noise, Comfort, Cleanliness, Atmosphere, Maintenance, Aesthetics, Traffic","safe (9), bustling (9), messy (9), clean (9), tidy (9), central (9), near (6), cramped (4), crowded (3), walking (3), old (3), busy (3)",359
Islington,St. Paul's,Subway Station,51.5149293,-0.09755709999999998,4.6,0.7133498807748159,0.0,0.26666666666666666,0.7333333333333333,"Accessibility, Noise, Cleanliness, Atmosphere, Maintenance, Traffic, Aesthetics, General","great (18), safe (15), central (9), busy (9), clean (9), tidy (9), far (9), accessible (9), beautiful (9), modern (9), quiet (6), noisy (3), walking (3), lovely (3), parking (3)",242
Islington,Tufnell Park,Subway Station,51.5567509,-0.1379821,3.5,0.49858147104581196,0.06666666666666667,0.9333333333333333,0.0,"Atmosphere, Maintenance, Aesthetics, Traffic, General","excellent (18), great (9), busy (9), old (9), lovely (6), parking (3), noisy (3), walking (3)",75
Islington,Warren Street,Subway Station,51.5246192,-0.1381671,4.2,0.5297186156113942,0.2,0.6,0.2,"Accessibility, Cleanliness, Atmosphere, Maintenance, Traffic, General","busy (21), clean (18), tidy (15), good (15), great (9), crowded (9), convenient (9), safe (6), messy (3), noisy (3)",253
Islington,Goodge Street,Subway Station,51.5206203,-0.1344842,4.0,0.5378352602322897,0.0,0.8,0.2,"Accessibility, Safety, Noise, Cleanliness, Atmosphere, Maintenance, Traffic, Aesthetics, General","good (24), busy (18), central (9), traffic (9), clean (9), pretty (9), dangerous (9), maintained (9), driving (6), quiet (6), near (3), old (3), tidy (3), noisy (3), walking (3), safe (3)",118
Islington,One New Change,Shopping Mall,51.513924,-0.0954749,4.2,0.6945504903793335,0.0,0.4,0.6,"Accessibility, Noise, Atmosphere, Maintenance, Aesthetics, General","great (27), safe (21), new (18), modern (18), stunning (18), central (12), fantastic (9), perfect (9), amazing (9), lively (9), music (9), tidy (6), dark (6), dead (6)",7009
Islington,The Brunswick Centre,Shopping Mall,51.5247596,-0.1240282,4.2,0.6772402703762055,0.13333333333333333,0.26666666666666666,0.6,"Safety, Comfort, Cleanliness, Atmosphere, Maintenance, Aesthetics, Traffic, General","lovely (21), good (12), amazing (9), clean (9), beautiful (9), parking (9), cozy (9), modern (9), busy (9), pretty (9), new (9), dark (9), great (9), flow (3), safe (3)",6312
Islington,Spitalfields Arts Market,Shopping Mall,51.5193763,-0.07612880000000001,4.4,0.7081507086753845,0.0,0.2,0.8,"Maintenance, Traffic, Aesthetics, General","great (36), old (27), lovely (12), safe (12), walking (10)",978
Islington,Kingsland Shopping Centre,Shopping Mall,51.5476646,-0.07344629999999999,3.7,0.5105493903160095,0.13333333333333333,0.6,0.26666666666666666,"Comfort, Traffic, Accessibility, General","parking (30), safe (12), cars (9), excellent (9), good (9), pleasant (3), near (3)",4066
Islington,Camden Mall,Shopping Mall,51.5452268,-0.1422409,4.7,0.5107220311959585,0.0,1.0,0.0,,,3
Islington,Spitalfields Market,Shopping Mall,51.5197441,-0.07606879999999998,4.5,0.6015459756056468,0.0,0.5333333333333333,0.4666666666666667,"Accessibility, Safety, Noise, Comfort, Cleanliness, Atmosphere, Maintenance, Aesthetics, Traffic, General","old (36), safe (27), good (24), great (18), accessible (18), vibrant (15), walking (12), busy (12), lively (12), fantastic (9), easy (9), crowded (9), enjoyable (9), buzzing (9), central (9), music (9), clean (9), maintained (9), new (9), parking (9), perfect (7), beautiful (3), flow (3), far (3), tidy (3)",31287
Islington,BILLIONEARN LTD,Shopping Mall,51.5130167,-0.0943522,4.0,0.0,0.0,0.0,0.0,,,1
Islington,Covent Garden,Shopping Mall,51.512045,-0.1228254,4.6,0.7623769521713257,0.0,0.4,0.6,"Accessibility, Noise, Comfort, Atmosphere, Maintenance, Aesthetics, Traffic, General","safe (45), vibrant (42), charming (42), lively (42), stunning (27), beautiful (27), perfect (21), walking (21), modern (18), music (18), elegant (18), welcoming (9), wonderful (9), accessible (9), convenient (9), cozy (9), walkable (9), easy (9), excellent (9), fantastic (9), old (9), new (9), crowded (9), noisy (3), far (3), near (3), tidy (3)",119033
Islington,Backyard Market,Shopping Mall,51.5211868,-0.07114430000000001,4.4,0.5779169976711274,0.0,0.8,0.2,"Cleanliness, Aesthetics, General","lovely (9), clean (9), tidy (6), good (3), amazing (3)",250
Islington,Thomas Neals Centre,Shopping Mall,51.51398080000001,-0.1254239,4.2,0.5898722767829895,0.06666666666666667,0.7333333333333333,0.2,"Accessibility, Cleanliness, Atmosphere, Maintenance, Traffic, Aesthetics, General","excellent (27), busy (21), beautiful (18), clean (9), good (9), improved (9), accessible (9), lovely (9), great (9)",21
Islington,All Hallows-On-The Wall,Tourist Attraction,51.51662820000001,-0.08439959999999999,4.6,0.6271195888519288,0.2,0.2,0.6,"Noise, Comfort, Atmosphere, Aesthetics, General","great (18), quiet (9), welcoming (9), wonderful (6), beautiful (6), peaceful (3), good (3), fantastic (3)",40
Islington,The British Museum,Museum,51.5194133,-0.1269566,4.7,0.8235530217488607,0.06666666666666667,0.13333333333333333,0.8,"Aesthetics, Atmosphere, Accessibility, General","great (18), beautiful (12), safe (12), poor (9), serene (9), far (9), amazing (6), modern (3), relaxing (3), lovely (1)",164069
Islington,St. Paul's Cathedral,Tourist Attraction,51.51384530000001,-0.0983506,4.7,0.7551079392433167,0.0,0.2,0.8,"Noise, Atmosphere, Maintenance, Aesthetics, Traffic, General","safe (39), beautiful (36), gorgeous (18), elegant (9), tidy (9), great (9), stunning (9), calm (9), charming (9), perfect (9), quiet (3), flow (3), messy (3), good (3)",49922
Islington,Barbican Centre,Art Gallery,51.5202077,-0.09378639999999999,4.6,0.6536209980646769,0.0,0.4,0.6,"Aesthetics, Accessibility, General","good (39), great (27), fantastic (15), amazing (9), beautiful (9), stunning (9), near (3), cars (3), calm (3), cozy (3), tidy (3)",4287
Islington,Grant Museum of Zoology,Tourist Attraction,51.5237545,-0.1344056,4.8,0.6876763780911763,0.0,0.0,1.0,"Atmosphere, Traffic, Aesthetics, General","safe (15), crowded (12), amazing (9), busy (9), dark (3), dead (3), tidy (3), good (3)",1090
Islington,Sir John Soane's Museum,Museum,51.51703819999999,-0.1174699,4.7,0.7068151871363322,0.0,0.2,0.8,"Maintenance, Aesthetics, Accessibility, General","lovely (18), good (12), accessible (9), wonderful (9), great (9), near (9), old (9), roomy (6), safe (6), noisy (3)",4605
Islington,Somerset House,Tourist Attraction,51.511059,-0.1171479999999999,4.4,0.6811688860257467,0.2,0.0,0.8,"Accessibility, Comfort, Atmosphere, Aesthetics, General","beautiful (24), welcoming (9), great (9), central (9), crowded (9), stunning (9), tidy (6), messy (3), safe (3)",1669
Islington,Roundhouse,Tourist Attraction,51.5432545,-0.151869,4.6,0.6550921658674876,0.0,0.5333333333333333,0.4666666666666667,"Accessibility, Safety, Noise, Comfort, Maintenance, General","great (36), good (27), easy (18), bad (18), amazing (12), music (9), convenient (9), tidy (9), security (9), cramped (9), crowded (3), lovely (3), far (3), safe (3), dark (3), dead (3)",8798
Islington,Leadenhall Market,Tourist Attraction,51.51276600000001,-0.0835289,4.4,0.6284240881601969,0.0,0.4,0.6,"Cleanliness, Atmosphere, Maintenance, Aesthetics, General","great (27), safe (24), old (21), good (18), beautiful (18), modern (18), stunning (18), lively (9), perfect (9), maintained (9), noisy (3), walking (3), charming (2), appealing (1)",20160
Islington,Temple Church,Tourist Attraction,51.5132637,-0.1102647,4.6,0.6569930950800578,0.0,0.4,0.6,"Accessibility, Noise, Atmosphere, Aesthetics, General","beautiful (30), peaceful (27), safe (15), amazing (9), good (9), great (9), central (9), active (9), quiet (9), perfect (9), near (9), walking (6), convenient (3)",2663
Islington,30 St Mary Axe (The Gherkin),Landmark,51.51449179999999,-0.08030649999999999,4.6,0.684203855196635,0.0,0.4666666666666667,0.5333333333333333,"Maintenance, Aesthetics, Safety, General","great (45), stunning (18), old (18), safe (12), amazing (9), poor (9), disappointing (9), improved (9), secure (9), security (9), beautiful (9), new (9), good (6), tidy (6), walking (3)",5544
Islington,Royal Ballet and Opera,Tourist Attraction,51.51292109999999,-0.1221976,4.8,0.7481252710024516,0.0,0.2,0.8,"Accessibility, Noise, Comfort, Maintenance, Aesthetics, Traffic, General","lovely (12), music (9), good (9), pleasant (9), wonderful (9), difficult (9), walking (9), safe (6), lively (6), tidy (6), amazing (6), noisy (3), messy (3), dead (3)",10558
Islington,Museum of the Order of Saint John,Museum,51.522026,-0.102734,4.6,0.6774243474006653,0.0,0.2,0.8,"Accessibility, Noise, Atmosphere, Maintenance, Aesthetics, General","good (12), safe (12), pretty (12), quiet (9), accessible (9), modern (9), poor (6), tidy (3), charming (3), noisy (3), lively (3)",526
Islington,St Mary-le-Bow Church,Tourist Attraction,51.513743,-0.0936438,4.6,0.5062423308690389,0.13333333333333333,0.8666666666666667,0.0,"Noise, Atmosphere, Maintenance, Aesthetics, Traffic, General","safe (36), beautiful (27), great (27), quiet (18), old (12), lovely (9), damaged (9), active (9), stunning (9), busy (9), modern (9), fantastic (9), tidy (3), peaceful (3)",238
Islington,Charles Dickens Museum,Tourist Attraction,51.5235861,-0.1162944,4.6,0.6368550539016724,0.0,0.6,0.4,"Aesthetics, Traffic, Atmosphere, General","great (27), busy (18), lovely (18), safe (12), crowded (9), wonderful (9), amazing (9), congested (9), tidy (6), roomy (6), dark (3), dead (3)",2299
Islington,West Reservoir,Natural Feature,51.5682159,-0.09043169999999999,4.4,0.602470709880193,0.2,0.2,0.6,"Comfort, Cleanliness, General","great (18), enjoyable (9), clean (9), wonderful (9), walking (6), messy (3)",14
Islington,East Reservoir,Natural Feature,51.5708496,-0.08602449999999999,4.2,0.5500674724578858,0.13333333333333333,0.6666666666666666,0.2,"Noise, Atmosphere, Aesthetics, Accessibility","beautiful (9), difficult (9), crowded (9), quiet (9), peaceful (6), tidy (3), noisy (3)",6
Islington,River Fleet,Natural Feature,51.51085019999999,-0.1039077,3.9,0.4511593520641327,0.6666666666666666,0.13333333333333333,0.2,"Traffic, Aesthetics, Accessibility","safe (12), tidy (6), messy (6), near (6), noisy (3), flow (3)",26
Islington,Clapton Pond,Natural Feature,51.5561061,-0.05490830000000001,4.3,0.6004264156023661,0.06666666666666667,0.4666666666666667,0.4666666666666667,"Safety, Noise, Atmosphere, Maintenance, Aesthetics, Traffic, General","busy (18), peaceful (9), police (9), beautiful (9), scenic (9), relaxing (9), old (9), wonderful (9), noisy (3), lively (2)",203
Islington,River Walbrook,Natural Feature,51.5092916,-0.09269129999999999,4.0,0.47087520360946655,0.3333333333333333,0.6666666666666666,0.0,Traffic,flow (6),3
Islington,Boating Lake,Natural Feature,51.52836920000001,-0.1605325,4.7,0.6340478499730428,0.0,0.4,0.6,"Comfort, Atmosphere, Aesthetics, General","pretty (18), relaxing (18), lovely (12), amazing (9), pleasant (9), parking (3), safe (3), good (3), tidy (3), walking (3)",32
Islington,West Boating Lake,Natural Feature,51.5337283,-0.0436702,5.0,0.5974406997362772,0.0,0.6666666666666666,0.3333333333333333,General,"great (18), lovely (3)",6
Islington,Bunhill Fields Burial Ground,Cemetery,51.523686,-0.08873400000000001,4.5,0.5425805687904358,0.0,0.8,0.2,"Accessibility, Noise, Cleanliness, Atmosphere, Maintenance, General","great (27), central (18), peaceful (9), quiet (9), accessible (9), modern (9), maintained (9), neglected (9), walking (6), parking (3), noisy (3), safe (3), good (3), tidy (3)",852
Islington,Abney Park Cemetery Trust,Cemetery,51.5635092,-0.0736194,4.7,0.6116973996162415,0.0,0.4,0.6,"Accessibility, Noise, Comfort, Cleanliness, Atmosphere, Maintenance, Aesthetics, Traffic, General","old (18), beautiful (18), peaceful (18), muddy (18), walking (11), amazing (9), bad (9), clean (9), accessible (9), calm (9), safe (9), pleasant (9), good (6), lovely (6), fantastic (6), tidy (3), parking (3), wonderful (3)",214
Islington,St. Laurence Pountney Churchyard,Cemetery,51.5106071,-0.08858740000000001,5.0,0.39937375982602435,0.6666666666666666,0.3333333333333333,0.0,,safe (3),1
Islington,New Gravel Pit Chapel Burial Ground,Cemetery,51.5444955,-0.0496422,5.0,0.0,0.0,0.0,0.0,,,1
Islington,Church of Saint John,Church,51.5231933,-0.1038242,4.3,0.5998194242517153,0.08333333333333333,0.3333333333333333,0.5833333333333334,"Accessibility, Comfort, Atmosphere, Aesthetics, General","safe (9), near (9), pleasant (9), stunning (9), serene (9), perfect (9)",6
Islington,St George's German Lutheran Church,Church,51.5141456,-0.0704572,4.5,0.4925377825895945,0.2,0.6,0.2,"Aesthetics, Maintenance, Atmosphere","safe (21), attractive (9), old (8), tidy (3), dark (3), dead (3), messy (3)",30
Islington,St Michael's Church : Paternoster Royal,Church,51.51118719999999,-0.09223680000000001,5.0,0.5964526871840159,0.0,0.4,0.6,"Maintenance, Aesthetics, Safety, General","lovely (18), beautiful (18), modern (9), great (9), damaged (9), safe (6), messy (3), peaceful (3)",25
Islington,St. Peter's Italian Catholic Church,Tourist Attraction,51.5221376,-0.1090398,4.8,0.6878133455912272,0.0,0.26666666666666666,0.7333333333333333,"Accessibility, Comfort, Maintenance, Aesthetics, General","beautiful (27), good (15), tidy (12), great (9), peaceful (9), difficult (9), far (9), welcoming (9), wonderful (9), stunning (9), safe (6), messy (3), lovely (3), lighting (3), dirty (3), easy (3), lively (3), connected (3)",638
Islington,St George the Martyr Church,Tourist Attraction,51.5209846,-0.1224565,4.6,0.6086974978446961,0.2,0.26666666666666666,0.5333333333333333,"Noise, Comfort, Cleanliness, Atmosphere, Maintenance, Aesthetics, Traffic, General","beautiful (18), fantastic (15), safe (15), peaceful (9), great (9), modern (9), elegant (9), dirty (9), welcoming (9), lovely (3), dangerous (3), wonderful (3)",30
Islington,St Bartholomew the Great,Tourist Attraction,51.5188812,-0.09967490000000001,4.8,0.7095571756362915,0.0,0.4,0.6,"Accessibility, Noise, Atmosphere, Maintenance, Aesthetics, General","great (189), safe (48), peaceful (18), lovely (15), beautiful (12), near (12), stunning (9), wonderful (9), poor (9), modern (9), quiet (9), bustling (9), new (3), old (3), damaged (3)",849
Islington,"St Paul's Church, West Hackney",Church,51.55701029999999,-0.07400480000000001,4.4,0.5133516252040863,0.4,0.4,0.2,"Noise, Comfort, Atmosphere, Maintenance, Aesthetics, General","lovely (12), safe (9), peaceful (9), good (9), welcoming (9), amazing (9), great (9), cars (3)",59
Islington,St Giles Cripplegate,Tourist Attraction,51.5187013,-0.0938786,4.6,0.6121865848700205,0.0,0.4,0.6,"Accessibility, Noise, Comfort, Atmosphere, Maintenance, Aesthetics, General","beautiful (18), safe (18), stunning (18), comfortable (9), near (9), great (9), peaceful (9), bustling (9), serene (9), lovely (9), quiet (9), good (3)",179
Islington,Christ Church Spitalfields,Tourist Attraction,51.5191118,-0.0739413,4.5,0.6741563459237416,0.06666666666666667,0.3333333333333333,0.6,"Aesthetics, General","beautiful (27), safe (9), wonderful (9), great (9), lovely (3), messy (3), tidy (3)",249
Islington,St Paul’s Church Covent Garden,Tourist Attraction,51.5115492,-0.1237595,4.6,0.5927820940812428,0.0,0.6,0.4,"Noise, Aesthetics, Accessibility, General","lovely (27), perfect (9), tidy (9), safe (9), near (9), good (6), music (6), wonderful (6), roomy (3), fantastic (3)",911
Islington,"St Bride's Church, Fleet Street",Tourist Attraction,51.5137695,-0.105544,4.7,0.7799885789553325,0.0,0.0,1.0,"Accessibility, Comfort, Cleanliness, Maintenance, Aesthetics, General","modern (27), wonderful (18), beautiful (18), stunning (18), safe (12), maintained (9), appealing (9), welcoming (9), accessible (9), noisy (3), lively (3), messy (3), fantastic (3)",508
Islington,Catholic Chaplaincy,Church,51.5231197,-0.133508,4.8,0.7006316463152568,0.0,0.2,0.8,"Accessibility, Comfort, Maintenance, Aesthetics, General","great (36), central (18), safe (15), welcoming (9), amazing (6), good (3), lovely (3), dark (3), dead (3)",22
Islington,St Pancras New Church,Tourist Attraction,51.527206,-0.1299512,4.4,0.6456418414910634,0.2,0.06666666666666667,0.7333333333333333,"Accessibility, Safety, Noise, Comfort, Atmosphere, Maintenance, Aesthetics, Traffic, General","great (18), safe (12), near (9), lovely (9), perfect (9), music (9), welcoming (9), beautiful (9), new (9), busy (9), quiet (9), wonderful (3), noisy (3), lighting (3)",316
Islington,St Andrew's N16,Church,51.5706481,-0.080275,4.7,0.6044485787550609,0.0,0.5333333333333333,0.4666666666666667,"Noise, Comfort, Atmosphere, Aesthetics, General","beautiful (18), peaceful (12), pleasant (9), welcoming (9), good (9)",12
Islington,NCP London Bloomsbury Square,Parking,51.5188961,-0.1234354,3.4,0.8992298126220704,0.0,0.0,1.0,"Accessibility, Safety, Cleanliness, Maintenance, Traffic, General","parking (57), cars (51), amazing (33), safe (27), secure (21), tidy (18), security (18), damaged (10), broken (10), new (9), clean (9), improved (9), vehicle (9), poor (9), worst (9), noisy (3), lovely (3), good (3), messy (3), difficult (3), appealing (2)",454
Islington,Q-Park Chinatown,Parking,51.51235699999999,-0.129548,3.6,0.7592746535936992,0.0,0.0,1.0,"Accessibility, Safety, Maintenance, Traffic, General","parking (81), secure (27), broken (24), cars (21), great (18), safe (18), noisy (15), tidy (12), worst (9), near (9), security (9), accessible (9), disappointing (9), messy (3), vehicle (3), loud (3), easy (3)",658
Islington,Parkfinda - Holywell Lane Car Park,Parking,51.52375130000001,-0.07774990000000001,3.4,0.6226353128751119,0.06666666666666667,0.3333333333333333,0.6,"Maintenance, Traffic, Accessibility, General","parking (45), cars (9), convenient (9), easy (9), great (9), noisy (6), pretty (3), safe (3), tidy (3)",14
Islington,Minories Car Park,Parking,51.5103772,-0.07347619999999999,4.2,0.7011654059092204,0.0,0.2,0.8,"Comfort, Traffic, Accessibility, Safety","parking (42), cars (24), security (18), central (9), difficult (9), convenient (9), dark (9), tight (9), easy (9), unsafe (6), safe (6), bikes (3), noisy (3), messy (3)",563
Islington,St Martin's Lane Hotel,Parking,51.5106606,-0.1259362,3.8,0.575981871287028,0.0,0.8,0.2,"Noise, Comfort, Cleanliness, Atmosphere, Traffic, Aesthetics, General","good (27), clean (9), quiet (9), amazing (9), roomy (9), busy (9), lovely (9), excellent (9), comfortable (9), fantastic (9), tight (9), great (9), spotless (6), safe (6), tidy (6), walking (3), lighting (3), noisy (3), perfect (3)",32
Islington,Q-Park Soho,Parking,51.51435499999999,-0.137127,3.1,0.8136167645454406,0.0,0.0,1.0,"Accessibility, Safety, Comfort, Cleanliness, Maintenance, Traffic, Aesthetics, General","police (72), parking (55), security (54), secure (45), cars (35), tidy (21), clean (18), safe (12), good (12), broken (9), crime (9), vehicle (9), damaged (9), isolated (9), unpleasant (9), unsafe (9), far (9), maintained (9), noisy (6), neglected (3), poor (3), risky (3)",235
Islington,NCP London Kings Cross St Pancras,Parking,51.52672279999999,-0.1238161,2.5,0.589484175046285,0.2,0.4,0.4,"Accessibility, Safety, Atmosphere, Maintenance, Aesthetics, Traffic, General","parking (48), cars (39), broken (27), bad (18), tidy (12), dark (12), near (11), empty (9), terrible (9), convenient (9), secure (9), police (9), safe (3), dead (3), damaged (3)",137
Islington,Union Car Parks Ltd,Parking,51.524024,-0.08495819999999998,3.6,0.4548327545324961,0.3333333333333333,0.4666666666666667,0.2,"Traffic, Aesthetics, Safety","cars (52), parking (33), messy (24), safe (12), pretty (3), noisy (3), good (3)",34
Islington,Free Motorcycle Parking,Parking,51.5215067,-0.08518389999999999,2.3,0.4100593626499176,0.5,0.5,0.0,Maintenance,old (9),3
Islington,NCP London Finsbury Square,Parking,51.5209905,-0.0859236,3.0,0.5868381877740224,0.0,0.6666666666666666,0.3333333333333333,"Accessibility, Safety, Comfort, Cleanliness, Maintenance, Aesthetics, Traffic, General","parking (63), great (27), cars (21), good (21), easy (18), amazing (15), safe (12), tidy (9), far (9), tight (9), pretty (9), security (9), maintained (9), perfect (9), messy (3), difficult (3)",210
Islington,Lomax Carpark Corporation Ltd,Parking,51.537805,-0.138924,4.3,0.6383461773395538,0.0,0.4,0.6,"Accessibility, Safety, Cleanliness, Maintenance, Traffic, Aesthetics, General","parking (33), safe (15), good (12), clean (12), noisy (12), pretty (12), cars (12), walking (9), excellent (9), easy (9), old (9), great (9), broken (6), tidy (3)",194
Islington,Finsbury Square Motorcycle Parking Bay,Parking,51.520324,-0.0859556,3.0,0.5830121835072836,0.0,1.0,0.0,,,2
Islington,Senate House Library,Library,51.5211322,-0.1293625,4.6,0.677579422791799,0.0,0.2,0.8,"Noise, Comfort, Atmosphere, General","quiet (27), great (9), comfortable (9), perfect (9), good (9), pleasant (9)",194
Islington,The Warburg Institute,Art Gallery,51.5233696,-0.1301902,4.3,0.5568888942400615,0.0,0.8,0.2,"Maintenance, Aesthetics, Accessibility, General","great (18), good (18), easy (18), disappointing (9), lovely (9), beautiful (9), difficult (9), pretty (9), dark (3), dead (3), safe (3)",19
Islington,The Wiener Holocaust Library,Library,51.5215842,-0.1280363,4.8,0.578229945898056,0.0,0.6666666666666666,0.3333333333333333,"Comfort, Safety, General","great (12), crime (9), pleasant (3), safe (3)",15
Islington,Guildhall Library,Library,51.51561599999999,-0.09286309999999999,4.2,0.5836310724417368,0.0,0.5333333333333333,0.4666666666666667,"Safety, Noise, Comfort, Atmosphere, Aesthetics, General","pretty (21), tidy (9), unpleasant (9), quiet (9), poor (9), bad (9), security (9), fantastic (9), safe (6), good (3), updated (3), buzzing (3), noisy (3)",38
Islington,LSE Library: The British Library of Political and Economic Science,Library,51.51467290000001,-0.1157158,4.0,0.6607719997564951,0.06666666666666667,0.4,0.5333333333333333,"Accessibility, Safety, Noise, Maintenance, Aesthetics, Traffic, General","safe (36), silent (36), good (21), noisy (21), roomy (9), central (9), security (9), gorgeous (9), terrible (9), loud (9), walking (9), far (9), lovely (6), bad (3), tidy (3), awful (3)",140
Islington,Wellcome Library,Library,51.5259029,-0.1338878,4.5,0.642511781056722,0.0,0.4666666666666667,0.5333333333333333,"Accessibility, Safety, Noise, Comfort, Cleanliness, Atmosphere, Maintenance, Aesthetics, Traffic, General","lovely (27), safe (27), roomy (18), great (18), cozy (18), comfortable (18), good (12), old (12), walking (12), quiet (9), clean (9), near (9), easy (9), peaceful (9), modern (9), amazing (9), pretty (9), silent (9), calm (9), lighting (9), busy (9), crowded (9), beautiful (6), flow (3)",96
Islington,Idea Store Whitechapel,Library,51.5198531,-0.05792099999999999,3.9,0.5775345285733541,0.0,0.6,0.4,"Accessibility, Safety, Noise, Comfort, Cleanliness, Atmosphere, Maintenance, General","good (27), safe (21), quiet (18), peaceful (18), noisy (18), roomy (12), loud (12), vibrant (9), lively (9), welcoming (9), crime (9), comfortable (9), accessible (9), music (9), new (9), relaxing (9), tidy (9), old (9), clean (9), great (9), bustling (6), near (3)",218
Islington,Instituto Cervantes of London,Library,51.51313959999999,-0.1128463,4.6,0.7711399674415589,0.0,0.2,0.8,"Accessibility, Safety, Comfort, Maintenance, Aesthetics, General","safe (24), great (21), fantastic (18), lovely (15), good (9), difficult (9), comfortable (9), new (9), noisy (3), messy (3)",190
Islington,Museum of Freemasonry,Museum,51.5150276,-0.1210267,4.5,0.6660424510637919,0.0,0.2,0.8,"Comfort, Cleanliness, Aesthetics, Safety","clean (15), police (9), secure (9), welcoming (9), neat (9), beautiful (9), tidy (6), safe (3)",197
Islington,St Bride Foundation,Library,51.51347730000001,-0.1049217,4.6,0.7341739932696024,0.0,0.26666666666666666,0.7333333333333333,"Comfort, Aesthetics, General","great (27), stunning (9), welcoming (9), wonderful (9), good (3), tidy (3), charming (3), safe (3), shouting (3)",9
Islington,N4 Library,Library,51.56390270000001,-0.1034458,4.1,0.6419183433055877,0.13333333333333333,0.26666666666666666,0.6,"Accessibility, Safety, Noise, Cleanliness, Atmosphere, Maintenance, General","safe (21), tidy (21), amazing (18), quiet (18), noisy (12), easy (9), new (9), great (9), excellent (9), good (9), central (9), outdated (9), lovely (6), messy (6)",60
Islington,The Honourable Society of the Inner Temple,Library,51.5128905,-0.1097816,4.5,0.6784120380878449,0.2,0.0,0.8,"Aesthetics, General","wonderful (9), excellent (9), beautiful (9), amazing (6), easy (3)",60
Islington,"IOE, UCL's Faculty of Education and Society",University,51.52301629999999,-0.1279042,4.3,0.5251152952512105,0.4,0.3333333333333333,0.26666666666666666,"Atmosphere, Safety, General","great (18), tidy (9), bad (9), security (9), good (9), messy (6), lighting (3), noisy (3), calm (3), lovely (3), safe (3), roomy (3)",106
Islington,Nuffield Health City Fitness & Wellbeing Gym,Gym,51.5099867,-0.09127799999999998,3.8,0.8021140734354655,0.0,0.2,0.8,"Accessibility, Comfort, Cleanliness, Atmosphere, Maintenance, Aesthetics, Traffic, General","clean (36), broken (27), great (24), busy (18), maintained (12), messy (9), lovely (9), spacious (9), good (9), far (9), noisy (6), safe (6), connected (3)",173
Islington,Nuffield Health Shoreditch Fitness & Wellbeing Gym,Gym,51.5254026,-0.0794009,4.1,0.6287034809589386,0.0,0.4666666666666667,0.5333333333333333,"Comfort, Cleanliness, Atmosphere, Maintenance, Traffic, General","welcoming (27), great (18), safe (15), tidy (12), good (12), spotless (9), uncomfortable (9), messy (9), old (9), clean (9), maintained (9), busy (9), tight (9), roomy (3)",166
Islington,Nuffield Health Bloomsbury Fitness & Wellbeing Gym,Gym,51.5240128,-0.1182221,3.4,0.6590788622697195,0.0,0.6,0.4,"Safety, Comfort, Cleanliness, Maintenance, General","great (36), clean (27), amazing (18), maintained (15), safe (15), dark (15), excellent (9), spacious (9), perfect (9), fantastic (9), welcoming (9), deteriorating (9), tidy (9), noisy (6), dead (6), roomy (6), disappointing (3), messy (3)",118
Islington,City Lit,School,51.5149388,-0.1200873,4.2,0.6545664072036743,0.0,0.4,0.6,"Accessibility, Safety, Comfort, Cleanliness, Atmosphere, Maintenance, Aesthetics, General","safe (30), fantastic (18), tidy (15), new (15), lovely (12), noisy (12), amazing (9), clean (9), spacious (9), welcoming (9), convenient (9), good (9), accessible (9), great (9), easy (9), calm (9), dark (6), dead (6), difficult (6), roomy (3), messy (3), updated (3)",279
Islington,Saint Giles Colleges (London Central),School,51.52146219999999,-0.1236851,4.0,0.4969632923603058,0.0,1.0,0.0,General,good (9),2
Islington,The Bath House,School,51.552044,-0.0714273,5.0,0.7301623225212097,0.0,0.0,1.0,"Maintenance, Comfort, Accessibility, General","perfect (9), welcoming (9), connected (9)",3
Islington,CLK 1a Children's Centre,School,51.5223936,-0.1120354,5.0,0.6512519982126024,0.0,0.3333333333333333,0.6666666666666666,"General, Accessibility, Safety","great (27), good (18), safe (9), lovely (3), near (3)",4
Islington,Thomas Coram Centre,School,51.52542889999999,-0.1206182,5.0,0.7168971498807272,0.0,0.0,1.0,General,"great (9), lovely (1)",3
Islington,UCL Institute of Archaeology,University,51.52485069999999,-0.1317153,4.7,0.4962834566831589,0.0,1.0,0.0,General,great (6),6
Islington,University of London,University,51.5229649,-0.1309067,4.3,0.7163742283980051,0.0,0.3333333333333333,0.6666666666666666,"Maintenance, Atmosphere, Accessibility, General","far (27), worst (9), noisy (9), inaccessible (9), poor (9), tidy (9), old (9), good (9), great (9), safe (6), pretty (3), lively (3), connected (3), messy (3)",623
Islington,Don Gratton House (University Of The Arts London),University,51.5183626,-0.065568,2.0,0.0,0.0,0.0,0.0,,,1
Islington,Royal College of Surgeons of England,University,51.5153587,-0.1159651,4.4,0.6231019536654154,0.2,0.2,0.6,"Accessibility, Comfort, Cleanliness, Maintenance, Aesthetics, General","good (12), accessible (9), clean (9), beautiful (9), elegant (9), renovated (9), welcoming (9), tidy (6), safe (6), roomy (3)",131
Islington,Royal College of Physicians,University,51.5257424,-0.145168,4.6,0.711254213253657,0.0,0.26666666666666666,0.7333333333333333,"Accessibility, Cleanliness, Maintenance, Aesthetics, General","wonderful (18), old (9), central (9), great (9), maintained (9), lovely (6), safe (3), tidy (3), neat (3), near (3), new (3)",184
Islington,SOAS University of London,University,51.52235,-0.129259,4.2,0.5852277159690857,0.2,0.2,0.6,"Maintenance, Aesthetics, Accessibility, General","good (30), tidy (12), safe (12), central (9), pretty (9), stunning (9), beautiful (9), lovely (6), messy (6), appealing (3)",287
Islington,"Birkbeck, University of London",University,51.5219679,-0.1302543,4.0,0.5274815519650777,0.0,0.8,0.2,"Maintenance, Cleanliness, Aesthetics, General","noisy (21), safe (18), messy (12), wonderful (9), beautiful (9), disappointing (9), tidy (9), updated (9), poor (9), new (9), clean (9), modern (9), fantastic (9), great (9), walking (3)",359
Islington,University of the Arts London,University,51.51778840000001,-0.1163673,3.7,0.6317491829395294,0.2,0.2,0.6,"Maintenance, General","disappointing (24), noisy (15), tidy (9), messy (9), bad (9), terrible (6), safe (3), good (3), awful (3)",126
Islington,"New City College, Hackney",University,51.5306534,-0.0788152,3.8,0.7043620546658834,0.0,0.2,0.8,"Accessibility, Noise, Comfort, Atmosphere, Maintenance, Aesthetics, Traffic, General","new (36), great (27), bad (15), messy (9), bikes (9), disappointing (9), old (9), easy (9), welcoming (9), quiet (9), difficult (9), busy (6), dark (6), dead (6), wonderful (3), good (3)",164
Islington,Oxford House College,University,51.51564899999999,-0.134586,4.3,0.7132753054300944,0.0,0.06666666666666667,0.9333333333333333,"Maintenance, Comfort, Accessibility, General","great (18), good (15), disappointing (9), far (9), excellent (9), comfortable (9), new (9), poor (9), safe (6), difficult (3), tidy (3), noisy (3), messy (3)",124
Islington,Universities UK,University,51.5257864,-0.1295946,3.8,0.37400160133838656,0.7333333333333333,0.26666666666666666,0.0,Safety,"secure (9), tidy (6), lively (3), safe (3)",19
Islington,Newcastle University London,University,51.5175789,-0.0772007,4.0,0.6786206920941671,0.0,0.4,0.6,"Comfort, Cleanliness, Maintenance, Aesthetics, General","good (27), pretty (12), great (9), safe (9), comfortable (9), new (9), clean (9), pleasant (9), poor (6), tidy (3), messy (3), noisy (3)",48
Islington,London School of Economics and Political Science,University,51.5144388,-0.1164513,4.4,0.7265917181968689,0.0,0.4,0.6,"Accessibility, Safety, Comfort, Maintenance, Aesthetics, General","excellent (27), beautiful (18), new (9), amazing (9), accessible (9), security (9), cozy (9), messy (9), good (6), lovely (3), safe (3), tidy (3)",842
Islington,Hackney Community College - Keltan House,University,51.5375366,-0.05724120000000001,3.0,0.40035444498062134,0.6666666666666666,0.3333333333333333,0.0,,,4
Islington,St Bartholomew's Hospital,Hospital,51.51749599999999,-0.1000463,4.1,0.7431927919387817,0.0,0.2,0.8,"Aesthetics, General, Maintenance, Safety","amazing (36), good (30), messy (21), tidy (12), fantastic (9), safe (9), new (9), lovely (9), pretty (3)",495
Islington,Great Ormond Street Hospital for Children,Hospital,51.5231639,-0.120741,4.6,0.6322151521841685,0.0,0.4,0.6,"Safety, Cleanliness, Atmosphere, Maintenance, Traffic, General","great (45), safe (36), tidy (21), clean (21), amazing (15), noisy (12), good (12), poor (9), new (9), busy (9), disappointing (9), wonderful (9), old (9), walking (9), messy (3), dark (3), dead (3), lovely (3), improved (3)",802
Islington,Bupa Health Centre Chancery Lane,Physiotherapist,51.5142736,-0.1113153,4.2,0.8262584606806437,0.0,0.0,1.0,"Aesthetics, Atmosphere, Accessibility, General","great (27), excellent (27), calm (9), wonderful (9), messy (9), charming (9), tidy (6), broken (3), noisy (3), near (3)",43
Islington,National Hospital for Neurology and Neurosurgery,Hospital,51.5222486,-0.1222765,4.2,0.8513185977935791,0.0,0.0,1.0,"Cleanliness, Accessibility, General","great (18), tidy (15), safe (9), amazing (9), good (9), difficult (9), excellent (9), messy (6), near (3), clean (3)",398
Islington,Royal National Orthopaedic Hospital,Hospital,51.5230446,-0.142953,4.2,0.8454652706782023,0.0,0.06666666666666667,0.9333333333333333,"Noise, Comfort, Cleanliness, Atmosphere, Maintenance, Aesthetics, General","lovely (27), clean (27), amazing (18), modern (18), great (18), old (18), welcoming (9), comfortable (9), calm (9), peaceful (9), pleasant (9), good (9), excellent (9), improved (9), safe (3), roomy (3), walking (3), messy (3)",57
Islington,The Royal London Hospital,Hospital,51.5183701,-0.05897819999999999,3.0,0.5988840281963348,0.0,0.6,0.4,"Accessibility, Safety, Cleanliness, Atmosphere, Traffic, General","good (24), safe (15), calm (12), noisy (12), messy (12), terrible (9), difficult (9), disappointing (9), poor (9), dirty (9), amazing (6), dangerous (3), cars (3), cozy (3), risky (3), improved (3)",1545
Islington,Royal London Hospital for Integrated Medicine,Hospital,51.5217196,-0.1213667,4.3,0.6434271554152171,0.0,0.5333333333333333,0.4666666666666667,"Maintenance, Traffic, General","tidy (18), bad (18), good (15), loud (15), great (12), excellent (9), wonderful (9), improved (9), walking (9), safe (6), damaged (3), new (3), noisy (3), messy (3)",79
Islington,University College Hospital,Hospital,51.52508689999999,-0.1364556,3.7,0.838866651058197,0.0,0.0,1.0,"Accessibility, Safety, Comfort, Cleanliness, Atmosphere, Maintenance, Aesthetics, General","messy (51), amazing (27), threatening (27), clean (24), comfortable (18), calm (18), difficult (18), safe (15), easy (12), beautiful (9), fantastic (9), good (9), dangerous (9), tidy (6), roomy (3), noisy (3)",1372
Islington,"Royal National Throat, Nose and Ear Hospital",Hospital,51.52270859999999,-0.1346502,3.5,0.7761437972386678,0.0,0.06666666666666667,0.9333333333333333,"Maintenance, General","messy (27), worst (9), safe (9), amazing (9), awful (9), bad (9), good (6), noisy (6), tidy (6), updated (3)",117
Islington,Holborn Medical Centre,Hospital,51.5222359,-0.1185281,3.2,0.8610882918039958,0.0,0.0,1.0,"Atmosphere, General","messy (18), tidy (12), good (12), wonderful (9), noisy (9), poor (9), empty (9), terrible (9), safe (9), dark (3), dead (3), loud (3)",103
Islington,HCA UK City of London - 31 Old Broad Street,Hospital,51.51569559999999,-0.08398769999999998,4.5,0.813937759399414,0.0,0.0,1.0,"Cleanliness, Aesthetics, General","amazing (9), excellent (9), clean (6), tidy (3)",55
Islington,Whittington Hospital,Hospital,51.5665993,-0.1398534,3.1,0.6562246163686116,0.2,0.2,0.6,"Traffic, Aesthetics, General","messy (18), parking (18), disappointing (9), great (9), amazing (9), wonderful (9), safe (6), relaxing (3)",971
Islington,Ramsay Health Care UK,Hospital,51.5152902,-0.08409050000000001,2.7,0.7661317706108093,0.0,0.4,0.6,"Accessibility, Atmosphere, Maintenance, Aesthetics, Traffic, General","new (63), messy (39), terrible (27), safe (9), noisy (9), repaired (9), far (9), worst (9), busy (9), bad (9), good (6), tidy (6), pretty (3), roomy (3), plain (3), dark (3), dead (3)",13
Islington,Parliament Hill Medical Centre,Hospital,51.5553011,-0.1454109,4.1,0.6688887019952138,0.0,0.6,0.4,"Maintenance, Aesthetics, Accessibility, General","noisy (21), messy (18), tidy (18), far (9), new (9), good (9), wonderful (6), easy (3), near (3)",64
Islington,The London Clinic,Hospital,51.5228881,-0.1507707,4.5,0.7091562112172445,0.0,0.4,0.6,"Comfort, Cleanliness, Maintenance, Aesthetics, Traffic, General","good (21), clean (18), maintained (9), pleasant (9), welcoming (9), spacious (9), messy (9), walking (9), excellent (9), bad (9), safe (6), roomy (6), tidy (3), lighting (3)",1346
Islington,Cystitis treatment clinic,Hospital,51.5230381,-0.1442466,5.0,0.35600247979164124,1.0,0.0,0.0,Maintenance,"safe (3), messy (3), noisy (3)",1
Islington,Queen Anne Street Medical Centre,Hospital,51.5233965,-0.1403939,3.5,0.5293733795483907,0.4,0.06666666666666667,0.5333333333333333,"Accessibility, Safety, Noise, Maintenance, Aesthetics, Traffic","safe (39), messy (33), shouting (15), new (9), tidy (9), bad (9), busy (9), easy (9), secure (9), lovely (9), roomy (6), protected (3), walking (3), dark (3), dead (3), good (3), flow (3), lighting (3)",11
Islington,Dennis Severs' House,Museum,51.5208968,-0.0777167,4.5,0.7262131889661153,0.0,0.26666666666666666,0.7333333333333333,"Maintenance, Noise, Aesthetics, General","old (27), safe (18), amazing (18), silent (18), good (12), noisy (9), modern (9), stunning (9), beautiful (9), tidy (6), lovely (3), roomy (3), new (3)",779
Islington,Hunterian Museum,Museum,51.5153551,-0.1159625,4.7,0.6652803222338358,0.0,0.26666666666666666,0.7333333333333333,"Aesthetics, Atmosphere, Accessibility, General","crowded (12), easy (9), amazing (9), far (9), good (9), great (9), tidy (3), safe (3), messy (3), remote (3)",1471
Islington,The Photographers' Gallery,Art Gallery,51.51492709999999,-0.1390605,4.6,0.6042060792446137,0.0,0.4666666666666667,0.5333333333333333,"Comfort, Aesthetics, General","safe (12), amazing (9), bad (9), good (9), stunning (9), enjoyable (9), fantastic (6), walking (3), lovely (3), wonderful (3), improved (3), poor (3)",2801
Islington,The Charterhouse,Place Of Worship,51.521163,-0.09966699999999999,4.6,0.6886334677537282,0.0,0.3333333333333333,0.6666666666666666,"Accessibility, Maintenance, Traffic, Aesthetics, General","beautiful (27), great (18), inaccessible (9), wonderful (9), parking (9), lovely (9), amazing (9), old (9), lively (3), noisy (3), safe (3), jammed (3), near (3)",643
Islington,"Freemasons Hall, London",Museum,51.5150123,-0.1214145,4.8,0.679476281007131,0.0,0.3333333333333333,0.6666666666666666,"Safety, General","fantastic (18), amazing (9), security (9), lovely (3)",2205
Islington,Young V&A,Tourist Attraction,51.52894790000001,-0.0553289,4.4,0.643620761235555,0.0,0.3333333333333333,0.6666666666666666,"Aesthetics, Maintenance, Atmosphere, General","safe (12), lovely (12), tidy (9), great (9), old (9), new (9), attractive (9), roomy (3), good (3)",5331
Islington,Foundling Museum,Tourist Attraction,51.52525309999999,-0.1216684,4.4,0.6372094869613647,0.0,0.3333333333333333,0.6666666666666666,"Aesthetics, Atmosphere, General","great (12), excellent (9), disappointing (9), safe (3)",1007
Islington,Bank of England Museum,Museum,51.514166,-0.08761299999999998,4.4,0.7191780229409536,0.0,0.26666666666666666,0.7333333333333333,"Accessibility, Safety, Comfort, Cleanliness, Atmosphere, Maintenance, Aesthetics, Traffic, General","safe (27), tidy (12), wonderful (9), good (9), great (9), accessible (9), enjoyable (9), perfect (9), lively (9), fantastic (9), new (9), walking (9), security (9), near (9), noisy (6)",2171
Islington,Dr Johnson's House,Museum,51.5150642,-0.1082067,4.5,0.625953322649002,0.2,0.26666666666666666,0.5333333333333333,"Accessibility, Noise, Atmosphere, Maintenance, Aesthetics, General","safe (21), lovely (21), charming (18), lively (18), great (9), bustling (9), vibrant (9), central (9), quiet (9), good (9), roomy (6), lighting (3), tidy (3)",331
Islington,SOAS Gallery,Art Gallery,51.5218917,-0.1285577,4.5,0.6256679117679596,0.0,0.6,0.4,General,"good (9), safe (9), perfect (9), crowded (3), noisy (3), amazing (3)",207
Islington,The Brick Lane Gallery,Art Gallery,51.5244825,-0.0714066,3.8,0.7936290423075358,0.0,0.0,1.0,"Maintenance, Traffic, Atmosphere, General","new (36), amazing (18), great (18), wonderful (15), fantastic (12), messy (12), excellent (9), vibrant (9), busy (9), lively (9), safe (6), connected (3), noisy (3), tidy (3), good (3), perfect (3)",186
Islington,The Horse Hospital,Art Gallery,51.5227581,-0.1244025,4.5,0.7595952073733012,0.0,0.0,1.0,"Accessibility, Safety, Noise, Maintenance, General","great (54), good (12), wonderful (9), excellent (9), lighting (9), central (9), music (9), fantastic (9), amazing (6), safe (3), tidy (3), lovely (1)",122
Islington,Exhibit at Golden Lane Estate,Art Gallery,51.5224335,-0.097373,5.0,0.3173440396785736,1.0,0.0,0.0,,safe (3),3
Islington,Whitechapel Gallery,Art Gallery,51.51608639999999,-0.07011479999999999,4.3,0.5917400459448496,0.0,0.4,0.6,"Accessibility, Safety, Comfort, Cleanliness, Atmosphere, Maintenance, Aesthetics, General","great (18), beautiful (18), accessible (18), safe (15), good (12), dangerous (9), new (9), vibrant (9), modern (9), inviting (9), enjoyable (9), excellent (9), clean (9), cozy (9), tidy (6), walking (3), updated (3)",2612
Islington,IMAGE,Art Gallery,51.51935700000001,-0.1405591,5.0,0.0,0.0,0.0,0.0,,,2
Islington,Slade School of Fine Art,Art Gallery,51.5248201,-0.1346015,4.8,0.6926475981871287,0.2,0.2,0.6,"Cleanliness, Accessibility, General","fantastic (9), far (9), safe (3)",21
Islington,Primrose Hill,Park,51.5395226,-0.1606499,4.7,0.7432970881462098,0.0,0.06666666666666667,0.9333333333333333,"Accessibility, Noise, Comfort, Atmosphere, Maintenance, Aesthetics, Traffic, General","perfect (52), peaceful (36), great (33), safe (27), stunning (21), beautiful (18), walking (18), lovely (18), calm (18), parking (15), good (12), easy (9), fantastic (9), lively (9), excellent (9), amazing (9), pleasant (9), tidy (6), near (6), relaxing (6), convenient (3)",14206
Islington,Flanders Fields Memorial Garden,Park,51.5005394,-0.1357828,4.7,0.7307588537534078,0.0,0.26666666666666666,0.7333333333333333,"Aesthetics, General","beautiful (9), excellent (9), amazing (9), walking (3), safe (3), lovely (1)",21
Islington,Victoria Park,Park,51.53679759999999,-0.03863539999999999,4.7,0.6867001036802928,0.0,0.4666666666666667,0.5333333333333333,"Accessibility, Noise, Atmosphere, Traffic, Aesthetics, General","beautiful (27), parking (26), good (18), safe (12), easy (12), wonderful (9), fantastic (9), walking (9), charming (9), relaxing (9), pretty (9), busy (9), amazing (9), perfect (7), lovely (6), quiet (6), lively (3), ugly (3)",15989
Islington,Hyde Park,Park,51.5073638,-0.1641135,4.7,0.6633664488792419,0.0,0.3333333333333333,0.6666666666666666,"Noise, Cleanliness, Atmosphere, Maintenance, Aesthetics, Traffic, General","parking (32), beautiful (27), walking (25), safe (24), busy (18), quiet (18), great (18), perfect (14), lovely (13), flow (12), calm (12), relaxing (12), amazing (9), peaceful (9), wonderful (9), maintained (9), crowded (9), bikes (6), tidy (6), messy (3), vehicle (3)",135086
Islington,Jubilee Gardens,Park,51.5040437,-0.1181412,4.5,0.6415102978547415,0.0,0.6,0.4,"Noise, Atmosphere, Maintenance, Aesthetics, Traffic, General","lovely (19), peaceful (18), great (15), parking (12), beautiful (12), walking (12), pretty (9), flow (9), amazing (9), scenic (9), bustling (9), safe (9), vibrant (9), modern (9), stunning (9), lively (9), perfect (9), old (9), crowded (9), bad (9), relaxing (6), charming (3)",1526
Islington,Tower Hamlets Cemetery Park,Park,51.5231445,-0.0272155,4.7,0.6383017102877299,0.0,0.3333333333333333,0.6666666666666666,"Noise, Atmosphere, Traffic, Aesthetics, General","peaceful (39), lovely (18), quiet (18), safe (15), parking (15), gorgeous (9), perfect (9), serene (9), walking (9), noisy (9), busy (9), great (9), tidy (6), damaged (3), good (3), dirty (3), poor (3), flow (1)",188
Islington,The Green Park,Park,51.5039416,-0.1434016,4.6,0.687107257048289,0.0,0.2,0.8,"Accessibility, Noise, Comfort, Cleanliness, Atmosphere, Maintenance, Aesthetics, Traffic, General","beautiful (27), parking (27), great (27), serene (24), relaxing (21), safe (18), maintained (18), perfect (18), quiet (18), walking (12), accessible (9), peaceful (9), clean (9), spacious (9), excellent (9), easy (9), active (9), central (9), lovely (3), tidy (3), good (3), calm (3)",26295
Islington,St James's Park,Park,51.502967,-0.1339534,4.7,0.7205920894940694,0.0,0.2,0.8,"Accessibility, Noise, Atmosphere, Aesthetics, Traffic, General","peaceful (36), beautiful (27), parking (24), crowded (18), walking (18), wonderful (18), pretty (18), relaxing (12), good (12), calm (9), lovely (9), lively (9), perfect (9), great (9), quiet (9), near (9), safe (6), flow (6), maintained (3)",59529
Islington,Hampstead Heath,Park,51.5608294,-0.1629416,4.7,0.5666838924090067,0.2,0.6,0.2,"Accessibility, Atmosphere, Traffic, Aesthetics, General","lovely (24), scenic (18), parking (15), beautiful (12), busy (9), pretty (9), great (9), safe (9), easy (9), wonderful (3), lively (3), walking (3), near (3), noisy (3)",19744
Islington,Kenwood House,Park,51.57138819999999,-0.1674543,4.7,0.6716060161590576,0.0,0.3333333333333333,0.6666666666666666,"Accessibility, Noise, Cleanliness, Atmosphere, Maintenance, Aesthetics, General","beautiful (39), lovely (33), stunning (18), peaceful (18), great (18), maintained (9), perfect (9), accessible (9), amazing (9), near (9), pretty (9), quiet (9), elegant (9), charming (9), silent (9), gorgeous (9), difficult (9), serene (6), safe (6), walking (3), roomy (3), noisy (3), good (3), parking (3), tidy (3), calm (3)",5734
Islington,Hanning Recruitment,Park,51.5092118,-0.1438322,4.3,0.6243134220441182,0.0,0.4666666666666667,0.5333333333333333,"Accessibility, Noise, Atmosphere, Aesthetics, Traffic, General","peaceful (18), great (9), lovely (9), central (9), crowded (9), noisy (9), good (9), quiet (9), busy (9), safe (3), walking (3), parking (2)",503
Islington,Clapton Common,Park,51.57190669999999,-0.0660391,4.2,0.5678313513596852,0.13333333333333333,0.6666666666666666,0.2,"Safety, Cleanliness, Atmosphere, Traffic, Aesthetics, General","beautiful (18), parking (11), lighting (9), bikes (9), lovely (9), busy (9), amazing (9), rubbish (9), tidy (6), great (6), good (3), safe (3), disappointing (1)",252
Islington,Buckingham Palace Garden,Park,51.50112020000001,-0.1460413,4.6,0.6646841327349345,0.0,0.26666666666666666,0.7333333333333333,"Accessibility, Noise, Comfort, Cleanliness, Atmosphere, Maintenance, Aesthetics, Traffic, General","peaceful (36), beautiful (27), maintained (27), walking (15), safe (12), pleasant (9), stunning (9), flow (9), perfect (9), relaxing (9), bustling (9), accessible (9), disappointing (9), serene (6), lovely (6), quiet (3), calm (3)",2928
Islington,Royal Artillery Memorial,Transit Station,51.50259759999999,-0.1517873,4.3,0.5696047166983287,0.0,0.6,0.4,"Maintenance, Accessibility, General","parking (12), great (9), near (9), new (9)",13
