Borough,Location Name,Type,latitude,longitude,Rating,Overall Sentiment Score,Negative Score,Neutral Score,Positive Score,Main Issues,Emotion Keywords,Review Count
Lewisham,Riverview Walk & River Pool Linear Park,Park,51.4414977,-0.027035,4.5,0.6879309177398681,0.06666666666666667,0.13333333333333333,0.8,"Accessibility, Safety, Noise, Comfort, Atmosphere, Maintenance, Traffic, Aesthetics, General","walking (21), safe (18), cyclists (16), dark (12), lovely (12), uncomfortable (9), far (9), cars (9), traffic (9), pretty (9), peaceful (9), beautiful (9), relaxing (9), serene (9), wonderful (6), parking (6), old (3), messy (3), dead (3), good (3), near (3), noisy (3), flow (3), fantastic (3)",399
Lewisham,Hazelbank Road Allotments,Park,51.4373583,0.0034205,4.5,0.44422878623008727,0.2,0.8,0.0,"Aesthetics, General","good (18), wonderful (9), lovely (6)",21
Lewisham,Wild Cat Wilderness,Park,51.43676170000001,-0.0277696,4.8,0.7168400426705678,0.0,0.4,0.6,"Aesthetics, Safety, General","beautiful (18), lovely (15), messy (11), wonderful (9), fantastic (9), great (9), dangerous (9), excellent (9), amazing (6), damaged (3), protected (3), safe (3), tidy (3), good (3)",46
Lewisham,Peter Pan Park,Park,51.4267443,-0.0103984,3.5,0.5429777761300405,0.2,0.6,0.2,"Noise, Cleanliness, Atmosphere, Aesthetics, Traffic","dirty (9), rubbish (9), peaceful (9), pretty (9), ugly (9), busy (9), walking (7), lovely (6), parking (6), safe (3)",25
Lewisham,Mountsfield Park,Park,51.44741759999999,-0.009556499999999999,4.5,0.6502695679664612,0.0,0.26666666666666666,0.7333333333333333,"Noise, Cleanliness, Atmosphere, Maintenance, Aesthetics, Traffic, General","lovely (36), parking (29), amazing (18), safe (12), music (9), poor (9), maintained (9), great (9), walking (6), lively (5), quiet (3), tidy (3), relaxing (3)",1754
Lewisham,Blythe Hill Fields,Park,51.44710680000001,-0.0355627,4.6,0.655001684029897,0.0,0.06666666666666667,0.9333333333333333,"Noise, Atmosphere, Maintenance, Aesthetics, General","music (18), good (18), amazing (15), peaceful (9), stunning (9), great (9), lovely (9), new (9), beautiful (9), parking (6), safe (3), crowded (3), lively (3)",959
Lewisham,Lewisham Park,Park,51.4530209,-0.013251,4.3,0.6737603863080343,0.0,0.4,0.6,"Noise, Cleanliness, Atmosphere, Maintenance, Aesthetics, Traffic, General","lovely (42), beautiful (27), tidy (18), parking (15), safe (12), flow (9), quiet (9), gorgeous (9), good (9), excellent (9), great (9), wonderful (9), peaceful (3)",421
Lewisham,Culverley Green,Park,51.4414969,-0.0125806,5.0,0.6060128211975098,0.0,0.0,1.0,Maintenance,"new (9), improved (6)",2
Lewisham,Glendale Managed Services Ltd,Park,51.44691520000001,-0.006169200000000001,2.0,0.7945930113395056,0.0,0.16666666666666666,0.8333333333333334,"Maintenance, General","awful (9), terrible (9), new (9), amazing (6), noisy (3), damaged (3), messy (3)",4
Lewisham,Prendergast Playing Fields,Park,51.4343658,-0.0067927,4.2,0.5581002593040466,0.2,0.4,0.4,"Cleanliness, General","good (9), tidy (9), amazing (6), active (1)",13
Lewisham,Pool Ravensbourne confluence,Park,51.43968580000001,-0.0262197,5.0,0.49058111508687335,0.3333333333333333,0.5,0.16666666666666666,General,"good (9), great (9), parking (3)",2
Lewisham,Any Rubbish,Park,51.4502721,-0.00499,5.0,0.7736022591590881,0.0,0.2,0.8,"Cleanliness, Accessibility, General","tidy (18), great (9), rubbish (9), easy (9), excellent (9), messy (3)",142
Lewisham,Forster Memorial Park,Park,51.4321472,-0.006764800000000001,4.5,0.5845538934071859,0.0,0.6,0.4,"Noise, Atmosphere, Maintenance, Aesthetics, Traffic, General","parking (30), quiet (27), great (18), perfect (18), lovely (15), safe (12), busy (9), new (9), beautiful (9), tidy (6), good (3), bikes (3), walking (3), flow (3)",447
Lewisham,Verdant Lane Community Garden,Park,51.4401895,0.005394899999999998,4.0,0.6012020607789358,0.0,0.16666666666666666,0.8333333333333334,"Accessibility, General","far (9), great (9), good (3)",2
Lewisham,Springbank Road Community Garden,Park,51.4501759,0.00016,5.0,0.5938345988591512,0.0,0.5,0.5,"Cleanliness, Aesthetics, General","wonderful (9), great (9), rubbish (9), lovely (9), safe (6), amazing (6), tidy (3)",2
Lewisham,Ladywell Fields,Park,51.4486753,-0.027069,4.5,0.6390484849611918,0.0,0.4,0.6,"Atmosphere, Traffic, Aesthetics, General","walking (26), great (18), parking (12), good (12), bad (12), gorgeous (9), calm (9), busy (9), tidy (3), lighting (3), safe (3), relaxing (3)",1646
Lewisham,Lyall Apartment Hotel,General Contractor,51.4477925,-0.0010179,4.2,0.5749447266260783,0.13333333333333333,0.4666666666666667,0.4,"Accessibility, Comfort, Cleanliness, Maintenance, Traffic, General","clean (27), good (21), walking (21), maintained (18), great (18), flow (9), perfect (9), modern (9), cramped (9), central (9), far (9), comfortable (9), tidy (3), updated (3), safe (3), parking (3), roomy (3), near (3)",111
Lewisham,William Hill,Point Of Interest,51.4521713,-0.007130900000000002,2.3,0.6572032153606415,0.2,0.2,0.6,"Maintenance, General","good (21), noisy (15), great (9), worst (9), bad (9), messy (6), safe (6), old (3), wonderful (3), tidy (3)",16
Lewisham,Kaleidoscope,Health,51.4495951,-0.0175064,3.3,0.6428690294424693,0.06666666666666667,0.3333333333333333,0.6,"Comfort, Atmosphere, Accessibility, General","safe (15), good (12), terrible (9), great (9), wonderful (9), comfortable (9), calm (9), easy (9), fantastic (6), tidy (3), messy (3), neat (3), near (3), new (3)",28
Lewisham,Elim Pentecostal Church and Community Centre,Church,51.4314554,-0.0171421,4.1,0.6663701454798381,0.0,0.3333333333333333,0.6666666666666666,"Maintenance, Aesthetics, General","old (9), good (9), great (9), lovely (6)",19
Lewisham,Novum Health - Rushey Green Group Practice,Doctor,51.44944530000001,-0.018104,2.3,0.8425119479497274,0.0,0.0,1.0,"Maintenance, Aesthetics, General","safe (24), fantastic (9), lovely (9), great (9), terrible (9), good (9), improved (9), tidy (6), messy (6), noisy (3)",205
Lewisham,Lewisham War Memorial,Point Of Interest,51.4535947,-0.0159938,4.0,0.5992334187030792,0.25,0.25,0.5,"Cleanliness, General","good (9), wonderful (9), clean (9), safe (3), tidy (3), old (3)",4
Lewisham,GWhiz Removals / Shipping,Moving Company,51.43568399999999,-0.018785,4.8,0.7214205920696258,0.2,0.0,0.8,"Safety, Noise, Comfort, Maintenance, Traffic, Aesthetics, General","messy (24), new (18), tidy (12), updated (12), good (12), traffic (9), amazing (9), lovely (9), pleasant (9), excellent (9), damaged (3), safe (3)",51
Lewisham,Catford Bus Garage (Stop BN),Transit Station,51.434666,-0.017761,4.4,0.6060320734977722,0.2,0.4,0.4,"Aesthetics, General","beautiful (9), great (9), fantastic (9), good (9), busy (6), ugly (3)",8
Lewisham,Lewisham Hospital,Transit Station,51.4531587,-0.0164101,1.5,0.6224330623944601,0.2,0.2,0.6,"Maintenance, Cleanliness, Aesthetics, General","bad (18), messy (11), tidy (9), poor (9), excellent (9), clean (6), noisy (3), walking (3), maintained (3), easy (3)",28
Lewisham,Torridon Road,Transit Station,51.4450835,-0.002171,5.0,0.0,0.0,0.0,0.0,,,1
Lewisham,Catford Bus Garage,Transit Station,51.434704,-0.017839,1.7,0.6772083322207133,0.0,0.6,0.4,"Atmosphere, Maintenance, Aesthetics, Traffic, General","busy (31), walking (12), tidy (12), safe (9), messy (9), bad (9), noisy (9), new (9), good (6), wonderful (3)",7
Lewisham,Catford Bridge Station,Transit Station,51.4445167,-0.02525459999999999,3.4,0.6059278845787048,0.3333333333333333,0.0,0.6666666666666666,"Noise, Maintenance, General","loud (9), worst (9), messy (8), tidy (6)",7
Lewisham,The Catford Centre (Stop A),Bus Station,51.4470333,-0.0188281,5.0,0.42929399013519287,0.0,1.0,0.0,,,1
Lewisham,Thomas Lane (Stop Q),Bus Station,51.44607779999999,-0.0226468,4.0,0.2930908501148224,1.0,0.0,0.0,,"busy (5), safe (3)",2
Lewisham,Mount Pleasant Road (Stop HS),Bus Station,51.45116119999999,-0.0167416,5.0,0.6784800026151869,0.0,0.0,1.0,"Comfort, Cleanliness, Atmosphere, General","pleasant (9), clean (9), excellent (9), crowded (9), fantastic (9), great (9), walking (3), busy (3)",6
Lewisham,Catford Police Station (Stop BS),Bus Station,51.43124,-0.015651,2.5,0.0,0.0,0.0,0.0,,,2
Lewisham,Lewisham Hospital (Stop HR),Bus Station,51.4530324,-0.0162759,4.3,0.5764336635669073,0.3333333333333333,0.16666666666666666,0.5,General,perfect (9),3
Lewisham,Lewisham Hospital (Stop HH),Bus Station,51.4532861,-0.0165205,3.1,0.6935768187046051,0.0,0.4,0.6,General,"awful (9), tidy (6), messy (6), amazing (6), safe (3), broken (3), noisy (3)",22
Lewisham,Lewisham Fire Station (Stop HN),Bus Station,51.456696,-0.013871,4.5,0.4585285931825638,0.0,1.0,0.0,"Traffic, Atmosphere",busy (12),2
Lewisham,Lewisham Fire Station (Stop HL),Bus Station,51.457203,-0.01359,3.7,0.5460975170135498,0.0,1.0,0.0,"Comfort, General","great (18), uncomfortable (9), busy (7), messy (3)",3
Lewisham,Catford Centre,Shopping Mall,51.4464213,-0.01959,3.9,0.5388790011405945,0.0,0.6,0.4,"Accessibility, Safety, Cleanliness, Atmosphere, Aesthetics, Traffic, General","good (30), parking (18), noisy (9), police (9), busy (9), crime (9), threatening (9), lovely (9), convenient (9), safe (6), tidy (6), clean (3), lighting (3)",492
Lewisham,Bromley Road Retail Park,Shopping Mall,51.4365325,-0.0198834,4.3,0.4737801134586334,0.2,0.8,0.0,"Maintenance, Traffic, General","parking (18), good (12), busy (9), disappointing (9), bad (6), safe (6), tidy (6), lovely (3)",188
Lewisham,Bell Green Retail Park,Shopping Mall,51.4314819,-0.033787,4.1,0.5879885653654734,0.0,0.8,0.2,"Traffic, General","parking (42), good (27), safe (9), wonderful (9), excellent (9), bad (3), busy (3), walking (3)",2807
Lewisham,"St Mary the Virgin, Lewisham",Tourist Attraction,51.455668,-0.016037,4.6,0.5713868538538615,0.0,0.7333333333333333,0.26666666666666666,"Atmosphere, Maintenance, Aesthetics, Traffic, General","busy (18), old (12), good (9), wonderful (9), beautiful (9), walking (3), parking (3)",91
Lewisham,CAT,Tourist Attraction,51.44585790000001,-0.0197397,4.6,0.5684142351150513,0.06666666666666667,0.5333333333333333,0.4,"Cleanliness, Aesthetics, General","lovely (12), good (9), wonderful (6), safe (3), messy (3), fantastic (3), clean (2)",28
Lewisham,Ladywell Lido,Tourist Attraction,51.4484567,-0.02760499999999999,5.0,0.0,0.0,0.0,0.0,,,1
Lewisham,Dame Gladys Constance Cooper,Tourist Attraction,51.4533521,-0.005967200000000001,5.0,0.5815024077892303,0.0,0.6666666666666666,0.3333333333333333,"Aesthetics, General","great (9), lovely (9), tidy (3)",2
Lewisham,Bellingham Green Children's park,Park,51.4309216,-0.0240889,4.1,0.5442955970764161,0.13333333333333333,0.6666666666666666,0.2,"Accessibility, Comfort, Cleanliness, Atmosphere, Maintenance, General","great (18), central (18), old (12), spacious (9), crowded (9), near (9), dirty (9), rubbish (9), parking (6), safe (6), lovely (3)",209
Lewisham,Grove Park Nature Reserve,Park,51.4371227,0.0158294,4.3,0.6418455421924592,0.0,0.4,0.6,"Maintenance, Cleanliness, Accessibility, General","great (36), good (18), safe (15), new (12), walking (9), neglected (9), rubbish (9), maintained (9), lively (6), messy (3), tidy (3), near (3), ugly (3), lovely (3)",72
Lewisham,Grove Park,Natural Feature,51.43653519999999,0.0157206,4.5,0.45584869186083476,0.3333333333333333,0.4666666666666667,0.2,"Noise, Atmosphere, General","peaceful (18), great (9)",22
Lewisham,Woodland Walk,Natural Feature,51.42989180000001,0.0017359,4.5,0.5506612956523895,0.0,1.0,0.0,Accessibility,"accessible (9), walking (3)",2
Lewisham,Woodland Walk,Natural Feature,51.4290715,-0.002284,4.0,0.2846149206161499,1.0,0.0,0.0,,,1
Lewisham,Woodland Walk,Natural Feature,51.4305479,0.005939,2.0,0.0,0.0,0.0,0.0,,,1
Lewisham,Woodland Walk,Natural Feature,51.4305479,0.005939,4.0,0.0,0.0,0.0,0.0,,,2
Lewisham,Woodland Walk,Natural Feature,51.4308348,0.0081779,5.0,0.5968226989110311,0.0,1.0,0.0,"Atmosphere, General","great (9), relaxing (5)",2
Lewisham,Hither Green Cemetery,Cemetery,51.436864,0.009505,4.2,0.5177904685338338,0.2,0.6,0.2,"Safety, Noise, Cleanliness, Atmosphere, Maintenance, General","peaceful (27), great (18), security (9), good (9), maintained (6), safe (6), calm (3), tidy (3), walking (3)",26
Lewisham,Lewisham Unity,Church,51.4417339,-0.0201039,4.3,0.49755277037620543,0.26666666666666666,0.5333333333333333,0.2,"Noise, Comfort, Atmosphere, Maintenance, Aesthetics","lovely (12), inviting (9), peaceful (9), outdated (9), messy (3)",6
Lewisham,UCKG HelpCentre Catford,Church,51.44395410000001,-0.0199368,4.9,0.8665582458178203,0.0,0.0,1.0,"Maintenance, General","wonderful (12), new (9), tidy (6), peaceful (3), messy (3)",83
Lewisham,Brownhill Road Baptist Church,Church,51.4449462,-0.0041646,4.5,0.8207573374112447,0.0,0.0,1.0,"Comfort, General","great (18), welcoming (9), good (9), lovely (6), lighting (3), fantastic (3), amazing (3)",11
Lewisham,Hither Green Methodist Church,Church,51.4440957,-0.0018324,4.8,0.5713698367277781,0.06666666666666667,0.5333333333333333,0.4,"Comfort, Aesthetics","lovely (9), welcoming (6), peaceful (3)",18
Lewisham,"Elim Pentecostal Church, Lewisham",Church,51.44834780000001,-0.0172551,4.8,0.6634598116079966,0.06666666666666667,0.3333333333333333,0.6,"Aesthetics, General","amazing (9), great (9), lovely (6), lively (3)",11
Lewisham,Ransom Church of God,Church,51.4513684,-0.0201814,4.8,0.6683709919452667,0.0,0.0,1.0,General,"wonderful (9), lovely (3)",4
Lewisham,R C C G Faith Chapel,Church,51.4311877,-0.0217477,4.7,0.8056729992230733,0.0,0.13333333333333333,0.8666666666666667,"Maintenance, Comfort, General","wonderful (21), good (18), great (18), welcoming (9), new (9), fantastic (6)",18
Lewisham,Christ Church United Reformed Church,Church,51.431213,-0.0255581,4.8,0.541131067276001,0.0,0.8,0.2,"Accessibility, Comfort, Maintenance, Traffic, General","parking (18), near (12), updated (9), modern (9), great (9), busy (6), welcoming (6), active (3), noisy (3), messy (3), easy (1)",12
Lewisham,"Hope Church, Downham",Church,51.43391279999999,0.0085617,4.6,0.7299713611602783,0.0,0.3333333333333333,0.6666666666666666,"Maintenance, Comfort, Aesthetics, General","good (18), welcoming (18), new (18), lovely (12), amazing (9), beautiful (9), wonderful (9), fantastic (6), safe (6), messy (3), tidy (3)",25
Lewisham,Lewisham United Reformed Church,Church,51.4573936,-0.0124583,4.4,0.46489792813857395,0.25,0.75,0.0,"Maintenance, Cleanliness","clean (9), tidy (9), maintained (9), roomy (3), safe (3)",9
Lewisham,King's Church London - Catford,Church,51.4400542,-0.03126,4.8,0.7070038378238678,0.0,0.2,0.8,"Comfort, Cleanliness, Atmosphere, Traffic, Aesthetics, General","lovely (12), clean (9), tidy (9), good (9), great (9), lively (9), parking (6), welcoming (6), repaired (3)",142
Lewisham,Catford Assemblies of God Pentecostal Church,Church,51.44298310000001,-0.009083100000000002,4.8,0.5810350378354391,0.3333333333333333,0.0,0.6666666666666666,"Comfort, General","great (18), welcoming (9), good (9), bad (9)",12
Lewisham,"St Laurence Church, Catford",Church,51.4426441,-0.0200489,4.3,0.5534512917200725,0.0,0.7333333333333333,0.26666666666666666,"Noise, Traffic, Atmosphere, General","parking (12), quiet (9), good (9), serene (6), cars (3), calm (3)",101
Lewisham,Trinity United Reformed Church,Church,51.4423468,-0.0316176,4.6,0.46651512384414673,0.0,1.0,0.0,,,5
Lewisham,Lewisham Seventh-day Adventist Church & Community Hall,Church,51.4511876,-0.0175917,4.5,0.5783397416273753,0.06666666666666667,0.5333333333333333,0.4,"Accessibility, Noise, Comfort, Atmosphere, Maintenance, Aesthetics, General","good (27), welcoming (18), excellent (18), music (9), easy (9), new (9), lovely (9), wonderful (9), lively (9), great (9), horrible (9), unpleasant (9), old (9), bikes (3), noisy (3), safe (3), messy (2)",95
Lewisham,Holy Cross RC Church,Church,51.4427408,-0.0132806,4.8,0.5339388310909271,0.0,0.8,0.2,"Comfort, Atmosphere, Maintenance, Traffic, Aesthetics, General","welcoming (15), parking (12), good (9), great (9), new (9), walking (6), calm (6), noisy (3), safe (3)",45
Lewisham,6235 Thomas' Ln Parking,Parking,51.4454441,-0.0222006,2.6,0.5077392816543579,0.0,0.9333333333333333,0.06666666666666667,"Accessibility, Safety, Noise, Cleanliness, Traffic, General","parking (71), safe (27), good (21), easy (18), tidy (15), traffic (9), cars (9), near (9), music (9), walking (9), clean (9), noisy (6)",15
Lewisham,Holbeach Road Car Park,Parking,51.44700719999999,-0.0207088,2.5,0.6817313591639201,0.2,0.13333333333333333,0.6666666666666666,"Atmosphere, Accessibility","empty (18), parking (12), cars (9), tidy (6), noisy (6), near (3), safe (3), wonderful (3)",11
Lewisham,Bellingham Leisure & Lifestyle Centre,Parking,51.4321146,-0.0204115,1.0,0.4077674647172292,0.3333333333333333,0.6666666666666666,0.0,Maintenance,"old (9), tidy (6), messy (3)",1
Lewisham,Car Park Bellingham Leisure Centre - Lewisham | APCOA,Parking,51.4317333,-0.0215994,3.6,0.534205844004949,0.0,0.5,0.5,"Traffic, Aesthetics, General","good (15), lovely (9), great (9), perfect (9), parking (9), tidy (6), safe (6), walking (3)",5
Lewisham,Car Park 8,Parking,51.4553993,-0.0165631,2.3,0.5331072161595026,0.5,0.0,0.5,Traffic,"parking (12), safe (3)",3
Lewisham,Clarendon Rise Car Park,Parking,51.4583415,-0.0110494,3.1,0.5745171825091044,0.2,0.2,0.6,"Accessibility, Safety, Maintenance, Traffic, Aesthetics","parking (78), cars (30), new (18), bikes (12), appealing (9), police (9), difficult (9), central (9), tidy (6), safe (6), vehicle (3), risky (3)",14
Lewisham,Lewisham Public Parking,Parking,51.4584576,-0.0112636,3.4,0.7304877797762553,0.0,0.4,0.6,"Accessibility, Safety, Atmosphere, Traffic, General","parking (37), cars (18), good (18), busy (18), horrible (9), noisy (9), difficult (9), near (9), empty (9), lighting (9), dark (9), driving (9), safe (6), tidy (6), easy (6), vehicle (3)",45
Lewisham,Slaithwaite Car Park,Parking,51.4586421,-0.0111124,3.0,0.6511610580815209,0.0,0.5555555555555556,0.4444444444444444,"Traffic, Accessibility, General","parking (33), horrible (9), difficult (9), walking (9), cars (6), noisy (3), safe (3), tidy (3), messy (3), good (3)",4
Lewisham,Lewisham Library,Library,51.4593863,-0.0117458,3.7,0.5556208411852519,0.0,0.6,0.4,"Maintenance, Noise, Comfort, General","great (36), old (27), loud (18), safe (9), noisy (9), bad (9), modern (9), cramped (9), good (6), new (3), updated (3)",68
Lewisham,Catford Library,Library,51.4461615,-0.0212964,4.0,0.7812263131141662,0.0,0.13333333333333333,0.8666666666666667,"Noise, Comfort, Cleanliness, Atmosphere, Maintenance, Aesthetics, General","great (27), clean (24), calm (18), safe (15), lovely (12), excellent (9), good (9), music (9), maintained (9), beautiful (9), amazing (9), welcoming (9), noisy (9), quiet (9), messy (3), tidy (3)",51
Lewisham,Corbett Community Library,Library,51.442314,-0.001707,4.7,0.6928428292274476,0.0,0.6,0.4,"Accessibility, Comfort, Maintenance, Aesthetics, General","amazing (36), wonderful (18), welcoming (15), good (12), safe (9), near (9), old (9), charming (9), lighting (3), convenient (3), roomy (3), lovely (3), great (3)",54
Lewisham,Lewisham Heritage,Library,51.44605199999999,-0.0221265,5.0,0.8200603773196539,0.0,0.16666666666666666,0.8333333333333334,General,"fantastic (15), amazing (9), great (9), messy (5), good (3)",4
Lewisham,Free book library,Library,51.4392551,-0.036315,4.0,0.0,0.0,0.0,0.0,,,1
Lewisham,Base Zero Nursery,School,51.4313696,-0.0226335,4.9,0.6968624373277028,0.0,0.4,0.6,"Maintenance, Comfort, General","great (27), updated (18), improved (9), new (9), comfortable (9), amazing (9), safe (6), peaceful (3), tidy (3)",148
Lewisham,Horizons Day Nursery & Pre-School,School,51.45330939999999,-0.007729499999999998,3.4,0.6213293929894765,0.0,0.26666666666666666,0.7333333333333333,"Maintenance, Comfort, General","good (27), great (18), poor (18), safe (12), tidy (9), spacious (9), welcoming (9), awful (9), old (9), disappointing (9), noisy (6)",8
Lewisham,The Growing Patch Nursery,School,51.4447114,-0.0040903,5.0,0.7179514368375143,0.0,0.0,1.0,"Maintenance, Aesthetics, General","great (18), good (12), lovely (9), old (9), new (9), amazing (6), safe (6), tidy (3)",3
Lewisham,Building Blocks Day Care,School,51.4352434,-0.0135489,4.2,0.6267836093902588,0.0,0.6,0.4,"Accessibility, Noise, Cleanliness, Atmosphere, Aesthetics, General","fantastic (15), lovely (12), messy (12), good (12), active (9), quiet (9), safe (6), tidy (6), clean (3), noisy (3), wonderful (3), difficult (3)",5
Lewisham,Bob Hooper - Best Flamenco Guitarist,School,51.4428664,0.0047073,5.0,0.8991205394268036,0.0,0.0,1.0,"Maintenance, General","amazing (9), wonderful (6), messy (3), fantastic (3)",2
Lewisham,Rushey Green Nursery,School,51.4490174,-0.0163996,3.8,0.6422425866127014,0.0,0.3333333333333333,0.6666666666666666,"Safety, Comfort, Maintenance, Aesthetics, General","poor (18), messy (12), outdated (9), bad (9), updated (9), pleasant (9), lovely (9), security (9), tidy (6), repaired (6), good (3)",9
Lewisham,South East London Sax Lessons,School,51.4391818,0.0041357,4.7,0.6590147117773691,0.0,0.3333333333333333,0.6666666666666666,"Accessibility, Noise, Comfort, Maintenance, General","music (24), old (9), new (9), wonderful (9), far (9), enjoyable (9), fantastic (6), lovely (1)",3
Lewisham,Emiliano Caroselli drum lessons,School,51.4418181,-0.0286097,5.0,0.0,0.0,0.0,0.0,,,1
Lewisham,Pascals College,University,51.4489831,-0.0167855,3.7,0.8475925823052725,0.0,0.0,1.0,General,excellent (9),3
Lewisham,London College Of Business & Theological Studies,University,51.44812339999999,-0.0174672,4.0,0.0,0.0,0.0,0.0,,,1
Lewisham,Grassroots Global University,University,51.4547258,-0.0308949,5.0,0.9291304548581442,0.0,0.0,1.0,,,1
Lewisham,University Hospital Lewisham,Hospital,51.4538715,-0.0173012,2.9,0.6674400826295217,0.0,0.4666666666666667,0.5333333333333333,"Accessibility, Noise, Cleanliness, Atmosphere, Traffic, Aesthetics, General","messy (15), good (12), filthy (9), crowded (9), dirty (9), perfect (9), easy (9), loud (9), pretty (9), amazing (9), flow (3), roomy (3), safe (3), busy (3), tidy (3), shouting (2)",824
Lewisham,Bromley Road | Elysium Healthcare,Hospital,51.4392517,-0.0201766,3.3,0.0,0.0,0.0,0.0,,,4
Lewisham,Torridon Road Medical Practice,Hospital,51.4400462,-0.002013399999999999,2.7,0.6709194163481395,0.0,0.2,0.8,"Maintenance, Accessibility, General","amazing (18), new (9), far (9), worst (9), bad (9), good (9), tidy (6), messy (6), damaged (3), risky (3), easy (3)",100
Lewisham,The Ladywell Unit,Hospital,51.454669,-0.0172941,2.7,0.5545389195283253,0.4,0.0,0.6,"Accessibility, Safety, Noise, Cleanliness, Atmosphere, Maintenance, Aesthetics, General","police (27), messy (24), safe (18), new (18), dead (9), filthy (9), horrible (9), good (9), improved (9), shouting (9), lively (9), tidy (6), noisy (6), roomy (6), jammed (3), active (3), damaged (3), difficult (3)",35
Lewisham,Woolstone Medical Centre,Hospital,51.43890469999999,-0.0347725,4.0,0.8393082459767659,0.0,0.0,1.0,"Maintenance, Aesthetics, General","good (54), great (18), excellent (18), lovely (9), wonderful (9), fantastic (9), messy (3)",117
Lewisham,Boundfield Medical Centre,Hospital,51.43502300000001,0.0037278,3.0,0.0,0.0,0.0,0.0,,,1
Lewisham,Rushey Green Phlebotomy Clinic,Hospital,51.4494287,-0.01817,3.4,0.7925028363863628,0.0,0.2,0.8,"Noise, Aesthetics, General","good (9), great (9), gorgeous (9), safe (6), noisy (3), roomy (3), loud (3), tidy (3), messy (3), walking (3), lighting (3)",5
Lewisham,University Hospital Lewisham Urgent Care Centre,Hospital,51.45373499999999,-0.0169796,3.3,0.57756760319074,0.4,0.2,0.4,"Safety, Comfort, Atmosphere, Maintenance, Aesthetics, Traffic","lovely (27), messy (12), busy (9), flow (9), safe (9), old (9), tidy (9), walking (9), security (9), calm (3), broken (3), tight (3)",52
Lewisham,University Hospital Lewisham: Cardiology,Hospital,51.4538465,-0.0169195,2.5,0.5985163971781731,0.0,0.4166666666666667,0.5833333333333334,,"tidy (9), noisy (6), safe (3), messy (3)",4
Lewisham,ProMed Innovations,Hospital,51.4373302,-0.0335266,5.0,0.0,0.0,0.0,0.0,,,1
Lewisham,Hilly Fields Medical Centre,Hospital,51.45708060000001,-0.024968,1.7,0.5426385859648387,0.2,0.4,0.4,"Accessibility, Atmosphere, Maintenance, Aesthetics, General","messy (12), noisy (9), difficult (9), near (9), good (9), new (9), safe (6), tidy (3), dark (3), dead (3)",239
Lewisham,Springbank Book Exhange,Museum,51.4496234,0.0005208,5.0,0.6465488175551096,0.0,0.0,1.0,"Aesthetics, General","great (27), lovely (9)",3
Lewisham,Manor House Ice House,Museum,51.4564264,0.004009599999999999,5.0,0.67622642715772,0.0,0.0,1.0,Aesthetics,"lovely (6), safe (3)",4
Lewisham,St Saviour's Edible Garden,Park,51.4450105,-0.043012,4.0,0.6257200870249007,0.0,0.4444444444444444,0.5555555555555556,"Atmosphere, Aesthetics, General","beautiful (9), amazing (6), calm (2)",6
Lewisham,Horniman Museum and Gardens,Museum,51.4410762,-0.06129250000000001,4.6,0.7025869488716125,0.0,0.26666666666666666,0.7333333333333333,"Accessibility, Noise, Comfort, Atmosphere, Maintenance, Traffic, Aesthetics, General","beautiful (24), lovely (19), walking (12), music (9), safe (9), good (9), pleasant (9), far (9), busy (9), great (9), parking (6), roomy (3), flow (3), cars (3), old (3), relaxing (3), tidy (3)",9016
Lewisham,Blackheath,Park,51.4716555,0.0102491,4.6,0.6824835856755574,0.0,0.4,0.6,"Accessibility, Atmosphere, Aesthetics, Traffic, General","great (36), near (21), parking (15), safe (12), serene (9), excellent (9), perfect (9), busy (9), vibrant (9), lovely (9), walking (6), messy (3)",2266
Lewisham,Beckenham Place Park,Park,51.42327969999999,-0.014721,4.6,0.7016259491443634,0.13333333333333333,0.26666666666666666,0.6,"Accessibility, Safety, Noise, Atmosphere, Maintenance, Aesthetics, Traffic, General","parking (42), great (27), lovely (21), safe (18), fantastic (18), walking (12), peaceful (9), perfect (9), beautiful (9), old (9), charming (3), dark (3), dead (3), maintained (3), improved (3)",4098
Lewisham,Garthorne Road Nature Reserve,Tourist Attraction,51.444996,-0.04820499999999999,4.4,0.5759702662626902,0.2,0.4,0.4,"Accessibility, Atmosphere, Aesthetics, Traffic, General","great (18), busy (9), walking (9), lovely (9), easy (9), safe (6), flow (3), good (3)",56
Lewisham,Shaftesbury Park,Park,51.420875,0.009771000000000002,4.2,0.6922948857148489,0.0,0.2,0.8,"Maintenance, Cleanliness, General","great (12), amazing (9), good (9), clean (9), parking (8), old (3), safe (3), tidy (3)",202
Lewisham,The Green,Park,51.4310389,0.0172712,4.3,0.5068274279435475,0.26666666666666666,0.5333333333333333,0.2,"Aesthetics, Accessibility, General","lovely (24), safe (12), great (9), near (6), busy (3)",37
Lewisham,Horn Park,Park,51.4429893,0.02519339999999999,4.5,0.6622468610604604,0.0,0.13333333333333333,0.8666666666666667,"Safety, Comfort, Cleanliness, Maintenance, Aesthetics, General","parking (28), lovely (15), good (12), clean (9), tidy (9), maintained (9), beautiful (9), upgraded (9), protected (7), walking (6), pleasant (3)",160
Lewisham,Albion Millennium Green,Park,51.43537540000001,-0.05394449999999999,4.3,0.6435010512669881,0.0,0.4,0.6,"Cleanliness, Atmosphere, Traffic, Aesthetics, General","great (27), lovely (21), beautiful (18), safe (12), calm (9), serene (9), rubbish (9), walking (7), noisy (6), parking (3), maintained (3), tidy (3)",85
Lewisham,Dacres Wood Nature Reserve,Tourist Attraction,51.43242790000001,-0.05155560000000001,4.5,0.6397913277149201,0.0,0.6,0.4,"Accessibility, Noise, Comfort, Cleanliness, Atmosphere, Maintenance, Aesthetics, General","peaceful (18), lovely (18), old (18), calm (9), pleasant (9), amazing (9), clean (9), maintained (9), great (9), good (9), far (6), tidy (3)",58
Lewisham,Riverpool Walkway Open Space,Park,51.41974800000001,-0.038571,4.0,0.5258695383866628,0.0,1.0,0.0,"Noise, Cleanliness, Atmosphere, Maintenance, Traffic, General","cyclists (24), clean (9), old (9), good (9), great (9), quiet (9), pedestrian (7), parking (5), damaged (3), walking (3)",9
Lewisham,One Tree Hill Park,Tourist Attraction,51.45115519999999,-0.0519363,4.5,0.6428728620211284,0.0,0.4,0.6,"Accessibility, Noise, Cleanliness, Atmosphere, Aesthetics, Traffic, General","great (36), lovely (30), good (18), beautiful (18), safe (15), peaceful (9), excellent (9), near (9), busy (9), parking (9), rubbish (9), trash (9), amazing (9), pretty (9), quiet (9), wonderful (9), gorgeous (9), walking (3)",305
Lewisham,King's Meadow,Park,51.419412,0.020362,4.4,0.7274343808492024,0.0,0.26666666666666666,0.7333333333333333,"Accessibility, Safety, Noise, Maintenance, Aesthetics, Traffic, General","parking (36), lovely (27), great (27), safe (12), new (9), beautiful (9), walking (9), near (9), pedestrian (9), music (3), tidy (3), noisy (3)",187
Lewisham,Friendly Gardens,Park,51.4709538,-0.0272658,4.1,0.6201287905375162,0.0,0.4,0.6,"Accessibility, Comfort, Cleanliness, Atmosphere, Maintenance, Aesthetics, General","parking (18), attractive (10), bad (9), rubbish (9), great (9), safe (9), lovely (9), old (9), excellent (9), central (9), enjoyable (9), walking (3)",121
Lewisham,Borough of Deptford Memorial Gardens,Park,51.47033419999999,-0.0290836,4.7,0.46416107614835106,0.4,0.5333333333333333,0.06666666666666667,"Noise, Traffic, Aesthetics, General","good (12), beautiful (9), traffic (9), parking (3), flow (3)",18
Lewisham,Horniman Gardens,Park,51.4413401,-0.0610709,4.7,0.6975341240564982,0.0,0.26666666666666666,0.7333333333333333,"Accessibility, Noise, Traffic, Aesthetics, General","beautiful (36), good (21), amazing (18), lovely (12), easy (9), wonderful (9), relaxing (6), far (6), peaceful (3), music (3), flow (3), elegant (3), lively (3), tidy (3)",2003
Lewisham,Enterprise Car & Van Hire - Lewisham,Car Rental,51.4597904,-0.004274099999999999,4.1,0.5688259482383728,0.4,0.2,0.4,"Accessibility, Comfort, Cleanliness, Maintenance, Traffic, General","great (45), cars (18), vehicle (18), amazing (15), tidy (9), isolated (9), welcoming (9), messy (5), safe (3), upgraded (3), clean (3)",450
Lewisham,Clarendon Rise Car Park,Transit Station,51.46095279999999,-0.008581499999999997,3.0,0.42235516011714935,0.3333333333333333,0.6666666666666666,0.0,Traffic,"parking (30), vehicle (9), noisy (3), cars (3)",2
Lewisham,Honor Oak Park station,Transit Station,51.45018320000001,-0.0450207,3.5,0.7476154168446859,0.0,0.5,0.5,General,"awful (9), good (9)",6
Lewisham,Honor Oak Park,Transit Station,51.44983939999999,-0.0456627,4.3,0.5382546861966451,0.2,0.6,0.2,"Accessibility, Noise, Cleanliness, Atmosphere, Maintenance, Traffic, General","quiet (18), tidy (15), busy (12), clean (9), good (9), new (9), peaceful (9), easy (9), central (9), safe (6), flow (3), walking (3), noisy (3)",44
Lewisham,Lewisham,Transit Station,51.46541369999999,-0.0132809,3.5,0.5093330760796865,0.06666666666666667,0.8,0.13333333333333333,"Comfort, Cleanliness, Atmosphere, Aesthetics, Traffic, General","pretty (9), busy (9), bad (9), excellent (9), fantastic (9), neat (9), tidy (9), pleasant (9), crowded (9), attractive (3)",166
Lewisham,Brockley,Transit Station,51.46372700000001,-0.03613570000000001,3.9,0.5723227600256602,0.3333333333333333,0.2,0.4666666666666667,"Accessibility, Comfort, Cleanliness, Atmosphere, Maintenance","connected (9), upgraded (9), pleasant (9), crowded (9), safe (9), noisy (3), dark (3), dead (3), tidy (3), clean (3), lovely (3)",8
Lewisham,Forest Hill,Transit Station,51.4393366,-0.0532905,3.8,0.5874542236328125,0.06666666666666667,0.7333333333333333,0.2,General,"good (36), excellent (9), fantastic (9), awful (9), poor (9), safe (6)",78
Lewisham,Elverson Road Station,Transit Station,51.4687255,-0.0177147,1.0,0.30287299553553265,1.0,0.0,0.0,,,2
Lewisham,Elverson Road,Light Rail Station,51.4689589,-0.016657,3.9,0.485559477408727,0.2,0.6,0.2,"Accessibility, Safety, Noise, Cleanliness, Atmosphere, Maintenance, Traffic, General","tidy (24), clean (18), quiet (12), vehicle (9), parking (9), new (9), peaceful (9), bad (9), accessible (9), safe (6), cars (3)",22
Lewisham,Brockley,Transit Station,51.4646255,-0.03733500000000001,4.2,0.5207213759422302,0.06666666666666667,0.8,0.13333333333333333,"Accessibility, Noise, Comfort, Atmosphere, Traffic, General","busy (30), good (18), far (12), quiet (9), parking (9), pleasant (9), safe (6), bikes (3), tidy (3), messy (3), noisy (3), walking (3), difficult (3)",69
Lewisham,Lennard Road (Beckenham) car park,Transit Station,51.416207,-0.035869,3.0,0.7676308751106262,0.0,0.0,1.0,"Traffic, Safety","cars (9), crime (9), unsafe (9), security (9), parking (3), vehicle (3), tidy (3), improved (3)",2
Lewisham,Sydenham,Transit Station,51.4271745,-0.0542696,4.0,0.6501174370447794,0.0,0.2,0.8,"Accessibility, Safety, Noise, Comfort, Atmosphere, Traffic, Aesthetics, General","great (18), safe (9), accessible (9), busy (9), quiet (9), pleasant (9), good (9), noisy (6), lovely (6), messy (6)",77
Lewisham,Greenwich Park Car Park South,Transit Station,51.4734286,0.002344800000000001,3.0,0.2849022448062897,1.0,0.0,0.0,,"safe (3), cars (3), parking (3)",5
Lewisham,Beckenham Junction Station (Stop C),Transit Station,51.40943350000001,-0.02528880000000001,2.0,0.0,0.0,0.0,0.0,,,1
Lewisham,Deptford Bridge,Transit Station,51.4742577,-0.0224665,4.0,0.5210574487845103,0.06666666666666667,0.7333333333333333,0.2,"Accessibility, Safety, Cleanliness, Atmosphere, Traffic","risky (9), busy (9), clean (9), easy (9), safe (3), noisy (3), lighting (1)",58
Lewisham,Bromley Road / St George's Church (Stop E),Transit Station,51.4087655,-0.0242619,3.0,0.0,0.0,0.0,0.0,,,1
Lewisham,Deptford Bridge,Transit Station,51.4747989,-0.0229293,4.7,0.599833623568217,0.0,0.6666666666666666,0.3333333333333333,"Cleanliness, General","wonderful (9), dirty (9), lovely (3), safe (3), messy (3), tidy (3)",9
Lewisham,Slaithwaite Road Car Park,Transit Station,51.4584293,-0.0110309,3.7,0.0,0.0,0.0,0.0,,,3
Lewisham,Molesworth Street (Stop S),Bus Station,51.4604444,-0.0127395,5.0,0.0,0.0,0.0,0.0,,,2
Lewisham,Forest Hill Fire Station (Stop N),Bus Station,51.44223,-0.04510600000000001,5.0,0.4904145300388336,0.0,1.0,0.0,,,1
Lewisham,Forest Hill Fire Station,Bus Station,51.44233699999999,-0.046137,5.0,0.8585074345270792,0.0,0.0,1.0,,"lovely (3), messy (3)",1
Lewisham,Lewisham Station (Stop D),Bus Station,51.4637842,-0.0123517,3.0,0.0,0.0,0.0,0.0,,,2
Lewisham,Grove Park Station (Stop C),Bus Station,51.430737,0.020092,3.0,0.44374972581863403,0.0,1.0,0.0,,"tidy (3), good (3)",1
Lewisham,Honor Oak Park Station (Stop HA),Bus Station,51.449611,-0.0457504,3.4,0.814180592695872,0.0,0.0,1.0,,messy (3),8
Lewisham,Grove Park Station (Stop D),Bus Station,51.430634,0.020404,4.5,0.5382519761721293,0.0,1.0,0.0,,busy (1),2
Lewisham,Tressillian Road,Bus Station,51.4622536,-0.0287463,5.0,0.0,0.0,0.0,0.0,,,1
Lewisham,Grove Park Station (Stop L),Bus Station,51.430401,0.02125699999999999,4.5,0.5313370923201243,0.0,1.0,0.0,,busy (3),2
Lewisham,Lewisham Shopping Centre,Shopping Mall,51.46175909999999,-0.0119106,3.9,0.6126427312692007,0.2,0.4,0.4,"Safety, Cleanliness, Atmosphere, Maintenance, Traffic, General","busy (21), great (18), safe (12), old (9), clean (9), amazing (6), fantastic (6), lovely (3), cars (3), parking (3)",13103
Lewisham,Lewisham Clock Tower,Tourist Attraction,51.462454,-0.0101356,4.1,0.5741709887981414,0.2,0.4,0.4,"Accessibility, Atmosphere, Traffic, Aesthetics, General","good (18), busy (12), beautiful (9), cars (9), noisy (3), safe (3)",127
Lewisham,Nunhead Cemetery,Cemetery,51.4624771,-0.0500312,4.7,0.7227096637090047,0.0,0.06666666666666667,0.9333333333333333,"Accessibility, Safety, Noise, Cleanliness, Atmosphere, Traffic, Aesthetics, General","perfect (18), beautiful (18), peaceful (18), safe (18), walking (12), lovely (9), muddy (9), unsafe (9), difficult (9), easy (9), clean (9), great (9), serene (9), good (6), charming (6), dusty (6), noisy (3), tidy (3), parking (3)",142
Lewisham,"St Margaret's Church, Lee",Tourist Attraction,51.46278239999999,0.0005499,4.4,0.5747553646564484,0.0,0.6,0.4,"Accessibility, Noise, Atmosphere, Maintenance, Traffic, Aesthetics, General","old (18), safe (12), good (9), easy (9), busy (9), peaceful (9), quiet (9), beautiful (9), great (9), excellent (9), tidy (3), messy (3), walking (3), wonderful (3), lovely (3)",116
Lewisham,Boone's Chapel,Tourist Attraction,51.45873839999999,0.0029397,4.2,0.414004606505235,0.5,0.25,0.25,,safe (6),9
Lewisham,Migration Museum,Museum,51.4614558,-0.0117884,4.8,0.7908968369166056,0.0,0.06666666666666667,0.9333333333333333,"Maintenance, Cleanliness, Accessibility, General","far (18), great (18), accessible (9), clean (9), easy (9), improved (9), good (9), messy (6), noisy (3), safe (3)",382
Lewisham,"New Cross Gate Cutting, London Wildlife Trust",Tourist Attraction,51.4687638,-0.0386101,4.5,0.6073042313257854,0.13333333333333333,0.4666666666666667,0.4,"Cleanliness, Aesthetics, General","lovely (27), beautiful (18), good (9), clean (6), lighting (3), tidy (3)",67
Lewisham,Manor House Gardens,Park,51.45633429999999,0.0046996,4.6,0.6921561280886332,0.0,0.4,0.6,"Cleanliness, Atmosphere, Maintenance, Aesthetics, Traffic, General","great (18), parking (12), perfect (9), pretty (9), excellent (9), maintained (9), lovely (9), relaxing (9), calm (3), roomy (3), walking (3), flow (3)",1407
Lewisham,One Tree Hill,Natural Feature,51.4512926,-0.0519616,5.0,0.0,0.0,0.0,0.0,,,1
Lewisham,Sydenham Hill Wood,Natural Feature,51.4368455,-0.0665743,4.5,0.5733251988887786,0.0,0.5333333333333333,0.4666666666666667,"Accessibility, Comfort, Cleanliness, Maintenance, Aesthetics, General","great (24), pleasant (18), old (18), lovely (15), far (15), walking (9), muddy (9), good (3), parking (3), near (3)",32
Lewisham,Burnt Ash Pond,Natural Feature,51.4420925,0.0207299,4.3,0.6135587394237518,0.0,0.5,0.5,"Noise, Cleanliness, Atmosphere, Aesthetics, General","great (9), neglected (9), beautiful (9), peaceful (9)",4
Lewisham,Dacres Wood Pond,Natural Feature,51.4319721,-0.0517884,4.5,0.0,0.0,0.0,0.0,,,2
Lewisham,Blackheath Quarter Fountain,Natural Feature,51.4600814,0.0262565,5.0,0.0,0.0,0.0,0.0,,,2
Lewisham,Folly Pond,Natural Feature,51.47243599999999,0.0023333,3.5,0.30252720415592194,1.0,0.0,0.0,,,2
Lewisham,Nunhead Reservoir,Natural Feature,51.46077950000001,-0.05419089999999999,1.0,0.46482271949450177,0.0,1.0,0.0,"Aesthetics, General","lovely (9), great (9)",1
Lewisham,One Tree Hill,Natural Feature,51.4512926,-0.0519616,4.8,0.6491427183151245,0.0,0.5333333333333333,0.4666666666666667,"Noise, Atmosphere, Traffic, Aesthetics, General","beautiful (18), safe (12), walking (12), excellent (9), great (9), lovely (9), wonderful (9), peaceful (9), relaxing (3), busy (3)",6
Lewisham,Devonshire Road Nature Reserve,Natural Feature,51.44555,-0.0499376,4.5,0.6315356294314066,0.0,0.3333333333333333,0.6666666666666666,Aesthetics,"beautiful (18), tidy (3)",6
Lewisham,Sydenham Park Allotments,Natural Feature,51.4329965,-0.0540314,1.0,0.4213518400986989,0.0,1.0,0.0,,,1
Lewisham,Plaistow Cemetery,Cemetery,51.4177227,0.0194196,3.4,0.7794253925482432,0.0,0.2,0.8,"Noise, Cleanliness, Atmosphere, Maintenance, Traffic, Aesthetics, General","tidy (9), worst (9), cars (9), rubbish (9), peaceful (9), noisy (6), safe (6), quiet (6), old (3), flow (3), poor (3), messy (3), lovely (3)",5
Lewisham,Brockley & Ladywell Cemeteries (former Deptford & Lewisham),Cemetery,51.4565514,-0.03146890000000001,4.2,0.5136200269063314,0.2,0.4,0.4,"Accessibility, Noise, Atmosphere, Maintenance, Aesthetics, Traffic, General","beautiful (27), quiet (27), great (27), peaceful (18), busy (9), gorgeous (9), music (9), wonderful (9), old (9), walking (6), near (6), flow (3), parking (3), tidy (3), lively (3), safe (3), dead (3)",52
Lewisham,Camberwell New Cemetery,Cemetery,51.4534907,-0.0465752,4.2,0.5138142029444377,0.3333333333333333,0.26666666666666666,0.4,"Noise, Cleanliness, Atmosphere, Maintenance, Aesthetics, Traffic, General","good (24), quiet (9), walking (9), parking (9), messy (9), peaceful (9), maintained (9), lovely (6), broken (6), bikes (3), safe (3), noisy (3), bad (3)",35
Lewisham,Bromley Hill Cemetery,Cemetery,51.41891769999999,0.0014933,3.8,0.5483859737714132,0.26666666666666666,0.5333333333333333,0.2,"Noise, Cleanliness, Atmosphere, Maintenance, Aesthetics, Traffic","cars (30), old (18), peaceful (18), lovely (12), rubbish (9), new (9), good (3), clean (3), noisy (3), safe (3), tidy (3)",36
Lewisham,Camberwell Old Cemetery,Cemetery,51.44997550000001,-0.06074649999999999,4.5,0.4410679519176483,0.4,0.6,0.0,"Accessibility, Safety, Noise, Atmosphere, Maintenance, Traffic, General","peaceful (27), old (21), new (18), safe (15), walking (15), great (9), dangerous (9), quiet (9), tidy (9), near (6), flow (3), noisy (3), awful (3), good (3)",28
Lewisham,London Road Cemetery,Cemetery,51.4142264,0.008401300000000002,4.5,0.31187713146209717,1.0,0.0,0.0,,,2
Lewisham,Commonwealth War Memorial,Cemetery,51.4615125,-0.05057880000000001,5.0,0.4430421491463979,0.0,1.0,0.0,,,1
Lewisham,Grove Park Cemetery,Cemetery,51.4246215,0.0364068,4.5,0.5505143324534099,0.06666666666666667,0.5333333333333333,0.4,"Noise, Maintenance, Cleanliness, Atmosphere","clean (15), tidy (9), peaceful (9), muddy (9), maintained (9), safe (3), lovely (1)",20
Lewisham,Blackheath Quaker Meeting House,Church,51.4650689,0.0068968,4.4,0.6289557059605916,0.0,0.5333333333333333,0.4666666666666667,"Maintenance, Cleanliness, Traffic, General","good (18), clean (15), excellent (9), parking (9), modern (9), amazing (9), tidy (9), fantastic (9)",20
Lewisham,London Peckham Seventh-day Adventist Church,Church,51.46225380000001,-0.0472787,4.8,0.592121402422587,0.0,0.6666666666666666,0.3333333333333333,"Noise, Comfort, Aesthetics, General","beautiful (18), lovely (15), good (9), music (9), welcoming (6)",30
Lewisham,New Testament Church of God Rehoboth,Church,51.4309074,-0.03777780000000001,4.7,0.6934640447298686,0.0,0.2,0.8,"Maintenance, Comfort, General","new (36), good (36), messy (12), wonderful (9), great (9), safe (3), lovely (3), welcoming (3)",16
Lewisham,Christ Embassy Catford,Church,51.45680189999999,-0.036588,5.0,0.7869211594263713,0.0,0.0,1.0,"Maintenance, Comfort, General, Safety","welcoming (9), messy (9), new (9), dark (9), lovely (6), safe (6), tidy (6), great (3), easy (1)",23
Lewisham,Winners Sanctuary,Church,51.4556013,0.0130987,4.7,0.7199183404445648,0.0,0.3333333333333333,0.6666666666666666,General,amazing (3),3
Lewisham,The Annunciation and St Augustine Church,Church,51.42363799999999,-0.0157862,4.4,0.6293304661909739,0.13333333333333333,0.26666666666666666,0.6,"Noise, Comfort, Aesthetics, General","lovely (18), excellent (9), great (9), noisy (9), welcoming (9), loud (9), tidy (3), lively (3)",25
Lewisham,New Cross Road Baptist Church,Church,51.47511720000001,-0.02834850000000001,4.9,0.6791191061337789,0.2,0.0,0.8,"Aesthetics, Traffic, General","wonderful (18), great (18), walking (9), stunning (9), lovely (6), tidy (3), safe (3), lively (3), noisy (3)",24
Lewisham,"St Peter's, Lee",Church,51.4550229,0.0184404,4.1,0.6153255167106787,0.25,0.25,0.5,General,"wonderful (9), excellent (9), amazing (6), safe (3)",14
Lewisham,Quakers Religious Society Of Friends,Church,51.4397581,-0.0477275,4.8,0.6750336752997504,0.1111111111111111,0.2222222222222222,0.6666666666666666,"Noise, Comfort, Atmosphere","welcoming (9), uncomfortable (9), quiet (9), tidy (6), calm (6), noisy (3), safe (3)",4
Lewisham,Molesworth Street Car Park,Parking,51.4617782,-0.0136037,3.8,0.6079816003640492,0.13333333333333333,0.4666666666666667,0.4,"Accessibility, Safety, Cleanliness, Atmosphere, Aesthetics, Traffic, General","cars (46), parking (42), safe (18), near (12), great (9), terrible (9), far (9), fantastic (9), lovely (9), dusty (9), noisy (6), walking (3), messy (3), tidy (3), busy (3), convenient (2)",38
Lewisham,Glassmill car park,Parking,51.46421920000001,-0.0149303,1.7,0.6956635197003682,0.0,0.4,0.6,"Safety, Comfort, Cleanliness, Maintenance, Aesthetics, General","safe (27), cars (24), tidy (18), filthy (18), new (18), parking (15), damaged (9), worst (9), broken (9), dark (9), unsafe (9), rubbish (9), comfortable (9), modern (9), lovely (9), noisy (6), lighting (3), lively (3), walking (3), risky (2)",11
Lewisham,Saphire Airport Parking,Parking,51.4744768,-0.0220524,3.8,0.7989781233999464,0.0,0.0,1.0,"Safety, Maintenance, Traffic, Aesthetics, General","police (54), cars (30), messy (24), tidy (18), safe (12), perfect (9), parking (9), old (9), excellent (9), new (3)",5
Lewisham,Co-op Car Park,Parking,51.4270261,0.0130899,5.0,0.36454792817433673,0.6666666666666666,0.3333333333333333,0.0,Aesthetics,lovely (3),1
Lewisham,Beckenham Place Park Car Park,Parking,51.4205343,-0.0181052,2.9,0.4922510087490082,0.2,0.8,0.0,"Accessibility, Cleanliness, Atmosphere, Maintenance, Aesthetics, Traffic","parking (96), cars (30), busy (27), easy (18), safe (12), lovely (9), tidy (9), rubbish (9), difficult (9), new (9), messy (6), dark (6), dead (6), vehicle (3)",58
Lewisham,Lewisham Shopping Centre Car Park,Parking,51.46320240000001,-0.0113472,4.2,0.5525881515608894,0.0,0.6666666666666666,0.3333333333333333,General,"good (39), cars (15), great (9), parking (6)",13
Lewisham,Lewisham Toy Library,Library,51.4630452,-0.0118193,4.8,0.8200162808100383,0.0,0.2,0.8,"Accessibility, Safety, Cleanliness, Atmosphere, Maintenance, Aesthetics, General","safe (27), new (27), great (27), amazing (27), fantastic (18), easy (18), good (18), clean (9), old (9), lovely (9), chaotic (9), wonderful (9), tidy (6), messy (3), peaceful (3), pretty (3)",23
Lewisham,Sydenham Library,Library,51.42689119999999,-0.04057019999999999,4.6,0.7468300938606263,0.0,0.0,1.0,"Accessibility, Noise, Maintenance, Aesthetics, General","safe (21), lovely (21), great (18), noisy (12), easy (9), connected (9), good (9), fantastic (9), old (9), tidy (3), far (3), parking (3), messy (3)",36
Lewisham,Crofton Park Library,Library,51.45546059999999,-0.03642,4.3,0.6671661297480266,0.0,0.4,0.6,"Accessibility, Noise, Atmosphere, Maintenance, Aesthetics, General","great (39), quiet (27), lovely (15), safe (12), noisy (12), wonderful (9), central (9), calm (9), excellent (9), new (9), parking (6), tidy (3), improved (3), good (3), messy (3)",42
Lewisham,Grove Park Library,Library,51.4359189,0.0234401,4.3,0.6141620377699534,0.2,0.4,0.4,"Maintenance, Comfort, Aesthetics, General","good (30), updated (9), lovely (9), wonderful (9), cozy (9), tidy (3), safe (3)",15
Lewisham,Forest Hill Library,Library,51.4358011,-0.0559039,4.4,0.804554037253062,0.0,0.0,1.0,"Comfort, Atmosphere, Traffic, Aesthetics, General","welcoming (27), good (18), lovely (15), safe (9), inviting (9), worst (9), wonderful (9), busy (9), amazing (6), lighting (3)",71
Lewisham,Downham Library,Library,51.42604049999999,0.0125852,4.1,0.7027740160624186,0.0,0.6,0.4,"Accessibility, Noise, Comfort, Atmosphere, Maintenance, Aesthetics, General","good (21), great (18), quiet (18), tidy (12), excellent (9), pleasant (9), new (9), messy (9), safe (9), lovely (9), welcoming (9), difficult (9), dark (3), dead (3), ugly (3)",26
Lewisham,Manor House Library,Library,51.4572693,0.004435199999999999,4.6,0.6783666352430979,0.0,0.4,0.6,"Noise, Cleanliness, Atmosphere, Maintenance, Traffic, Aesthetics, General","beautiful (18), old (18), dirty (18), excellent (9), good (9), walking (9), serene (9), silent (9), quiet (9), safe (3), messy (3), peaceful (3), lovely (3)",60
Lewisham,Lewisham Way Book Exchange,Library,51.46770180000001,-0.0235072,4.8,0.6299255887667338,0.2,0.06666666666666667,0.7333333333333333,"Maintenance, Aesthetics, Safety, General","great (27), good (18), new (9), dark (9), lovely (9), safe (6), lighting (3), updated (3)",47
Lewisham,Cornerstone,School,51.4253399,-0.04691549999999999,3.0,0.8332206010818481,0.0,0.0,1.0,,noisy (3),2
Lewisham,Haberdashers' Hatcham,School,51.467545,-0.04301700000000001,3.4,0.6228993574778239,0.13333333333333333,0.26666666666666666,0.6,"Atmosphere, Traffic, Aesthetics, General","good (36), noisy (15), lovely (9), poor (9), busy (9), safe (3), tidy (3), neglected (2)",43
Lewisham,"Little Cubs Academy Preschool & Nursery Forest Hill, Honor Oak",School,51.44906599999999,-0.04876320000000001,4.5,0.775451123714447,0.0,0.2,0.8,"Comfort, Cleanliness, Maintenance, Aesthetics, General","good (36), excellent (18), fantastic (18), lovely (12), old (9), clean (9), welcoming (9), tidy (6), messy (6), safe (3)",20
Lewisham,Royal School of Motoring,Local Government Office,51.46584209999999,-0.0190378,4.8,0.7675488332907359,0.0,0.2,0.8,"Comfort, Traffic, Atmosphere, General","driving (36), messy (21), calm (18), tidy (12), good (12), pleasant (9), excellent (9), cars (3)",135
Lewisham,Ready Steady Go! Pre-School,School,51.41260620000001,0.0149993,5.0,0.9501851201057434,0.0,0.0,1.0,General,great (9),3
Lewisham,Baby Lambs Day Nursery,School,51.4585682,0.005328900000000001,4.1,0.821406688955095,0.0,0.0,1.0,"Maintenance, General, Cleanliness, Safety","good (45), great (27), safe (21), old (18), clean (18), amazing (15), tidy (6), peaceful (3)",9
Lewisham,"Goldsmiths, University of London",University,51.4742772,-0.035417,3.8,0.573452252149582,0.06666666666666667,0.6,0.3333333333333333,"Maintenance, Safety, Accessibility, General","great (27), good (21), new (18), safe (12), excellent (9), walkable (9), modern (9), near (3), dark (1), dead (1)",359
Lewisham,Lewisham College,University,51.4678531,-0.0264382,3.9,0.640034806728363,0.0,0.2,0.8,"Accessibility, Noise, Comfort, Cleanliness, Atmosphere, Maintenance, General","good (30), great (27), messy (27), disappointing (19), quiet (12), old (12), safe (9), excellent (9), pleasant (9), rubbish (9), noisy (6), improved (3), tidy (3), dark (3), dead (3), loud (3), walking (3)",227
Lewisham,A4E Lewisham,University,51.4628841,-0.009645800000000001,1.5,0.49031280477841693,0.0,1.0,0.0,Cleanliness,"rubbish (9), improved (3), tidy (3)",2
Lewisham,Capel Manor College,University,51.4407873,0.0301803,4.1,0.5250083525975545,0.4,0.2,0.4,"Safety, Maintenance, Traffic, Aesthetics, General","lovely (18), great (18), beautiful (15), safe (15), new (9), messy (6), flow (3), good (3), tidy (3)",28
Lewisham,Tower College Of Further And Higher Education,University,51.4754494,-0.02848419999999999,3.8,0.9820935924847921,0.0,0.0,1.0,,"safe (6), tidy (3)",4
Lewisham,Brockley Rise Centre,University,51.44378080000001,-0.0422959,4.2,0.6416241665681203,0.0,0.4,0.6,"Maintenance, Comfort, Accessibility, General","old (9), bad (9), easy (9), welcoming (9), fantastic (6), safe (3), messy (3), tidy (3)",14
Lewisham,London College for Professionals LCFP,University,51.439286,-0.0525531,4.9,0.732164082924525,0.0,0.4,0.6,"Maintenance, Accessibility, General","great (18), excellent (18), new (9), accessible (9), far (9), improved (3), dark (3), dead (3), noisy (3), messy (2)",10
Lewisham,The Blackheath Hospital,Hospital,51.46350160000001,0.0065947,4.7,0.7228210767110189,0.0,0.4,0.6,"Accessibility, Comfort, Cleanliness, Maintenance, Aesthetics, General","amazing (36), good (27), clean (21), messy (17), lovely (12), excellent (9), comfortable (9), convenient (9), spotless (9), perfect (9), improved (9), great (9), safe (6), pleasant (3), parking (3), pretty (3), roomy (3), tidy (3), noisy (3)",1680
Lewisham,Cloud Health,Hospital,51.4654338,0.008443299999999999,4.8,0.54666242202123,0.3333333333333333,0.26666666666666666,0.4,"Noise, Comfort, Aesthetics, General","good (9), comfortable (9), bad (9), amazing (9), tidy (3)",17
Lewisham,Blackheath Hospital Outpatients Centre,Hospital,51.4654345,0.0084484,2.5,0.6638484875361125,0.0,0.5333333333333333,0.4666666666666667,"General, Maintenance, Safety","poor (9), safe (9), dark (9), worst (9), horrible (9), good (9), tidy (6), noisy (6), lighting (3), messy (3)",10
Lewisham,Leo,Hospital,51.4732056,-0.0139715,3.4,0.6010262494285902,0.0,0.5,0.5,"Accessibility, Comfort, Cleanliness, Traffic, General","parking (18), easy (9), good (9), comfortable (9), clean (9), amazing (9), near (3), noisy (3), tidy (3), messy (3), roomy (3)",5
Lewisham,Circle Podiatry Practice,Hospital,51.4655772,-0.0112298,4.4,0.747926942507426,0.0,0.2,0.8,"Maintenance, Comfort, Aesthetics, General","great (18), wonderful (15), tidy (9), messy (9), pleasant (9), welcoming (9), comfortable (9), good (6), broken (3), safe (3), fantastic (3)",29
Lewisham,Manor Brook Medical Centre,Hospital,51.4692569,0.0250643,3.7,0.7388223469257355,0.0,0.26666666666666666,0.7333333333333333,"Maintenance, Comfort, Accessibility, General","messy (36), tidy (21), disappointing (18), safe (15), noisy (12), good (12), wonderful (9), great (9), difficult (9), uncomfortable (9), excellent (9), comfortable (9), dark (3), dead (3), improved (3)",121
Lewisham,St Johns Medical Centre,Hospital,51.4668869,-0.0213754,2.1,0.75937260389328,0.0,0.4,0.6,"Comfort, Cleanliness, Atmosphere, Maintenance, Aesthetics, Traffic, General","good (27), great (27), old (18), awful (18), new (9), dark (9), dead (9), messy (9), comfortable (9), busy (9), lovely (9), maintained (9), noisy (6), safe (6), tidy (6), active (3)",265
Lewisham,The Vale Medical Centre,Doctor,51.435674,-0.0434678,3.5,0.7861321051915486,0.0,0.0,1.0,General,"good (12), safe (9), perfect (9), amazing (9), great (9), bad (9), messy (6), tidy (6), easy (3), active (3)",328
Lewisham,Lewisham Medical Centre,Hospital,51.4584847,0.0043819,3.7,0.5864349822203319,0.0,0.5333333333333333,0.4666666666666667,"Accessibility, Comfort, Atmosphere, Maintenance, Traffic, General","great (27), busy (27), bad (27), good (24), messy (21), worst (18), noisy (12), pleasant (9), tidy (9), far (9), hectic (9), excellent (9), amazing (6), safe (3), risky (3), damaged (3), dark (3), dead (3)",335
Lewisham,The Sloane Hospital,Hospital,51.4083325,-0.0045686,4.8,0.6780598084131877,0.06666666666666667,0.13333333333333333,0.8,"Comfort, Aesthetics, General","good (30), excellent (27), fantastic (9), pleasant (9), messy (9), welcoming (9), great (9), tidy (3)",778
Lewisham,Cygnet Hospital Blackheath,Hospital,51.47232839999999,-0.011387,2.7,0.5407069047292073,0.0,0.7333333333333333,0.26666666666666666,"Maintenance, Cleanliness, Safety, General","good (18), police (9), crime (9), tidy (9), maintained (9), unsafe (9), noisy (6), safe (3)",17
Lewisham,Back Pain Clinic - Osteopath,Physiotherapist,51.4230546,-0.0423844,5.0,0.8560092568397522,0.0,0.0,1.0,"Atmosphere, Aesthetics, Accessibility, General","messy (18), amazing (9), calm (9), bad (9), easy (9), fantastic (9), noisy (6), safe (3), poor (3)",43
Lewisham,Ranger's House - The Wernher Collection,Museum,51.47346779999999,-0.0016872,4.4,0.6721362868944804,0.0,0.4666666666666667,0.5333333333333333,"Aesthetics, General","beautiful (18), tidy (15), gorgeous (9), good (9), safe (9), great (9), noisy (9), pretty (9), busy (3), parking (3), dark (3), dead (3), lovely (3)",275
Lewisham,Forest Hill,Museum,51.42688210000001,-0.0405872,4.0,0.5541052917639414,0.0,0.3333333333333333,0.6666666666666666,,,1
Lewisham,The Bandstand at Horniman Museum and Gardens,Museum,51.4423857,-0.0615088,4.4,0.615281934539477,0.08333333333333333,0.3333333333333333,0.5833333333333334,"Aesthetics, General","good (9), beautiful (9), lovely (3)",7
Lewisham,Prince Philip Maritime Collections Centre,Museum,51.46172050000001,0.0309562,4.6,0.6629833102226257,0.0,0.3333333333333333,0.6666666666666666,"Aesthetics, General","great (27), lovely (18), fantastic (6), amazing (6)",19
Lewisham,Tannery Arts: New Tannery Way,Art Gallery,51.4559503,0.0122467,5.0,0.6144266277551651,0.0,0.5,0.5,"Maintenance, Aesthetics, General","great (27), lovely (9), new (9)",3
Lewisham,Brockley Art House,Art Gallery,51.4604821,-0.0288558,4.3,0.725323498249054,0.0,0.0,1.0,,safe (3),3
Lewisham,MMX Gallery,Art Gallery,51.4753,-0.0293012,4.8,0.7325755000114441,0.0,0.06666666666666667,0.9333333333333333,"Aesthetics, Safety, General","lovely (18), great (18), tidy (9), messy (9), beautiful (9), charming (9), stunning (9), amazing (6), safe (6), good (3), perfect (3)",20
Lewisham,artdog gallery,Art Gallery,51.4428967,-0.0426935,4.9,0.737150760491689,0.0,0.06666666666666667,0.9333333333333333,"Maintenance, Noise, Aesthetics, General","lovely (30), wonderful (27), great (18), good (12), messy (9), beautiful (9), safe (6), new (3)",12
Lewisham,Green Gallery,Art Gallery,51.4577758,0.0111243,5.0,0.38568015396595,0.5,0.5,0.0,Aesthetics,lovely (9),3
Lewisham,Anise Gallery,Art Gallery,51.4431677,-0.0483133,4.4,0.7068260371685028,0.0,0.4,0.6,"Comfort, Cleanliness, General","good (18), rubbish (9), great (9), welcoming (9), noisy (3), loud (3)",17
Lewisham,Maria Rado Art Studio,Art Gallery,51.41865989999999,-0.0187533,4.9,0.7844442248344421,0.0,0.06666666666666667,0.9333333333333333,"Comfort, Atmosphere, Aesthetics, General","lovely (18), beautiful (18), great (18), gorgeous (9), welcoming (9), amazing (9), safe (3), messy (3)",17
Lewisham,Tracy Howl Weddings,Art Gallery,51.4186127,-0.018771,5.0,0.6553102483352026,0.0,0.5,0.5,General,"great (27), amazing (9)",2
Lewisham,Anna Lovely Gallery,Art Gallery,51.4256026,-0.04557070000000001,4.9,0.7710182388623555,0.0,0.13333333333333333,0.8666666666666667,"Accessibility, Noise, Comfort, Atmosphere, Aesthetics, General","lovely (57), beautiful (18), welcoming (9), quiet (9), great (9), wonderful (9), perfect (7), calm (6), fantastic (6), safe (3), near (3)",22
Lewisham,Chemist Gallery,Art Gallery,51.4673537,-0.02293429999999999,5.0,0.46140679717063904,0.0,1.0,0.0,,,2
Lewisham,C&C Gallery,Art Gallery,51.43942730000001,-0.05464289999999999,5.0,0.7584093477990892,0.0,0.3333333333333333,0.6666666666666666,"Aesthetics, General","wonderful (12), excellent (9), good (9), beautiful (3)",4
Lewisham,FABRIQ,Art Gallery,51.4638744,-0.035848,5.0,0.7833582626448737,0.0,0.0,1.0,General,"great (9), amazing (9), lovely (2)",8
Lewisham,Gallery White Box,Art Gallery,51.468011,0.003952999999999999,4.9,0.5753937065601349,0.2,0.26666666666666666,0.5333333333333333,"Maintenance, Aesthetics, General","lovely (12), new (9), great (9), tidy (3)",8
Lewisham,Greenwich Park,Park,51.4769095,0.0014643,4.8,0.6888503233591715,0.0,0.2,0.8,"Accessibility, Noise, Comfort, Atmosphere, Maintenance, Aesthetics, Traffic, General","parking (35), perfect (18), peaceful (18), old (18), walking (15), safe (12), good (12), tidy (9), easy (9), beautiful (9), great (9), stunning (9), near (9), vibrant (9), welcoming (9), bustling (9), lively (9), enjoyable (9), relaxing (7), bikes (3), flow (3), difficult (3), cars (3), messy (3)",47762
Lewisham,Crystal Palace Park,Park,51.4221083,-0.0709457,4.5,0.5375155051549275,0.13333333333333333,0.6666666666666666,0.2,"Accessibility, Noise, Comfort, Cleanliness, Atmosphere, Traffic, Aesthetics, General","lovely (27), wonderful (18), parking (18), great (18), welcoming (18), beautiful (15), walking (13), safe (12), quiet (12), peaceful (12), spacious (9), lively (9), stunning (9), perfect (9), calm (9), easy (9), pleasant (9), relaxing (3), flow (3), neat (3), busy (3), good (3)",13006
Lewisham,Beckenham War Memorial,Park,51.406914,-0.0320175,4.6,0.5982804437478383,0.0,0.6666666666666666,0.3333333333333333,"Accessibility, Noise, Comfort, Traffic, Aesthetics, General","traffic (18), accessible (9), enjoyable (9), buzzing (9), walking (9), good (9), lovely (6)",17
Lewisham,Old Royal Naval College,Tourist Attraction,51.4827142,-0.006696400000000001,4.7,0.6813514709472657,0.0,0.4,0.6,"Safety, Noise, Cleanliness, Atmosphere, Maintenance, Aesthetics, Traffic, General","old (18), stunning (18), walking (16), perfect (11), tidy (9), dark (9), peaceful (9), serene (9), maintained (9), good (9), charming (6), safe (6), beautiful (3)",5009
Lewisham,Croydon Road Recreation Ground,Park,51.4036433,-0.0327766,4.4,0.5515851636727651,0.0,0.8,0.2,"Accessibility, Noise, Atmosphere, Aesthetics, Traffic, General","good (18), parking (15), walking (12), tidy (12), easy (9), lovely (9), far (9), great (9), quiet (9), fantastic (9), busy (9), messy (3), safe (3), ugly (3)",973
Lewisham,Mudchute Park and Farm,Park,51.4920932,-0.0104424,4.6,0.6226988931496938,0.0,0.4,0.6,"Accessibility, Noise, Atmosphere, Aesthetics, General","safe (24), far (21), good (18), lovely (18), great (18), parking (15), accessible (9), serene (9), perfect (9), relaxing (9), walking (9), peaceful (9), beautiful (9), pretty (9), calm (9), dark (3), dead (3), tidy (3)",3761
Lewisham,South Norwood Lake & Grounds,Park,51.4096106,-0.07492109999999999,4.5,0.7015805741151174,0.0,0.2,0.8,"Accessibility, Cleanliness, Atmosphere, Maintenance, Aesthetics, Traffic, General","lovely (45), walking (21), beautiful (18), great (18), fantastic (12), good (12), renovated (9), perfect (9), calm (9), wonderful (6), parking (6), clean (3), flow (3), near (3)",1033
Lewisham,Mottingham Recreation Ground,Park,51.43129599999999,0.042502,4.2,0.5620833754539489,0.2,0.4,0.4,"Noise, Cleanliness, Atmosphere, Maintenance, Traffic, Aesthetics, General","maintained (18), bikes (12), old (9), peaceful (9), great (9), poor (6), plain (6), messy (3), relaxing (3), good (3), walking (1)",29
Lewisham,Harrington Road,Transit Station,51.3996398,-0.0605229,4.3,0.5920808394749959,0.0,0.5333333333333333,0.4666666666666667,"Comfort, Accessibility, General","easy (9), great (9), safe (9), convenient (9), parking (6), pleasant (6), improved (3), noisy (3)",18
Lewisham,Old Dover Road Car Park,Transit Station,51.4763947,0.0214953,5.0,0.5746132930119833,0.0,0.6666666666666666,0.3333333333333333,,,1
Lewisham,Greenwich Station,Transit Station,51.47783370000001,-0.0133189,3.9,0.5401595453421275,0.0,0.8666666666666667,0.13333333333333333,"Accessibility, Comfort, Cleanliness, Traffic, General","convenient (18), near (12), accessible (9), easy (9), great (9), central (9), good (9), clean (9), safe (6), parking (6), flow (3), repaired (3)",13
Lewisham,Bromley North Station,Transit Station,51.4093001,0.0174021,3.3,0.4051022211710612,0.7333333333333333,0.06666666666666667,0.2,"Maintenance, Cleanliness, Accessibility","parking (12), clean (8), noisy (6), safe (6), far (6), good (3), ugly (3)",11
Lewisham,Bromley North Station,Bus Station,51.4089191,0.0165731,4.5,0.0,0.0,0.0,0.0,,,2
Lewisham,New Cross Gate Station (Stop M),Bus Station,51.474869,-0.04109,4.5,0.4556162357330322,0.3333333333333333,0.6666666666666666,0.0,"Maintenance, Traffic, Atmosphere","busy (16), improved (6), noisy (3)",6
Lewisham,"The Glades, Bromley",Shopping Mall,51.40373,0.016433,4.3,0.6667669534683227,0.0,0.2,0.8,"Accessibility, Atmosphere, Maintenance, Traffic, Aesthetics, General","parking (57), good (18), safe (15), fantastic (15), busy (12), lovely (9), amazing (9), convenient (9), accessible (9), cars (9), lively (9), pretty (9), roomy (3), noisy (3), bad (3), messy (3)",11528
Lewisham,Blenheim Centre,Shopping Mall,51.4142436,-0.05228380000000001,3.8,0.5386425117651622,0.0,0.9333333333333333,0.06666666666666667,"Safety, Comfort, Cleanliness, Traffic, General","good (18), parking (18), cars (12), tidy (9), great (9), pleasant (9), clean (9), repaired (3), safe (3)",748
Lewisham,The Mall,Shopping Mall,51.4023055,0.0167279,4.0,0.5906771262486775,0.0,0.8,0.2,"Comfort, Cleanliness, Traffic, General","great (9), parking (9), bad (9), good (9), safe (6), enjoyable (6), clean (6)",2136
Lewisham,Millennium Leisure Park Greenwich,Shopping Mall,51.49021339999999,0.0124897,4.3,0.689402683575948,0.0,0.26666666666666666,0.7333333333333333,"Accessibility, Comfort, Maintenance, Traffic, Aesthetics, General","parking (42), enjoyable (18), safe (15), lovely (9), accessible (9), perfect (9), easy (9), vehicle (9), fantastic (9), modern (9), new (9), bad (6), busy (6), good (3), messy (3), convenient (3)",5264
Lewisham,Brocklebank Retail Park,Shopping Mall,51.4901208,0.0230229,4.3,0.5564051469167074,0.0,0.8,0.2,"Accessibility, Comfort, Cleanliness, Maintenance, Traffic, General","parking (57), convenient (27), safe (24), easy (18), maintained (9), clean (9), enjoyable (9), fantastic (9), great (9), near (9), cars (9), good (3), busy (3), noisy (3)",1945
Lewisham,Shopping Point,Shopping Mall,51.43963969999999,0.05094169999999999,5.0,0.0,0.0,0.0,0.0,,,1
Lewisham,Sky Shopping City,Shopping Mall,51.469413,-0.067879,3.9,0.6787111918131511,0.06666666666666667,0.3333333333333333,0.6,"Cleanliness, General","amazing (18), terrible (9), lovely (3), tidy (3), noisy (3), clean (3)",163
Lewisham,Holdrons Arcade,Shopping Mall,51.46954400000001,-0.0680312,4.0,0.634417188167572,0.0,0.4666666666666667,0.5333333333333333,"Maintenance, Comfort, Aesthetics, General","lovely (27), wonderful (18), great (18), roomy (9), stunning (9), good (9), cozy (9), safe (6)",57
Lewisham,Queen's House,Museum,51.4811073,-0.003701299999999999,4.5,0.6262924830118816,0.0,0.4666666666666667,0.5333333333333333,"Noise, Cleanliness, Atmosphere, Maintenance, Aesthetics, General","beautiful (27), peaceful (18), safe (15), maintained (9), old (9), great (9), tidy (6), walking (3)",2778
Lewisham,Eltham Palace,Tourist Attraction,51.4470096,0.0485118,4.6,0.7105144878228505,0.0,0.3333333333333333,0.6666666666666666,"Accessibility, Noise, Comfort, Atmosphere, Maintenance, Aesthetics, General","lovely (37), beautiful (36), good (30), great (21), safe (15), amazing (15), roomy (15), accessible (9), gorgeous (9), tidy (9), easy (9), peaceful (9), relaxing (9), charming (9), near (9), old (9), new (9), pretty (9), welcoming (9), wonderful (6), walking (3), fantastic (3)",4595
Lewisham,Peter Harrison Planetarium,Tourist Attraction,51.4771732,-0.0007061000000000002,4.5,0.8440137306849161,0.0,0.0,1.0,"Accessibility, Noise, Comfort, Cleanliness, Atmosphere, Maintenance, Aesthetics, General","safe (24), great (18), good (12), accessible (9), scenic (9), clean (9), improved (9), enjoyable (9), amazing (9), peaceful (9), parking (6), wonderful (3), lively (3), lovely (3)",1024
Lewisham,St Alfege Church,Tourist Attraction,51.480517,-0.0096579,4.5,0.6295255303382874,0.0,0.6,0.4,"Safety, Noise, Cleanliness, Atmosphere, Maintenance, Aesthetics, General","lovely (21), beautiful (18), old (18), safe (12), bad (9), peaceful (9), lighting (9), amazing (9), clean (9), damaged (3), good (3), tidy (3)",293
Lewisham,National Maritime Museum,Museum,51.48100579999999,-0.005226199999999999,4.6,0.7792118529478709,0.0,0.06666666666666667,0.9333333333333333,"Aesthetics, Accessibility, General","great (42), beautiful (21), safe (18), wonderful (18), good (9), tidy (6), walking (6), near (3)",13646
Lewisham,"St Peter & St Paul, Bromley",Tourist Attraction,51.4050062,0.0132155,4.6,0.6974605917930603,0.0,0.13333333333333333,0.8666666666666667,"Maintenance, Aesthetics, General","great (18), lovely (15), old (9), amazing (9), safe (3), good (3)",82
Lewisham,The Fan Museum,Museum,51.47905040000001,-0.007909700000000002,4.5,0.8246325135231019,0.0,0.0,1.0,"Comfort, Aesthetics, General","beautiful (27), lovely (18), stunning (18), wonderful (18), fantastic (9), elegant (9), inviting (9), safe (9), perfect (9), amazing (9), charming (6), roomy (3), lighting (3), dark (3), dead (3)",428
Lewisham,Dulwich Upper Wood,Natural Feature,51.4240424,-0.0778874,4.7,0.6465361714363098,0.0,0.3333333333333333,0.6666666666666666,,,3
Lewisham,Maryon WIlson Park,Natural Feature,51.48445359999999,0.0435932,4.8,0.656321233510971,0.06666666666666667,0.26666666666666666,0.6666666666666666,"Atmosphere, Traffic, Aesthetics, Accessibility","beautiful (18), lovely (15), parking (15), busy (9), gorgeous (9), good (3), far (3)",17
Lewisham,Beaulieu Heights,Natural Feature,51.4092765,-0.0840648,3.8,0.7086185912291209,0.0,0.0,1.0,General,"great (36), parking (3)",8
Lewisham,Isle of Dogs,Natural Feature,51.4966118,-0.0146551,4.4,0.6077736794948578,0.0,0.6,0.4,"Safety, Noise, Comfort, Atmosphere, Maintenance, Aesthetics, Traffic, General","modern (18), beautiful (18), walking (12), enjoyable (9), amazing (9), peaceful (9), good (9), dark (9), lovely (6), parking (3), safe (3)",271
Lewisham,Lower Lake,Natural Feature,51.417981,-0.06524909999999999,4.0,0.4968536893526713,0.0,1.0,0.0,,,1
Lewisham,Boating Lake,Natural Feature,51.4449589,-0.08023480000000001,3.7,0.5523491551478704,0.0,0.5,0.5,"Comfort, Cleanliness, Atmosphere","pleasant (27), relaxing (9), dirty (9), good (3), parking (3), walking (3)",3
Lewisham,South Norwood Lake,Natural Feature,51.40698709999999,-0.0741826,4.5,0.6216190238793691,0.2,0.2,0.6,"Comfort, Cleanliness, Atmosphere, Aesthetics, General","great (27), beautiful (18), lovely (12), welcoming (9), good (9), rubbish (9), calm (9), safe (9), relaxing (6), noisy (3), walking (3), parking (3)",52
Lewisham,Elmstead Wood,Natural Feature,51.42242050000001,0.04166810000000001,4.6,0.5353379130363465,0.0,0.9333333333333333,0.06666666666666667,"Cleanliness, Traffic, Aesthetics, Accessibility","parking (12), accessible (9), stunning (9), lovely (9), beautiful (9), muddy (9), walking (6), safe (3), bikes (2)",22
Lewisham,Dulwich Wood,Natural Feature,51.4355286,-0.0738923,4.5,0.6913286745548248,0.0,0.2,0.8,"Aesthetics, Maintenance, Atmosphere, General","great (18), beautiful (18), good (15), old (9), excellent (9), relaxing (9), messy (6), safe (6), dirty (3), dark (3), dead (3), lovely (3)",23
Lewisham,Grave of Christopher Marlowe,Cemetery,51.4821177,-0.0223551,4.7,0.3623835610018836,0.6666666666666666,0.3333333333333333,0.0,,"tidy (3), lovely (3), messy (3)",3
Lewisham,The Old Blue Cross Pet Cemetery,Cemetery,51.47442720000001,0.0390783,5.0,0.6673417389392853,0.0,0.16666666666666666,0.8333333333333334,"Accessibility, Noise, Atmosphere, Aesthetics, General","quiet (9), great (9), wonderful (9), beautiful (3), peaceful (3), near (3), parking (3)",2
Lewisham,Greenwich Cemetery,Cemetery,51.468039,0.05162459999999999,3.2,0.6008269826571146,0.0,0.8,0.2,"Accessibility, Safety, Cleanliness, Maintenance, Traffic, General","safe (30), walking (18), maintained (18), messy (12), near (9), excellent (9), worst (9), accessible (9), poor (9), terrible (9), pedestrian (9), broken (9), lively (3), tidy (3), noisy (3), bikes (3), cars (3)",25
Lewisham,"Christ Church, McDermott Road",Church,51.4664064,-0.07027520000000001,5.0,0.5791500906149546,0.1111111111111111,0.3333333333333333,0.5555555555555556,"Accessibility, Noise, Comfort, Atmosphere, Maintenance, Aesthetics, Traffic, General","old (18), safe (9), welcoming (9), lovely (9), good (9), wonderful (9), beautiful (9), quiet (9), parking (9), near (9), cars (3)",3
Lewisham,Assemblies of God Church,Church,51.4750671,-0.07253899999999999,4.8,0.48660817245642346,0.0,1.0,0.0,General,"good (9), safe (3)",4
Lewisham,Our Ladye Star of the Sea Roman Catholic Church,Church,51.476389,-0.005899199999999999,4.7,0.503208045164744,0.06666666666666667,0.8,0.13333333333333333,"Comfort, Aesthetics, Accessibility, General","beautiful (18), great (12), difficult (9), pleasant (9), good (9), connected (9), tidy (6), parking (6), safe (6), near (3), amazing (3)",72
Lewisham,South London Tabernacle,Church,51.4719188,-0.07857319999999998,5.0,0.6242653263939751,0.2222222222222222,0.3333333333333333,0.4444444444444444,Aesthetics,"lovely (6), safe (3), peaceful (3)",4
Lewisham,St Edmund's Church,Church,51.4060035,-0.0298751,4.7,0.5711911936601003,0.0,0.8,0.2,"Noise, Comfort, Atmosphere, Aesthetics, General","lovely (27), beautiful (12), safe (9), peaceful (9), welcoming (9), good (9), amazing (9), active (6), messy (6), old (3), tidy (3), dark (3), dead (3)",81
Lewisham,"Citygate Church, Beckenham",Church,51.40758010000001,-0.0322359,4.7,0.7559894720713297,0.0,0.4,0.6,"Comfort, Accessibility, General","great (45), perfect (18), fantastic (18), safe (12), far (9), welcoming (9), tidy (6), amazing (6), lovely (3), good (3), peaceful (3), lively (3), noisy (3)",79
Lewisham,Burney Street Car Park,Parking,51.4792618,-0.0090506,3.1,0.6466771642367045,0.0,0.6,0.4,"Accessibility, Safety, Noise, Atmosphere, Traffic, General","parking (33), cars (12), tidy (12), empty (9), awful (9), quiet (9), convenient (9), dark (9), noisy (6), safe (6), messy (3), damaged (3)",116
Lewisham,Civic Centre Multi-Storey Car Park,Parking,51.40432679999999,0.0199317,3.7,0.7008994082609813,0.0,0.4,0.6,"Accessibility, Cleanliness, Atmosphere, Aesthetics, Traffic, General","parking (24), easy (18), cars (18), clean (12), tidy (12), noisy (12), good (9), bad (9), vehicle (9), great (9), busy (9), excellent (9), safe (6), walking (3), perfect (3)",200
Lewisham,Choumert Grove Car Park,Parking,51.468618,-0.06978869999999998,3.7,0.5721170008182526,0.13333333333333333,0.4666666666666667,0.4,"Accessibility, Safety, Noise, Comfort, Traffic, General","parking (36), noisy (12), convenient (12), safe (12), cars (9), traffic (9), good (9), easy (9), spacious (6), messy (3)",110
Lewisham,Sainsbury Car Park,Parking,51.4174558,-0.0830446,4.2,0.4831456045309703,0.2,0.6,0.2,"Traffic, General","good (9), parking (6)",6
Lewisham,Charlton Village Car Park,Parking,51.4816514,0.03911509999999999,3.8,0.5428322792053223,0.0,0.6,0.4,"Traffic, Aesthetics, Accessibility, Safety","cars (21), parking (18), pretty (9), driving (9), walking (9), connected (9), difficult (9), busy (6), good (3), secure (3), vehicle (3)",16
Lewisham,NCP Seldon,Parking,51.4946278,-0.0148404,3.3,0.6054870843887329,0.0,0.6,0.4,"Accessibility, Safety, Comfort, Cleanliness, Maintenance, Traffic, General","parking (60), cars (39), safe (21), easy (18), tight (18), great (18), walking (12), noisy (12), damaged (9), tidy (9), security (9), maintained (9), vehicle (3), good (3)",75
Lewisham,Peckham Library,Library,51.4743155,-0.0693029,4.3,0.5202036917209625,0.0,0.7333333333333333,0.26666666666666666,"Safety, Noise, Cleanliness, Atmosphere, Maintenance, Aesthetics, General","great (39), wonderful (18), improved (12), good (9), loud (9), safe (9), quiet (9), new (9), clean (9), security (9), beautiful (6), tidy (3), messy (3), peaceful (3), dark (3), dead (3)",173
Lewisham,Eltham Library,Library,51.4509091,0.05792209999999999,4.3,0.5932283341884613,0.0,0.6,0.4,"Accessibility, Safety, Comfort, Maintenance, Aesthetics, General","great (45), safe (12), beautiful (9), gorgeous (9), near (9), lighting (9), spacious (9), cramped (9), bad (9), charming (9), old (9), lovely (6), dark (3), messy (3), relaxing (3)",89
Lewisham,Goldsmiths Library,Library,51.4749099,-0.035616,4.0,0.5921346108118694,0.0,0.4666666666666667,0.5333333333333333,"Noise, Comfort, Cleanliness, Atmosphere, Maintenance, Aesthetics, General","quiet (15), dirty (9), broken (9), lovely (9), unpleasant (9), tidy (9), comfortable (9), great (9), noisy (6), messy (3), safe (3)",23
Lewisham,The Library at Deptford Lounge,Library,51.4776895,-0.0243318,4.5,0.7586800694465637,0.0,0.2,0.8,"Accessibility, Safety, Maintenance, Aesthetics, General","new (18), lovely (12), modern (9), wonderful (9), police (9), amazing (9), easy (9), great (9), safe (6), lighting (3), noisy (3)",41
Lewisham,Caird Library and Archive,Library,51.4804596,-0.005926799999999999,5.0,0.8552591900030772,0.0,0.0,1.0,General,"great (9), dark (3), dead (3)",3
Lewisham,Kingswood Library,Library,51.4304999,-0.0802968,4.2,0.6090623860557874,0.0,0.75,0.25,"Noise, Comfort, Atmosphere, Maintenance, General","great (18), good (18), wonderful (9), amazing (9), quiet (9), relaxing (9), new (9), pleasant (9), old (3)",6
Lewisham,Beckenham Library,Library,51.4085583,-0.0369114,4.3,0.6373753150304159,0.0,0.3333333333333333,0.6666666666666666,"Noise, Aesthetics, Accessibility, General","near (18), shouting (18), loud (12), poor (9), worst (9), lovely (9), excellent (9), good (9), music (9), safe (6), tidy (6), messy (3), noisy (3)",55
Lewisham,Greenwich Centre Library,Library,51.4855832,0.008759600000000001,4.0,0.716652532418569,0.0,0.26666666666666666,0.7333333333333333,"Noise, Comfort, Cleanliness, Atmosphere, General","spacious (9), welcoming (9), good (9), clean (9), great (9), safe (6), quiet (3), lively (3)",285
Lewisham,One Stop Shop,Library,51.4743407,-0.06942449999999999,3.8,0.5097091774145762,0.2,0.6,0.2,"Maintenance, Aesthetics","lovely (9), new (9), good (6), roomy (3)",25
Lewisham,Pepys Community Hub,Library,51.48983989999999,-0.0305575,4.2,0.5702454845110575,0.0,0.8,0.2,"Aesthetics, Atmosphere, Accessibility, General","great (9), calm (9), charming (9), lovely (9), safe (6), lively (3), near (3), noisy (3), tidy (3)",14
Lewisham,Dulwich Library,Library,51.4488677,-0.07447669999999999,4.5,0.6522837003072103,0.0,0.5333333333333333,0.4666666666666667,"Accessibility, Noise, Comfort, Cleanliness, Atmosphere, Maintenance, Aesthetics, Traffic, General","good (27), beautiful (18), lovely (12), safe (12), quiet (9), easy (9), parking (9), awful (9), dirty (9), great (6), peaceful (3), upgraded (3), tidy (3), bad (3), busy (3), noisy (3), comfortable (3)",95
Lewisham,West Greenwich Library,Library,51.4781193,-0.0114744,4.6,0.6574996987978617,0.0,0.4,0.6,"Noise, Comfort, Cleanliness, Atmosphere, Aesthetics, General","peaceful (21), relaxing (14), beautiful (9), cozy (9), comfortable (9), welcoming (9), great (9), excellent (9), fantastic (9), safe (6), clean (3)",42
Lewisham,Trinity Laban,University,51.4831191,-0.0064605,4.6,0.5537026902039845,0.0,0.8,0.2,"Accessibility, Noise, Atmosphere, Aesthetics, General","music (18), beautiful (15), safe (9), easy (9), great (9), near (9), wonderful (9), tidy (3), messy (3), lovely (3)",110
Lewisham,The Charter School North Dulwich,School,51.4563147,-0.0887405,3.3,0.6660583734512329,0.0,0.4666666666666667,0.5333333333333333,"Maintenance, General","tidy (24), good (9), awful (9), amazing (9), terrible (9), messy (6), noisy (3), old (3)",48
Lewisham,Bright Horizons New Eltham Day Nursery and Preschool,School,51.43653879999999,0.06191029999999999,4.6,0.9252695957819621,0.0,0.0,1.0,"Accessibility, Cleanliness, Maintenance, Aesthetics, General","wonderful (27), great (27), clean (18), new (18), fantastic (18), far (9), modern (9), lovely (9), amazing (9), tidy (9), perfect (9), lighting (3), safe (3), noisy (3), poor (3), messy (3), neglected (3), near (2)",18
Lewisham,Bright Horizons Peckham Rye Day Nursery and Preschool,School,51.4610354,-0.05862619999999999,3.9,0.5317960898081462,0.2,0.3333333333333333,0.4666666666666667,"Accessibility, Safety, Comfort, Atmosphere, Maintenance, Traffic, Aesthetics, General","parking (19), great (18), lovely (12), amazing (9), secure (9), old (9), pleasant (9), busy (9), near (9), roomy (3), dark (3), dead (3), safe (3), walking (3)",18
Lewisham,"University of the Arts London, Camberwell College of Arts",University,51.47429889999999,-0.08035899999999999,3.7,0.5368561983108521,0.2,0.4666666666666667,0.3333333333333333,"Maintenance, General","bad (12), great (9), new (9), good (9), tidy (6), safe (3), old (3), lovely (3)",80
Lewisham,Capital College UK,University,51.4598306,0.05919679999999999,5.0,0.0,0.0,0.0,0.0,,,3
Lewisham,Bromley & Sheppards Colleges,University,51.4080384,0.012278,4.8,0.6090352296829223,0.0,0.4,0.6,"Accessibility, Noise, Atmosphere, Traffic, Aesthetics, General","serene (18), fantastic (9), busy (9), music (9), central (9), lovely (9), beautiful (9), safe (6), flow (3), poor (3), good (3), stunning (3)",16
Lewisham,Trinity Laban: Musical Theatre,University,51.4739989,-0.03727010000000001,4.5,0.7110049724578857,0.0,0.0,1.0,General,"excellent (9), tidy (3)",8
Lewisham,Hawthorn Centre,University,51.4119766,-0.0592262,4.6,0.6624353056152662,0.0,0.25,0.75,"Cleanliness, General","great (18), clean (9), lovely (3), messy (3), safe (3)",9
Lewisham,"Goldsmiths, University of London, Estates and Facilities",University,51.4746488,-0.0366834,5.0,0.0,0.0,0.0,0.0,,,1
Lewisham,Trinity Laban Conservatoire Of Music & Dance,University,51.4802029,-0.0202697,5.0,0.6781584620475769,0.0,0.0,1.0,,,4
Lewisham,"King William Court, University of Greenwich",University,51.48225710000001,-0.0054378,4.7,0.6017398436864217,0.06666666666666667,0.4666666666666667,0.4666666666666667,"Aesthetics, General","beautiful (9), great (9), good (9), fantastic (3)",27
Lewisham,Capel Manor College,University,51.41914879999999,-0.0675584,3.2,0.6521454811096191,0.0,0.4,0.6,"Accessibility, Safety, Atmosphere, Maintenance, Aesthetics, General","tidy (30), amazing (18), far (15), good (12), crime (12), noisy (12), messy (9), lovely (9), terrible (9), poor (9), horrible (9), great (9), awful (9), safe (6), roomy (3)",19
Lewisham,"Queen Anne Court, University of Greenwich",University,51.4837064,-0.004730699999999999,4.6,0.6278578221797944,0.0,0.26666666666666666,0.7333333333333333,"Aesthetics, General","great (18), pretty (9), beautiful (3)",50
Lewisham,Queen Elizabeth Hospital,Hospital,51.4778139,0.05055869999999999,2.7,0.8041761716206869,0.0,0.0,1.0,"Maintenance, Traffic, Atmosphere, General","easy (18), awful (18), amazing (15), tidy (12), perfect (9), busy (9), great (9), messy (9), terrible (9), bad (9), safe (6), noisy (3), roomy (3)",1239
Lewisham,Everest Health Partnership - Coldharbour Surgery,Hospital,51.43128280000001,0.05829139999999999,2.1,0.75754354596138,0.0,0.2,0.8,"Maintenance, Aesthetics","noisy (18), tidy (15), safe (12), good (7), jammed (3)",42
Lewisham,Bramley Health,Hospital,51.4095169,-0.0507996,3.7,0.6516009022792181,0.0,0.5,0.5,General,"good (9), awful (6), terrible (3), safe (3)",9
Lewisham,Community Paediatrics Service,Hospital,51.4487906,0.05260320000000001,4.6,0.5385858549012078,0.0,0.6666666666666666,0.3333333333333333,General,"bad (9), awful (9), tidy (6), safe (3)",7
Lewisham,Eltham Palace Surgery - NHS GP,Hospital,51.4493976,0.05406520000000001,2.1,0.5836096127827962,0.0,0.6,0.4,"Accessibility, Comfort, Maintenance, Aesthetics, General","messy (21), new (18), horrible (18), awful (9), bad (9), uncomfortable (9), good (9), tidy (9), lovely (9), near (9), safe (6), lively (3)",133
Lewisham,South View Partnership,Hospital,51.40601500000001,0.026259,2.6,0.6754379590352376,0.0,0.5333333333333333,0.4666666666666667,"Maintenance, Safety, General","good (21), tidy (15), bad (12), messy (9), dangerous (9), terrible (9), safe (3)",21
Lewisham,Cutty Sark,Tourist Attraction,51.4828646,-0.009591699999999998,4.5,0.6641174753506979,0.0,0.2,0.8,"Accessibility, Comfort, Cleanliness, Atmosphere, Maintenance, General","great (27), safe (18), good (18), excellent (18), old (9), pleasant (9), enjoyable (9), walking (3), lovely (3), near (3)",21534
Lewisham,Goldsmiths Centre for Contemporary Art,Art Gallery,51.4748004,-0.0381279,4.7,0.6699372947216033,0.06666666666666667,0.26666666666666666,0.6666666666666666,"Maintenance, Comfort, Aesthetics, General","great (27), safe (15), spacious (9), new (9), beautiful (9), good (9), roomy (6), lovely (1)",98
Lewisham,Taylor Pearce Restoration Services Ltd,Museum,51.4755453,-0.04811339999999999,5.0,0.0,0.0,0.0,0.0,,,3
Lewisham,Crystal Palace Museum,Tourist Attraction,51.4196744,-0.0765912,4.2,0.5533356289068858,0.0,0.7333333333333333,0.26666666666666666,"Traffic, Aesthetics, General","parking (9), walking (9), safe (9), stunning (9), great (9), good (9)",128
Lewisham,House of Dreams Museum,Tourist Attraction,51.45994219999999,-0.0793434,4.1,0.6087774078051249,0.13333333333333333,0.4666666666666667,0.4,Noise,"safe (12), music (9), noisy (6), good (6), tidy (3), dark (3), dead (3)",89
Lewisham,British Vintage Wireless and Television Museum,Museum,51.4334618,-0.09298709999999999,4.8,0.6374550620714824,0.0,0.6,0.4,"Maintenance, Aesthetics, Accessibility, General","old (18), lovely (12), gorgeous (9), good (9), great (9), safe (6), perfect (3), beautiful (3), near (3), lively (3), tidy (3)",19
Lewisham,National Maritime Museum Gardens,Museum,51.48093790000001,-0.005264100000000001,4.6,0.6373606224854788,0.0,0.4,0.6,"Noise, Comfort, Atmosphere, Aesthetics, General","great (18), pleasant (9), safe (9), amazing (9), peaceful (9), stunning (9), perfect (9), good (9), parking (6), lovely (6), tidy (3), relaxing (3)",5308
Lewisham,The Greenwich Gallery,Art Gallery,51.47762400000001,-0.0103133,4.6,0.6313642084598541,0.13333333333333333,0.3333333333333333,0.5333333333333333,"Aesthetics, Atmosphere, General","calm (9), lovely (9), excellent (9), stunning (6), safe (3)",13
Lewisham,University of Greenwich Galleries,Art Gallery,51.4799172,-0.0087987,4.3,0.7264091372489929,0.0,0.2,0.8,General,"wonderful (9), excellent (9), great (9)",19
Lewisham,Rare Interior Art,Art Gallery,51.4098169,-0.0455165,4.6,0.709534470240275,0.0,0.0,1.0,"Maintenance, Aesthetics, General","great (27), beautiful (18), lovely (9), messy (9), good (9), safe (9), tidy (6), cars (3), lively (3), noisy (3), old (3)",21
Lewisham,Gareth Gardner Gallery,Art Gallery,51.4784669,-0.0246217,5.0,0.7713129586643643,0.0,0.2222222222222222,0.7777777777777778,"Aesthetics, General","amazing (9), lovely (9), safe (3)",7
Lewisham,hARTslane,Art Gallery,51.47558779999999,-0.04277,4.7,0.6464946667353312,0.0,0.26666666666666666,0.7333333333333333,"Accessibility, Safety, Noise, Cleanliness, Atmosphere, Maintenance, Traffic, Aesthetics, General","old (27), safe (18), great (18), lighting (18), security (18), tidy (15), noisy (12), dirty (12), dusty (12), difficult (9), easy (9), new (9), traffic (9), amazing (9), excellent (9), quiet (9), lovely (6), near (3), roomy (3), parking (3)",15
Lewisham,Jeannie Avent Gallery,Art Gallery,51.45759770000001,-0.07207780000000001,4.6,0.7767114837964376,0.0,0.0,1.0,"Comfort, Aesthetics, General","beautiful (18), great (18), spacious (9), good (9), welcoming (6), perfect (5), safe (3), noisy (3)",23
Lewisham,Capital Art Gallery,Art Gallery,51.4565339,0.05086069999999999,4.8,0.5620239277680715,0.2,0.4666666666666667,0.3333333333333333,"Maintenance, Comfort","new (18), tight (9), lovely (3), good (3), jammed (3)",39
Lewisham,A & C Gallery,Art Gallery,51.484368,0.0017574,4.5,0.9176897009213766,0.0,0.0,1.0,General,amazing (9),2
Lewisham,Brockwell Park,Park,51.45082000000001,-0.1076672,4.6,0.7963537136713664,0.0,0.0,1.0,"Accessibility, Noise, Comfort, Cleanliness, Atmosphere, Maintenance, Aesthetics, Traffic, General","music (36), beautiful (27), parking (24), walking (18), maintained (15), lovely (12), safe (12), lively (9), spacious (9), tight (9), clean (9), amazing (9), perfect (9), great (9), peaceful (9), good (9), roomy (3), far (3), tidy (3), relaxing (3)",8321
Lewisham,Southwark Park,Park,51.4933782,-0.05376229999999999,4.6,0.7655969619750976,0.0,0.2,0.8,"Accessibility, Comfort, Maintenance, Aesthetics, Traffic, General","walking (27), beautiful (24), lovely (21), parking (12), spacious (9), fantastic (9), good (9), convenient (9), old (9), great (9), tidy (3), near (3)",4749
Lewisham,Greenwich Peninsula Ecology Park - TCV,Park,51.495659,0.0160092,4.6,0.620504762729009,0.0,0.6,0.4,"Accessibility, Safety, Noise, Atmosphere, Aesthetics, General","great (18), parking (9), dark (9), central (9), lovely (9), quiet (9), fantastic (9), far (9), peaceful (9), safe (6), tidy (3), busy (3), walking (3)",636
Lewisham,Stockwell Skate Park,Park,51.4660545,-0.1163401,4.5,0.7008598029613495,0.06666666666666667,0.3333333333333333,0.6,"Accessibility, Safety, Atmosphere, Maintenance, Traffic, General","good (30), safe (24), busy (18), new (9), near (9), lighting (9), perfect (9), parking (6), lovely (3), tidy (3), bikes (3)",308
Lewisham,Bermondsey Spa Gardens,Park,51.49485439999999,-0.07447419999999998,4.4,0.7173243165016174,0.0,0.06666666666666667,0.9333333333333333,"Accessibility, Cleanliness, Atmosphere, Traffic, Aesthetics, General","lovely (24), parking (12), beautiful (12), busy (9), neat (9), stunning (9), amazing (9), perfect (9), near (6), clean (6), noisy (3), flow (3), safe (3), tidy (3)",807
Lewisham,St John's Churchyard,Park,51.5037403,-0.0618725,4.4,0.5489104727904002,0.0,0.8,0.2,"Noise, Cleanliness, Atmosphere, Maintenance, Aesthetics, Traffic","maintained (9), lovely (9), old (9), beautiful (9), peaceful (9), walking (7), safe (3), parking (3), pretty (3), lighting (1), appealing (1)",39
Lewisham,IFS Cloud Greenwich Peninsula,Transit Station,51.499714,0.008367,4.6,0.5177449464797974,0.0,0.8,0.2,"Accessibility, Cleanliness, Maintenance, Traffic, General","safe (33), good (24), cars (21), terrible (18), great (15), tidy (12), walking (9), outdated (9), maintained (9), flow (9), noisy (3), near (3), poor (3), dark (3), dead (3)",6100
Lewisham,High Street Car Park,Transit Station,51.3760175,-0.0196901,3.0,0.30749935905138653,1.0,0.0,0.0,,"safe (3), cars (3), parking (3)",1
Lewisham,New Place Square,Transit Station,51.497614,-0.0613544,3.3,0.0,0.0,0.0,0.0,,,3
Lewisham,Cutty Sark Station,Transit Station,51.4816371,-0.0109841,1.6,0.6526581346988678,0.2,0.4,0.4,"Maintenance, Traffic, Atmosphere, General","broken (18), messy (15), good (12), noisy (9), busy (9), worst (9), safe (6), tidy (6), walking (6), lovely (3), lively (3), old (3)",20
Lewisham,Surrey Quays Leisure Park (Stop G),Bus Station,51.49561670000001,-0.045727,3.0,0.45914193987846375,0.16666666666666666,0.8333333333333334,0.0,General,"poor (6), noisy (3)",2
Lewisham,Surrey Quays Leisure Park (Stop F),Bus Station,51.4957623,-0.04606099999999999,3.0,0.42103925347328186,0.0,1.0,0.0,"Noise, Traffic","cars (9), traffic (9)",1
Lewisham,West Norwood Fire Station,Bus Station,51.4258663,-0.1054869,5.0,0.4899673064549764,0.1111111111111111,0.8888888888888888,0.0,General,"good (9), risky (1)",3
Lewisham,North Greenwich,Subway Station,51.5002452,0.003584199999999999,4.4,0.6421924630800883,0.0,0.4,0.6,"Maintenance, Comfort, Atmosphere, General","perfect (18), good (18), great (18), modern (9), crowded (9), busy (6), pretty (6), spacious (6), cars (3), safe (3), tidy (3)",466
Lewisham,Canada Water,Transit Station,51.49798999999999,-0.049693,4.2,0.6600436329841614,0.0,0.4,0.6,"Accessibility, Safety, Comfort, Cleanliness, Atmosphere, Traffic, General","clean (27), safe (27), busy (18), great (18), security (18), bad (9), dark (9), good (9), comfortable (9), tidy (9), active (6), roomy (3), lovely (3), near (3)",301
Lewisham,Bermondsey,Subway Station,51.49786359999999,-0.06373189999999998,3.9,0.5659170846144358,0.2,0.6,0.2,"Accessibility, Atmosphere, Maintenance, Aesthetics, General","worst (18), crowded (9), safe (9), accessible (9), broken (9), good (6), noisy (3), lively (3), busy (3), walking (3)",102
Lewisham,Brixton,Subway Station,51.4625983,-0.1147482,4.3,0.5729864776134491,0.2,0.4,0.4,"Safety, Noise, Comfort, Cleanliness, Atmosphere, Maintenance, Traffic, General","great (27), safe (18), good (12), busy (9), amazing (9), wonderful (9), music (9), improved (9), pleasant (9), tidy (3), walking (3)",367
Lewisham,Canary Wharf,Subway Station,51.50364990000001,-0.019624,4.6,0.711131336291631,0.0,0.13333333333333333,0.8666666666666667,"Accessibility, Noise, Comfort, Cleanliness, Atmosphere, Maintenance, Aesthetics, Traffic, General","modern (36), great (27), clean (21), amazing (18), bustling (18), safe (12), busy (12), parking (9), lovely (9), excellent (9), spacious (9), hectic (9), far (9), vibrant (9), appealing (9), beautiful (9), serene (9), perfect (9), relaxing (9), peaceful (9), convenient (9), easy (9), central (9), near (3), lively (3), lighting (3)",761
Lewisham,Churchill Place Shopping Mall,Shopping Mall,51.5045554,-0.0148963,4.3,0.5992105007171631,0.0,0.4666666666666667,0.5333333333333333,"Maintenance, General","great (27), excellent (9), safe (6), amazing (6)",555
Lewisham,Chrisp Street Market,Shopping Mall,51.5125477,-0.0145827,3.8,0.6136792520682017,0.06666666666666667,0.5333333333333333,0.4,"Comfort, Atmosphere, Maintenance, Traffic, General","good (54), vibrant (24), busy (18), excellent (18), safe (15), modern (9), new (9), renovated (9), welcoming (9), charming (3)",3185
Lewisham,Stone Lake Retail Park,Shopping Mall,51.48911950000001,0.0346132,4.0,0.5001073638598125,0.26666666666666666,0.5333333333333333,0.2,"Accessibility, Safety, Comfort, Cleanliness, Maintenance, Traffic, General","parking (48), convenient (9), enjoyable (9), maintained (9), accessible (9), easy (9), clean (9), pleasant (9), excellent (9), security (9), new (9), great (9), updated (7), good (6), safe (3), noisy (3), cars (3), bad (3), busy (3)",1882
Lewisham,London Museum Docklands,Museum,51.5075598,-0.0238525,4.6,0.7472737948099772,0.0,0.0,1.0,"Traffic, Atmosphere, General","fantastic (9), great (9), walking (9), safe (6), tidy (6)",7264
Lewisham,Excel London,Tourist Attraction,51.50846010000001,0.02984599999999999,4.4,0.733114093542099,0.0,0.06666666666666667,0.9333333333333333,"Atmosphere, Traffic, Accessibility, General","good (48), great (27), safe (18), parking (18), cars (18), amazing (15), wonderful (9), walking (9), tidy (9), excellent (9), busy (9), easy (9), lovely (3)",44829
Lewisham,City Hall,City Hall,51.5073119,0.0162552,4.4,0.5748569269975027,0.13333333333333333,0.4,0.4666666666666667,"Accessibility, Safety, Comfort, Cleanliness, Maintenance, Traffic, Aesthetics, General","security (36), great (27), loud (24), safe (21), new (18), tidy (18), walking (15), good (15), spacious (9), difficult (9), unpleasant (9), old (9), filthy (9), trash (9), dark (9), bad (9), far (9), easy (9), clean (6), noisy (6), messy (6), broken (6), roomy (3), lighting (3)",692
Lewisham,Ice Rink Canary Wharf,Tourist Attraction,51.504769,-0.017638,4.0,0.6486745417118073,0.0,0.4,0.6,"Accessibility, Safety, Comfort, Cleanliness, Atmosphere, Maintenance, Aesthetics, Traffic, General","far (18), safe (15), crowded (12), great (9), amazing (9), lovely (9), bad (9), maintained (9), busy (9), tidy (6), dark (6), dead (6), noisy (3), risky (3), good (3), dangerous (3), tight (3)",1446
Lewisham,Oxleas Wood,Natural Feature,51.46375159999999,0.0776318,4.8,0.5935471375783284,0.0,0.6,0.4,"Cleanliness, Maintenance, Aesthetics, Traffic, General","beautiful (36), maintained (18), walking (12), gorgeous (9), muddy (9), great (9), old (9), good (9), cars (3), parking (3), safe (3)",34
Lewisham,Chislehurst Common,Natural Feature,51.4138769,0.07164029999999999,4.1,0.6414606014887492,0.13333333333333333,0.26666666666666666,0.6,"Comfort, Aesthetics, Accessibility, General","lovely (12), great (9), enjoyable (9), beautiful (9), walking (6), relaxing (3), stunning (1), parking (1)",17
Lewisham,Earl's Sluice,Natural Feature,51.49450419999999,-0.03255049999999999,5.0,0.0,0.0,0.0,0.0,,,1
Lewisham,Rookery Lake,Natural Feature,51.3844607,0.0323918,3.8,0.6043689399957657,0.0,0.5,0.5,"Accessibility, General","good (9), easy (9), great (9)",4
Lewisham,Mulgrave Pond,Natural Feature,51.4885518,0.0588138,4.3,0.5199751158555349,0.5,0.0,0.5,Aesthetics,"stunning (9), tidy (3)",6
Lewisham,West Norwood Cemetery and Crematorium,Cemetery,51.4328499,-0.09894420000000001,4.3,0.6082606196403504,0.0,0.6,0.4,"Accessibility, Safety, Comfort, Cleanliness, Atmosphere, Maintenance, Aesthetics, Traffic, General","beautiful (27), safe (9), easy (9), serene (9), pleasant (9), maintained (9), great (9), walking (9), driving (9), new (9), good (6), lovely (6), charming (3), vehicle (3)",96
Lewisham,St Lukes Cemetery,Cemetery,51.3866015,0.04778839999999999,2.5,0.5796716670195262,0.0,0.6666666666666666,0.3333333333333333,"Noise, Cleanliness, Atmosphere, Maintenance, General","maintained (15), clean (15), quiet (9), tidy (9), parking (3), good (3), poor (1)",6
Lewisham,Chislehurst Cemetery,Cemetery,51.41984180000001,0.0891476,4.8,0.7861963709195455,0.0,0.0,1.0,"Noise, Atmosphere, General","peaceful (9), wonderful (3)",4
Lewisham,GreenAcres Kemnal Park,Cemetery,51.4277916,0.0832749,4.4,0.745930302143097,0.0,0.2,0.8,"Accessibility, Noise, Comfort, Cleanliness, Atmosphere, Maintenance, Aesthetics, General","good (30), lovely (18), safe (15), clean (15), modern (9), accessible (9), beautiful (9), perfect (9), welcoming (9), peaceful (9), noisy (3), messy (3)",65
Lewisham,"Church of the Annunciation, Chislehurst",Church,51.4191167,0.0672083,4.8,0.5353751281897227,0.2,0.4666666666666667,0.3333333333333333,"Cleanliness, Atmosphere, Maintenance, Aesthetics, General","active (9), maintained (9), lovely (9), amazing (6)",16
Lewisham,Denmark Place Baptist Church,Church,51.47034789999999,-0.09426139999999998,4.9,0.6169553399085999,0.0,0.5833333333333334,0.4166666666666667,"Comfort, General","welcoming (9), good (9)",11
Lewisham,Railton Road Methodist Church,Church,51.4572869,-0.1066138,4.8,0.46616209944089254,0.3333333333333333,0.3333333333333333,0.3333333333333333,"Aesthetics, Traffic, General","great (9), driving (3), tidy (3), lovely (3)",8
Lewisham,Rotherhithe Evangelical Church,Church,51.4975895,-0.05493779999999999,4.8,0.5870542029539744,0.0,0.5,0.5,"Comfort, Aesthetics","welcoming (9), lovely (9)",4
Lewisham,"St Mary Magdalene Church, Woolwich",Church,51.4929574,0.05917330000000001,4.4,0.5435220956802368,0.0,0.8,0.2,"Aesthetics, General","good (18), lovely (12)",31
Lewisham,Universal Pentecostal Church (TPM) - Brixton,Church,51.4610304,-0.1174764,4.9,0.7328812142213186,0.06666666666666667,0.13333333333333333,0.8,"Maintenance, Aesthetics, General","old (9), new (9), amazing (9), lovely (6), safe (3)",79
Lewisham,Walworth Methodist Church,Church,51.4829781,-0.0950051,4.4,0.5993614534536997,0.0,0.4,0.6,"Maintenance, Noise, General","good (21), old (21), music (9), safe (9), wonderful (9), tidy (6), noisy (6)",81
Lewisham,"St Richard's Church Centre, Charlton",Church,51.4851374,0.02906110000000001,5.0,0.63353341155582,0.0,0.4444444444444444,0.5555555555555556,General,"great (18), excellent (9), safe (3), wonderful (3)",6
Lewisham,The West India Quay Car Park - Saba Parking,Parking,51.5081532,-0.0238172,3.6,0.6675197839736938,0.0,0.3333333333333333,0.6666666666666666,"Accessibility, Safety, Comfort, Cleanliness, Maintenance, Traffic, General","parking (36), convenient (15), cars (15), good (12), easy (9), central (9), secure (9), spacious (9), great (9), clean (9), tidy (6), near (3), walking (3), messy (3)",150
Lewisham,Car Park - Isle Of Dogs - South Quay,Parking,51.4999785,-0.0107303,3.5,0.671047713359197,0.0,0.4,0.6,"Accessibility, Safety, Maintenance, Traffic, Aesthetics, General","parking (27), broken (18), noisy (15), cars (15), tidy (9), convenient (9), lovely (9), security (9), awful (6), walking (3), pretty (3), safe (3), roomy (3)",46
Lewisham,Monk Street Car Park,Parking,51.4915191,0.06250329999999998,3.3,0.6036485572655995,0.06666666666666667,0.3333333333333333,0.6,"Accessibility, Noise, Comfort, Atmosphere, Maintenance, Traffic","cars (15), parking (15), noisy (12), busy (9), convenient (9), loud (9), music (9), tight (9), safe (3), messy (3)",36
Lewisham,Travelodge Carpark,Parking,51.4924641,0.06267240000000002,3.3,0.5583192944526673,0.4,0.06666666666666667,0.5333333333333333,"Atmosphere, Traffic, General","parking (20), good (9), busy (9), ugly (8), cars (6), safe (6), tidy (3), neat (3), near (3), new (3), lighting (3)",18
Lewisham,Old Farm Ave Car Park,Parking,51.4356746,0.100579,3.7,0.6652121225992839,0.0,0.3333333333333333,0.6666666666666666,"Maintenance, Traffic, Safety","parking (24), police (9), broken (6), noisy (3), safe (3), cars (3)",18
Lewisham,Canada Water Library,Library,51.49783189999999,-0.0491632,4.1,0.6986327687899272,0.2,0.0,0.8,"Accessibility, Noise, Comfort, Atmosphere, Maintenance, Aesthetics, Traffic, General","quiet (18), welcoming (18), good (12), lively (9), new (9), safe (9), fantastic (9), enjoyable (9), wonderful (9), noisy (9), messy (9), pleasant (9), modern (9), calm (9), peaceful (9), connected (9), accessible (9), great (9), beautiful (6), near (3), loud (3)",315
Lewisham,West Norwood Library,Movie Theater,51.4331689,-0.1029505,4.4,0.6036039749781291,0.2,0.26666666666666666,0.5333333333333333,"Noise, Comfort, Maintenance, General","great (36), worst (18), shouting (18), good (12), safe (9), wonderful (9), loud (9), awful (9), new (9), comfortable (9), ugly (3), messy (3), tidy (3), bikes (3)",240
Lewisham,Brandon Library,Library,51.4824546,-0.1029724,4.2,0.5768817305564881,0.0,0.6,0.4,"Noise, Comfort, Cleanliness, Atmosphere, General","great (27), quiet (18), welcoming (9), clean (9), hectic (9), ugly (8), peaceful (6), tidy (3), safe (3)",18
