Borough,Location Name,Type,latitude,longitude,Rating,Overall Sentiment Score,Negative Score,Neutral Score,Positive Score,Main Issues,Emotion Keywords,Review Count
Merton,National Trust - Morden Hall Park,Park,51.4027293,-0.1859361,4.6,0.6870510697364807,0.0,0.4,0.6,"Accessibility, Noise, Atmosphere, Traffic, Aesthetics, General","good (48), lovely (39), parking (33), perfect (25), peaceful (21), beautiful (18), great (18), amazing (18), walking (15), charming (15), tidy (9), far (9), wonderful (9), fantastic (9), excellent (9), quiet (9), relaxing (6), flow (6), cars (3), safe (3)",5847
Merton,Abbey Recreation Ground,Park,51.41209920000001,-0.1935892,4.3,0.6422636946042378,0.0,0.4,0.6,"Accessibility, Cleanliness, Maintenance, Traffic, General","good (24), parking (18), walking (16), safe (9), maintained (9), great (9), easy (9), relaxing (3), noisy (3)",223
Merton,Mostyn Gardens,Park,51.4033321,-0.2032283,4.4,0.6326518774032592,0.0,0.4,0.6,"Noise, Cleanliness, Atmosphere, Maintenance, Aesthetics, Traffic, General","parking (15), walking (12), beautiful (9), clean (9), peaceful (9), maintained (9), great (9), lovely (9), good (9), safe (3), bikes (3)",375
Merton,Joseph Hood Recreation Ground,Park,51.4038962,-0.2175636,4.4,0.7764176209767659,0.0,0.0,1.0,"Accessibility, Cleanliness, Maintenance, Aesthetics, General","great (36), new (27), parking (15), lovely (12), perfect (9), beautiful (9), improved (9), far (9), near (9), stunning (9), clean (9), cars (6), walking (3), dark (3), dead (3), old (2)",351
Merton,Dundonald Recreation Ground,Park,51.4152002,-0.2104137,4.6,0.6704988956451416,0.0,0.06666666666666667,0.9333333333333333,"Noise, Cleanliness, Atmosphere, Maintenance, Traffic, Aesthetics, General","lovely (24), quiet (18), great (15), parking (15), good (9), perfect (9), walking (9), old (9), beautiful (9), maintained (9)",513
Merton,Gogo Deco LTD,Painter,51.4017402,-0.1917067,4.0,0.7895244028833177,0.0,0.3333333333333333,0.6666666666666666,Cleanliness,"tidy (18), clean (15), noisy (3)",4
Merton,Morden Leisure Centre,Gym,51.394884,-0.2049515,4.2,0.6083936870098114,0.2,0.4,0.4,"Accessibility, Safety, Comfort, Cleanliness, Atmosphere, Maintenance, Traffic, General","parking (57), clean (33), new (27), safe (21), tidy (18), cars (18), good (18), far (18), roomy (15), noisy (15), bad (15), old (9), modern (9), spacious (9), fantastic (9), crowded (9), difficult (9), police (9), lovely (3), walking (3), messy (3), poor (3)",1067
Merton,The Stable Yard (National Trust),Park,51.4024377,-0.1886082,4.6,0.6652067383130391,0.0,0.06666666666666667,0.9333333333333333,"Noise, Comfort, Cleanliness, Atmosphere, Aesthetics, Traffic, General","lovely (45), walking (27), great (12), busy (12), muddy (9), peaceful (9), beautiful (9), good (9), clean (9), comfortable (9), safe (6), quiet (6), parking (3), lively (3)",488
Merton,Cottenham Park,Park,51.414115,-0.2362757,4.5,0.7034189522266387,0.0,0.2,0.8,"Traffic, Aesthetics, General","great (18), parking (11), lovely (9), walking (9), good (9), pretty (9), beautiful (3), flow (3)",243
Merton,South Park Gardens,Park,51.4222798,-0.1982665,4.6,0.7146100441614787,0.0,0.2,0.8,"Noise, Cleanliness, Atmosphere, Maintenance, Aesthetics, Traffic, General","parking (20), lovely (15), great (9), beautiful (9), quiet (9), maintained (9), good (9), noisy (3), peaceful (3), excellent (3), flow (3), bikes (3), walking (3), safe (3)",1053
Merton,Cannon Hill Common,Tourist Attraction,51.4012313,-0.2188124,4.6,0.6053994258244833,0.2,0.2,0.6,"Accessibility, Noise, Comfort, Atmosphere, General","great (18), near (9), pleasant (9), parking (7), quiet (6), walking (6), safe (6), good (3), cars (3), busy (3), tidy (3)",560
Merton,Dundonald Playground,Park,51.4159197,-0.2085816,4.4,0.6170975585778554,0.0,0.4,0.6,"Accessibility, Safety, Noise, Cleanliness, Atmosphere, Aesthetics, Traffic, General","good (18), lovely (18), safe (12), great (9), convenient (9), clean (9), busy (9), quiet (9), parking (6)",279
Merton,John Innes Recreation Ground,Park,51.4082865,-0.2100169,4.4,0.6081530193487803,0.2,0.26666666666666666,0.5333333333333333,"Aesthetics, Accessibility, General","great (24), parking (18), beautiful (18), accessible (9), perfect (9), good (6), lovely (3)",27
Merton,John Innes Park,Park,51.4092883,-0.2069545,4.8,0.6513566255569458,0.0,0.6,0.4,"Aesthetics, Noise, Atmosphere, General","quiet (9), wonderful (9), beautiful (9), great (9), peaceful (9), walking (6), relaxing (5), parking (3)",13
Merton,Church Lane Playing Fields,Park,51.4111296,-0.202551,3.8,0.5872588932514191,0.13333333333333333,0.6666666666666666,0.2,"Accessibility, Noise, Atmosphere, Maintenance, Traffic, Aesthetics, General","noisy (12), peaceful (9), safe (9), busy (9), lovely (9), perfect (7), calm (6), parking (6), tidy (3), near (3), messy (3)",34
Merton,Wimbledon Guild Community Garden,Park,51.416505,-0.2064493,5.0,0.5483870456616083,0.5,0.0,0.5,General,"excellent (9), good (9)",3
Merton,Bushey Road Nature Reserve,Park,51.40714740000001,-0.2230337,3.0,0.4543181425995297,0.5555555555555556,0.2222222222222222,0.2222222222222222,"Accessibility, Noise, Atmosphere, Maintenance, Traffic","noisy (12), easy (9), busy (9), new (9), cars (3), parking (3), near (3), flow (3)",3
Merton,Morden Road,Transit Station,51.4088386,-0.1929738,3.9,0.5663293977578481,0.2,0.2,0.6,"Accessibility, General","convenient (9), good (9), safe (9), walking (6), poor (6), busy (3)",21
Merton,Hallmark Kew House Luxury Care Home,Health,51.4183143,-0.2112618,4.7,0.7458268682161967,0.0,0.0,1.0,"Accessibility, Safety, Noise, Comfort, Atmosphere, Maintenance, Aesthetics, General","safe (27), difficult (18), excellent (18), beautiful (18), fantastic (12), wonderful (9), welcoming (9), secure (9), lovely (9), stunning (9), far (9), pleasant (9), good (9), peaceful (9), amazing (3), lively (3), messy (3), old (3), roomy (3), tidy (3)",40
Merton,Lloyds Bank,Bank,51.4212303,-0.204507,3.6,0.6660262962182363,0.2,0.06666666666666667,0.7333333333333333,"Maintenance, General","awful (15), good (9), tidy (3), messy (3)",64
Merton,NHS South West London,Health,51.41937699999999,-0.2001604,3.3,0.5613407095273336,0.0,1.0,0.0,,,4
Merton,Merton Boiler Repair & Heating Services,General Contractor,51.4151779,-0.1903751,5.0,0.5604382356007894,0.0,0.6666666666666666,0.3333333333333333,General,amazing (3),2
Merton,TWM Solicitors,Accounting,51.42073180000001,-0.2042219,4.7,0.7625085890293122,0.2,0.0,0.8,"Atmosphere, Accessibility, Safety","easy (9), far (6), messy (5), noisy (3)",25
Merton,Saint George's Road Car Park,Transit Station,51.4203725,-0.2083013,1.5,0.7521220286687215,0.0,0.2,0.8,"Accessibility, Safety, Cleanliness, Maintenance, Traffic","parking (54), dirty (18), rubbish (18), cars (12), convenient (9), damaged (9), dark (9), good (3), vehicle (3), walking (3), clean (3)",13
Merton,Queens Road Car Park,Transit Station,51.4219086,-0.2033521,2.0,0.6968544324239095,0.0,0.5,0.5,,"noisy (6), busy (3)",5
Merton,Dundonald Road,Transit Station,51.4176329,-0.2075832,4.1,0.4997081637382507,0.2,0.6,0.2,"Maintenance, Traffic, Accessibility, General","walking (12), good (9), new (9), parking (6), near (3), easy (3), safe (3), noisy (3)",16
Merton,Hall School Wimbledon (Senior School),Bus Station,51.4149757,-0.2213072,3.4,0.6240232288837433,0.1111111111111111,0.2222222222222222,0.6666666666666666,General,"great (9), safe (3), lovely (1)",11
Merton,Wimbledon Station,Transit Station,51.4215968,-0.2058238,4.0,0.5334219336509705,0.0,1.0,0.0,,,1
Merton,Wimbledon,Transit Station,51.4213642,-0.2066348,3.9,0.580565998951594,0.0,0.6,0.4,"Accessibility, Cleanliness, Atmosphere, Maintenance, Traffic, General","busy (21), fantastic (9), maintained (9), easy (9), repaired (3), noisy (3)",470
Merton,Morden,Subway Station,51.4022497,-0.1947067,3.9,0.5916315972805023,0.0,0.4666666666666667,0.5333333333333333,"Accessibility, Comfort, Cleanliness, Maintenance, General","old (18), good (18), tidy (12), wonderful (9), clean (9), rubbish (9), improved (9), disappointing (9), great (9), comfortable (9), safe (6), convenient (3)",175
Merton,Raynes Park,Transit Station,51.40882449999999,-0.2301812999999999,3.8,0.5624760170777638,0.2,0.6,0.2,"Accessibility, Safety, Comfort, Maintenance, General","accessible (18), safe (15), noisy (9), dangerous (9), worst (9), pleasant (9), great (9), new (9), tidy (6), near (3)",72
Merton,South Wimbledon,Subway Station,51.41533549999999,-0.1921526,4.1,0.5123835384845734,0.2,0.5333333333333333,0.26666666666666666,"Accessibility, Cleanliness, Atmosphere, Maintenance, Traffic","updated (18), safe (15), busy (12), clean (9), easy (9), central (9), connected (7), noisy (3), tidy (3)",80
Merton,Wimbledon Chase Station,Transit Station,51.40942030000001,-0.2138017,4.5,0.0,0.0,0.0,0.0,,,2
Merton,St James Church,Transit Station,51.4036085,-0.2132035,5.0,0.0,0.0,0.0,0.0,,,1
Merton,Wimbledon Chase Station (Stop MH),Bus Station,51.40924810000001,-0.2136828,3.0,0.5052086015542349,0.3333333333333333,0.3333333333333333,0.3333333333333333,General,"great (9), noisy (3), safe (3), busy (3)",3
Merton,Wimbledon Fire Station (Stop SP),Bus Station,51.415428,-0.198102,4.0,0.3953155279159546,1.0,0.0,0.0,Accessibility,near (9),1
Merton,Wimbledon Bus Station (Stop G),Bus Station,51.4188,-0.203306,3.0,0.42728476723035175,0.0,1.0,0.0,,,3
Merton,Wimbledon Bus Station (Stop F),Bus Station,51.418827,-0.203362,3.0,0.39670268694559735,0.6666666666666666,0.3333333333333333,0.0,General,"great (9), busy (6), tidy (3), safe (3), good (3)",2
Merton,Wimbledon Bus Station (Stop E),Bus Station,51.418873,-0.203418,3.5,0.42648304998874664,0.5,0.5,0.0,General,"good (12), bad (3), busy (1)",2
Merton,Wimbledon Bus Station (Stop H),Bus Station,51.418869,-0.20313,5.0,0.512922465801239,0.0,1.0,0.0,General,"good (9), busy (1)",1
Merton,Francis Grove (Stop N),Bus Station,51.4212456,-0.2095248,3.0,0.5595301985740662,0.0,1.0,0.0,,"tidy (3), busy (3)",2
Merton,Francis Grove (Stop M),Bus Station,51.4212558,-0.2092539,2.7,0.5673592223061455,0.0,0.6666666666666666,0.3333333333333333,"Traffic, Atmosphere, General","busy (15), awful (9)",3
Merton,Wimbledon Hill Road (Stop S),Bus Station,51.422417,-0.208773,5.0,0.8669129014015198,0.0,0.0,1.0,General,excellent (9),1
Merton,South Wimbledon Station (Stop SF),Bus Station,51.41556130000001,-0.1914145,4.5,0.0,0.0,0.0,0.0,,,2
Merton,Merton Road (Stop ST),Bus Station,51.41702300000001,-0.192589,4.0,0.0,0.0,0.0,0.0,,,1
Merton,Wimbledon Quarter,Shopping Mall,51.4214084,-0.2049002,4.0,0.537051659822464,0.2,0.6,0.2,"Accessibility, Safety, Noise, Comfort, Atmosphere, Maintenance, General","good (18), safe (12), spacious (9), dark (9), quiet (9), easy (9), walking (6), lovely (3), ugly (3)",5338
Merton,Love Wimbledon,Tourist Attraction,51.4202574,-0.2090389,4.6,0.8016360640525818,0.0,0.0,1.0,"Safety, Cleanliness, Accessibility, General","great (33), safe (12), tidy (12), amazing (9), wonderful (9), clean (9), near (6), lovely (3)",16
Merton,Wimbledon Museum,Museum,51.4233354,-0.2166459,4.5,0.6865010559558868,0.0,0.4,0.6,"Atmosphere, General","amazing (18), wonderful (9), pretty (3), neat (3), near (3), new (3), tidy (3)",68
Merton,The Baitul Futuh Mosque,Mosque,51.39624679999999,-0.198971,4.8,0.8606009602546691,0.0,0.0,1.0,"Comfort, Cleanliness, Atmosphere, Maintenance, Aesthetics, Traffic, General","beautiful (30), welcoming (27), serene (18), calm (15), peaceful (12), perfect (9), safe (9), maintained (9), busy (9), inviting (9), clean (9), great (9), spotless (3), cars (3), cozy (3)",2423
Merton,Raynes Park Mural,Tourist Attraction,51.4100056,-0.2275219,4.7,0.4920509954293569,0.0,1.0,0.0,"Maintenance, Traffic","new (9), pedestrian (9), parking (3)",3
Merton,Merton Heritage & Local Studies Centre,Library,51.401462,-0.1963648,3.5,0.8653121590614319,0.0,0.0,1.0,Aesthetics,pretty (9),4
Merton,Morden hall park,Tourist Attraction,51.4027293,-0.1859361,5.0,0.4773752689361572,0.0,1.0,0.0,General,"good (9), parking (3)",2
Merton,Cherry Wood,Natural Feature,51.39779619999999,-0.214202,5.0,0.0,0.0,0.0,0.0,,,1
Merton,The Pickle,Natural Feature,51.4134116,-0.1804673,4.5,0.35480937361717224,0.6666666666666666,0.3333333333333333,0.0,,good (3),2
Merton,Rushmere Pond,Natural Feature,51.4250024,-0.2243213,4.7,0.655539890130361,0.0,0.26666666666666666,0.7333333333333333,"Accessibility, Safety, Comfort, Atmosphere, Maintenance, Traffic, Aesthetics, General","great (42), amazing (18), safe (18), near (15), parking (12), walking (12), lovely (9), serene (9), inviting (9), vibrant (9), charming (9), relaxing (3), tidy (3)",16
Merton,Lantern Methodist Church Raynes Park,Church,51.41070610000001,-0.2288537,4.6,0.6074501300851504,0.0,0.25,0.75,"Comfort, Aesthetics, General","good (18), great (9), beautiful (9), welcoming (6), safe (3)",11
Merton,Shofar Christian Church London,Church,51.40802410000001,-0.2167689,5.0,0.49276920159657794,0.0,1.0,0.0,"Aesthetics, Noise, Atmosphere","lovely (12), peaceful (9)",5
Merton,The Salvation Army Morden,Church,51.4015393,-0.1984155,4.6,0.7978926632139418,0.0,0.0,1.0,,,5
Merton,Raynes Park Community Church,Church,51.4103459,-0.2208653,5.0,0.0,0.0,0.0,0.0,,,2
Merton,Wimbledon Congregational Church,Church,51.4167467,-0.2080333,3.8,0.5042742788791656,0.0,1.0,0.0,"Accessibility, Safety, Noise, Atmosphere, Maintenance, Aesthetics, General","safe (12), damaged (12), lovely (9), difficult (9), protected (9), noisy (9), disappointing (9), tidy (3), quiet (3), active (3), great (3)",4
Merton,"St Andrew's Church, Wimbledon",Church,51.416804,-0.2043081,4.7,0.7049198726812999,0.0,0.4,0.6,"Noise, Comfort, Aesthetics, Traffic, General","excellent (18), music (18), great (18), good (18), lovely (12), amazing (9), parking (9), fantastic (9), pretty (9), wonderful (9), welcoming (9), safe (6), messy (3), lighting (1)",36
Merton,"Sacred Heart Church, Wimbledon",Church,51.4175465,-0.2195849,4.8,0.8082653244336446,0.0,0.0,1.0,"Accessibility, Noise, Atmosphere, Maintenance, Traffic, Aesthetics, General","lovely (63), good (48), parking (36), beautiful (18), tidy (12), amazing (9), excellent (9), near (9), new (9), quiet (9), modern (9), fantastic (9), lively (6), perfect (3), noisy (3), cozy (3)",232
Merton,"St John the Baptist, Wimbledon",Church,51.420327,-0.216527,4.3,0.6479167620340983,0.0,0.5333333333333333,0.4666666666666667,"Noise, Comfort, Atmosphere, Aesthetics, General","music (21), beautiful (18), good (18), amazing (9), wonderful (9), spacious (9), excellent (9), peaceful (9), attractive (6), safe (3)",26
Merton,Morden Spiritualist Church,Church,51.4060954,-0.1921109,4.6,0.5970381716887156,0.2,0.4,0.4,"Comfort, Aesthetics, General","lovely (48), wonderful (18), welcoming (15), amazing (9), good (9), comfortable (9), crowded (3), tidy (3)",22
Merton,Lantern Methodist Church Wimbledon,Church,51.4187824,-0.1938739,3.8,0.922447939713796,0.0,0.0,1.0,,dusty (3),6
Merton,The Father's House Church,Church,51.4083984,-0.1875372,4.9,0.5072534441947937,0.2,0.7333333333333333,0.06666666666666667,General,"good (9), easy (6), old (4), dead (2)",16
Merton,런던순복음교회 선교교육관,Church,51.4078564,-0.2349944,4.0,0.4969632923603058,0.0,1.0,0.0,General,good (9),3
Merton,Dundonald Church,Church,51.4104898,-0.2218594,4.8,0.6898958086967468,0.13333333333333333,0.13333333333333333,0.7333333333333333,"Accessibility, Safety, Noise, Traffic, General","parking (36), near (9), difficult (9), cyclists (9), safe (9), traffic (9), flow (9), messy (3), vehicle (3), great (3), improved (3), good (3)",65
Merton,St John Fisher Catholic Church,Church,51.4018619,-0.2163501,4.5,0.6787481188774109,0.0,0.3333333333333333,0.6666666666666666,"Noise, Maintenance, General","great (15), excellent (9), music (9), modern (9), safe (6), lovely (4)",55
Merton,"Holy Trinity, South Wimbledon",Church,51.4196077,-0.1954037,4.3,0.5524623572826386,0.0,0.8,0.2,"Maintenance, Cleanliness, Aesthetics, General","lovely (12), perfect (9), safe (9), clean (9), good (9), modern (9), noisy (3), cars (3), parking (3), tidy (3), ugly (3)",15
Merton,Everyday Church Wimbledon,Church,51.4222,-0.2030115,4.8,0.7918306907018026,0.0,0.0,1.0,"Accessibility, Comfort, Maintenance, Aesthetics, General","welcoming (18), lovely (18), wonderful (18), messy (9), appealing (9), perfect (9), connected (9), difficult (9), new (9), good (6), near (3), tidy (3), noisy (3), walking (3)",65
Merton,Car Park Hartfield Road - Wimbledon,Parking,51.4191485,-0.2045376,3.6,0.6484238266944885,0.0,0.26666666666666666,0.7333333333333333,"Accessibility, Safety, Atmosphere, Traffic, General","parking (57), safe (24), cars (21), tidy (21), busy (18), bad (18), good (12), excellent (9), near (9), far (9), risky (3), noisy (3)",163
Merton,Wimbledon Bridge Car Park,Parking,51.4197907,-0.2066506,3.4,0.5052725374698639,0.13333333333333333,0.6666666666666666,0.2,"Accessibility, Cleanliness, Maintenance, Traffic, General","good (27), parking (18), safe (15), tidy (12), new (9), cars (9), maintained (9), noisy (9), busy (9), far (9), rubbish (9), bad (9), broken (9)",45
Merton,Morden Station Car Park,Parking,51.4042737,-0.1946484,3.7,0.537062265475591,0.06666666666666667,0.6666666666666666,0.26666666666666666,"Accessibility, Safety, Comfort, Traffic, General","parking (36), easy (18), cars (15), good (12), sketchy (9), tight (9), accessible (9), central (9), great (6), walking (6), tidy (3), repaired (1)",170
Merton,Parking - Kingston Road,Parking,51.41018649999999,-0.210099,3.0,0.7321751515070597,0.0,0.0,1.0,Traffic,"parking (18), cars (9), poor (3), tidy (3)",2
Merton,Joseph Hood Recreation Ground,Parking,51.4046334,-0.2160239,4.4,0.6267839352289836,0.2,0.4,0.4,"Maintenance, Aesthetics, General","amazing (15), lovely (12), improved (9), appealing (9), good (9), cars (6), walking (3), parking (3)",32
Merton,Car Parking & Garages,Parking,51.4171406,-0.2013385,5.0,0.6610296964645386,0.0,0.0,1.0,"Traffic, General","great (9), parking (9), cars (3)",1
Merton,Wimbledon parking,Parking,51.4197685,-0.2126222,3.0,0.4699319501717885,0.0,1.0,0.0,Traffic,vehicle (5),1
Merton,Morrison’s car park,Parking,51.4190462,-0.2034766,4.3,0.5147028168042501,0.0,1.0,0.0,"Traffic, Accessibility","parking (15), easy (9), convenient (9), cars (6)",15
Merton,Car Park Broadway - Wimbledon,Parking,51.4188433,-0.2012213,3.8,0.5628900945186615,0.2,0.2,0.6,"Maintenance, Traffic, Accessibility, General","parking (42), safe (18), convenient (18), cars (9), great (9), new (9), tidy (9), messy (6), walking (3), good (3)",9
Merton,Car Park St Georges Road - Wimbledon | APCOA,Parking,51.4205324,-0.208924,1.6,0.5435715953509013,0.2,0.4,0.4,"Accessibility, Safety, Comfort, Traffic, General","parking (24), convenient (18), great (9), tight (9), lighting (9), safe (6), cars (6), noisy (6), tidy (3)",8
Merton,Kenley Road Car Park,Parking,51.4046171,-0.1945537,4.5,0.4617083728313446,0.3333333333333333,0.5333333333333333,0.13333333333333333,"Maintenance, Cleanliness, Traffic, General","parking (22), great (18), maintained (6), cars (3), noisy (3), walking (3)",37
Merton,Abbey Recreation Ground Car Park,Parking,51.4113127,-0.1927116,5.0,0.4870682458082835,0.0,1.0,0.0,"Accessibility, General","good (9), central (9), walking (3), parking (1)",2
Merton,Sainsbury's Wimbledon Car Park,Parking,51.4209679,-0.2089971,4.0,0.4291269580523173,0.0,1.0,0.0,Traffic,"parking (21), cars (3), safe (3)",2
Merton,Peel House Upper Level Long Stay Car Park,Parking,51.4031639,-0.1941454,3.8,0.4564207047224045,0.16666666666666666,0.75,0.08333333333333333,"Traffic, Atmosphere, General","busy (9), good (9), parking (6), vehicle (3)",5
Merton,The Paddock Allotment Gardens Car Park,Parking,51.40171910000001,-0.2244738999999999,5.0,0.5479236741860708,0.25,0.25,0.5,"Aesthetics, General","lovely (18), great (18), walking (3), cars (3), parking (3)",5
Merton,Peel House Lower Level Short Stay Car Park,Parking,51.4031892,-0.1938017,3.0,0.6867012729247411,0.16666666666666666,0.3333333333333333,0.5,"General, Traffic, Safety","parking (27), cars (21), terrible (9), unsafe (9), security (9), lively (3), tidy (3), dirty (3), noisy (3), walking (3)",4
Merton,Morden Library Within Merton Civic Centre,Library,51.4015037,-0.1958714,4.5,0.7055225014686585,0.13333333333333333,0.2,0.6666666666666666,"Accessibility, Safety, Noise, Cleanliness, Atmosphere, Maintenance, General","good (21), quiet (18), awful (18), wonderful (15), safe (12), tidy (9), lighting (9), inaccessible (9), unsafe (9), calm (9), rubbish (9), remote (6), great (3), easy (3), messy (3), fantastic (3)",78
Merton,Wimbledon Library,Library,51.422239,-0.2082958,4.0,0.542523181438446,0.06666666666666667,0.7333333333333333,0.2,"Maintenance, Noise, Atmosphere, General","quiet (33), noisy (27), great (18), screaming (18), music (18), good (9), tidy (9), old (9), loud (9), safe (6), amazing (3), lively (3), lovely (3), roomy (3), isolated (3), messy (3)",128
Merton,Raynes Park Library,Library,51.4091652,-0.2277501,4.5,0.6718743443489075,0.0,0.4666666666666667,0.5333333333333333,"Noise, Cleanliness, Atmosphere, Maintenance, Traffic, General","parking (21), good (18), walking (9), clean (9), quiet (9), new (9), fantastic (9), noisy (6), safe (3), roomy (3), cars (3), tidy (3), lovely (3)",45
Merton,Nuffield Health Wimbledon Fitness & Wellbeing Gym,Gym,51.4197654,-0.2043419,3.3,0.682212112347285,0.0,0.5333333333333333,0.4666666666666667,"Accessibility, Safety, Comfort, Cleanliness, Atmosphere, Maintenance, Traffic, General","safe (33), crowded (18), rubbish (18), dirty (18), broken (18), cramped (9), noisy (9), parking (9), amazing (9), fantastic (9), busy (9), tidy (6), horrible (6), walking (3), old (3), dark (3), dead (3), good (3), grimy (3), clean (3), near (3), active (3)",181
Merton,Bumble Bee's Day Nursery,School,51.4180468,-0.1871651,4.9,0.7920381387074789,0.0,0.06666666666666667,0.9333333333333333,"Safety, Noise, Comfort, Maintenance, General","safe (33), amazing (27), good (18), old (18), wonderful (9), inviting (9), great (9), buzzing (9), welcoming (9), lovely (3), tidy (3), peaceful (3), shouting (3), messy (3), walking (1)",42
Merton,Surya Hot Yoga,Gym,51.4159218,-0.214692,4.7,0.8792984286944071,0.0,0.0,1.0,"Noise, Comfort, Atmosphere, Maintenance, Traffic, General","welcoming (18), safe (18), tidy (12), messy (9), music (9), busy (9), amazing (9), lovely (3), connected (3), noisy (3)",222
Merton,Dicky Birds Day Nursery and Preschool in Raynes Park (Pepys Road),School,51.4111053,-0.2271739,4.3,0.6400235030386183,0.0,0.6666666666666666,0.3333333333333333,"Maintenance, Aesthetics","lovely (9), new (9), updated (9), noisy (6), tidy (6), roomy (3), safe (3), old (3), good (3)",4
Merton,Rutlish School Playing Fields,School,51.40811830000001,-0.2071871,4.5,0.0,0.0,0.0,0.0,,,2
Merton,Kumon Maths & English,School,51.4089479,-0.2153911,4.8,0.7551732738812764,0.0,0.4,0.6,"Aesthetics, General","safe (21), lovely (12), amazing (9), dangerous (3)",100
Merton,Acorn Nursery,School,51.4127652,-0.2126381000000001,3.2,0.7136081536610921,0.0,0.3333333333333333,0.6666666666666666,"Maintenance, Aesthetics, Safety, General","tidy (24), good (21), wonderful (18), safe (9), improved (9), noisy (6), messy (6)",5
Merton,Bright Horizons Wimbledon House Day Nursery and Preschool,School,51.413964,-0.203,4.3,0.6134124232663049,0.0,0.4444444444444444,0.5555555555555556,"Comfort, Aesthetics, General","good (18), tidy (9), great (9), spacious (6), safe (6), beautiful (6), pretty (3)",6
Merton,Dicky Birds Day Nursery and Preschool in Wimbledon (Dundonald Road),School,51.4163077,-0.2102495,3.0,0.9613715608914694,0.0,0.0,1.0,General,awful (9),2
Merton,The Baby Swimming Company - Wimbledon,School,51.4032977,-0.2126927,4.3,0.6972305297851562,0.0,0.4,0.6,"Noise, Comfort, Maintenance, Aesthetics, General","great (36), lovely (27), shouting (12), loud (9), excellent (9), good (9), old (9), amazing (9), welcoming (9), safe (6), tidy (3), poor (3), noisy (3)",28
Merton,Wimbledon High School Playing Field,School,51.4160378,-0.2164469,5.0,0.3358728587627411,0.6666666666666666,0.3333333333333333,0.0,,,1
Merton,Wimbledon College of Arts,University,51.4137412,-0.2117781,4.3,0.6251660366853078,0.0,0.4666666666666667,0.5333333333333333,"Accessibility, Noise, Atmosphere, Maintenance, General","good (9), near (9), great (9), quiet (6), amazing (6), old (3)",44
Merton,Merton College,University,51.3936258,-0.2046868,3.4,0.6603715161482493,0.2,0.2,0.6,"Accessibility, Noise, Comfort, Maintenance, General","tidy (12), repaired (12), worst (9), inconvenient (9), good (9), music (9), fantastic (9), terrible (9), tight (9), safe (6), noisy (6), broken (3), messy (3)",156
Merton,AcePace Training Academy,University,51.4183255,-0.193227,4.2,0.8257154583930969,0.0,0.0,1.0,"Maintenance, Comfort, General","terrible (9), disappointing (9), excellent (9), comfortable (9), new (9), noisy (6), messy (3)",161
Merton,London Teacher Training College,University,51.41153369999999,-0.1866604,5.0,0.5743584997124143,0.1111111111111111,0.5555555555555556,0.3333333333333333,"Accessibility, General","neat (12), near (12), new (12), good (9), easy (9), great (9), messy (3), ugly (3)",10
Merton,The London College Of Garden Design,University,51.40862139999999,-0.2197254,4.9,0.7899253447850545,0.0,0.13333333333333333,0.8666666666666667,"Accessibility, Comfort, Maintenance, Aesthetics, General","great (45), fantastic (9), new (9), wonderful (9), perfect (9), enjoyable (9), accessible (9), easy (9), excellent (9), lovely (9), tidy (9), messy (3), safe (3)",36
Merton,London Metropolitan College,University,51.42056019999999,-0.2092854,5.0,0.7003927032152811,0.0,0.0,1.0,General,great (9),4
Merton,Manchester International Training College,University,51.4115337,-0.1866603,1.0,0.4097161293029785,0.3333333333333333,0.6666666666666666,0.0,,"tidy (3), messy (2)",1
Merton,Merton Medical Practice,Hospital,51.4160135,-0.1847003,2.8,0.6164611180623373,0.2,0.4,0.4,"Maintenance, Aesthetics, Accessibility, General","old (9), improved (9), wonderful (6), messy (6), tidy (6), near (3), fantastic (3)",176
Merton,Back on Track Healthcare Wimbledon,Hospital,51.41108110000001,-0.2083685,4.9,0.776791000366211,0.0,0.06666666666666667,0.9333333333333333,"Comfort, Traffic, Aesthetics, General","great (33), messy (18), tidy (15), walking (12), lovely (9), bad (9), amazing (9), horrible (9), tight (9), safe (6), parking (3), old (1)",41
Merton,Morden Hall Medical Centre,Hospital,51.40455679999999,-0.1920136,2.0,0.7784481068452199,0.0,0.3333333333333333,0.6666666666666666,"Accessibility, Noise, Atmosphere, Maintenance, General","tidy (27), new (27), messy (21), worst (18), noisy (12), quiet (9), horrible (9), far (9), terrible (9), great (9), near (3), safe (3), good (3), disappointing (1)",144
Merton,Genki Clinic,Hospital,51.4239114,-0.215641,4.9,0.7321926116943359,0.0,0.3333333333333333,0.6666666666666666,"Safety, Atmosphere, Maintenance, Traffic, Aesthetics, General","amazing (18), messy (15), safe (12), relaxing (12), calm (9), good (9), flow (9), excellent (9), great (9), lovely (6), noisy (6), tidy (3)",76
Merton,The Nelson Health Centre,Hospital,51.4106792,-0.208707,3.4,0.5972381889820099,0.2,0.4,0.4,"Maintenance, Traffic, Atmosphere, General","busy (27), parking (24), noisy (15), messy (12), great (9), awful (9), excellent (9), disappointing (9), tidy (6), cars (6), safe (3)",192
Merton,Francis Grove Surgery,Doctor,51.4198578,-0.2091699,4.2,0.8030911207199096,0.0,0.2,0.8,"Comfort, Aesthetics, Accessibility, General","amazing (18), comfortable (18), great (18), messy (12), difficult (12), good (9), tidy (9), pleasant (9), excellent (9), dark (3), dead (3), safe (3)",169
Merton,Menopause Care - Wimbledon,Hospital,51.4221416,-0.2078064999999999,5.0,0.5937654276688894,0.0,0.5,0.5,"Aesthetics, Accessibility, General","messy (12), terrible (9), difficult (9), safe (3)",2
Merton,London Doctors Clinic Private GP,Doctor,51.4221419,-0.2077922,3.0,0.29743456840515137,1.0,0.0,0.0,,noisy (3),1
Merton,eXroid,Hospital,51.41010559999999,-0.2306397,3.5,0.5863262375195821,0.0,0.6,0.4,"Accessibility, Comfort, Cleanliness, Maintenance, Aesthetics, Traffic, General","parking (45), easy (18), good (18), messy (15), excellent (9), noisy (9), clean (9), modern (9), spacious (9), accessible (9), spotless (9), pleasant (3), busy (3), loud (3)",6
Merton,Kingston Hospital Outpatients - Raynes Park Health Centre,Hospital,51.41010559999999,-0.2306397,3.3,0.7308152000109355,0.0,0.2,0.8,"Safety, Noise, Comfort, Maintenance, Aesthetics, Traffic, General","lovely (27), safe (24), worst (18), uncomfortable (9), traffic (9), wonderful (9), tidy (9), great (9), messy (6), parking (3), poor (3), good (3), dark (3), dead (3)",56
Merton,West Barnes Surgery,Hospital,51.39845949999999,-0.2326182,3.0,0.6838403304417928,0.13333333333333333,0.26666666666666666,0.6,"Accessibility, Comfort, Atmosphere, Aesthetics, Traffic, General","great (9), busy (9), fantastic (9), easy (9), pleasant (9), messy (6), tidy (6), safe (3), relaxing (3)",71
Merton,Snuff Mill Children and Young People Hub,Museum,51.4023698,-0.1879984,4.4,0.5772443274656932,0.2,0.4,0.4,General,good (9),11
Merton,PAUSE/FRAME By The Koppel Project,Art Gallery,51.4192873,-0.1975459,5.0,0.0,0.0,0.0,0.0,,,1
Merton,Ad Lib Gallery,Art Gallery,51.42574669999999,-0.2170605,4.9,0.780257507165273,0.0,0.2,0.8,"Aesthetics, Accessibility, General","amazing (18), lovely (9), good (9), easy (9), perfect (3)",19
Merton,Clarendon Fine Art Wimbledon,Art Gallery,51.42538690000001,-0.2198872,4.8,0.7111869176228841,0.0,0.4666666666666667,0.5333333333333333,"Comfort, Aesthetics, General","great (27), beautiful (18), enjoyable (9), lovely (9), poor (9), stunning (9), messy (6), walking (3), tidy (3), excellent (3)",21
Merton,Wimbledon Fine Art,Art Gallery,51.42634320000001,-0.2168548,4.8,0.5766824146111806,0.0,0.8,0.2,"Maintenance, Aesthetics, General","excellent (18), damaged (9), good (9), great (9), repaired (3), tidy (3), lovely (3)",12
Merton,Ravensbury Park,Park,51.3972263,-0.1791746,4.6,0.6854684988657633,0.0,0.2,0.8,"Noise, Cleanliness, Atmosphere, Aesthetics, Traffic, General","beautiful (27), great (18), parking (14), serene (9), calm (9), relaxing (9), flow (9), good (9), quiet (9), empty (9), clean (9), excellent (9), safe (6), walking (4), lovely (3), noisy (3)",533
Merton,Colliers Wood Recreation Ground,Park,51.41785580000001,-0.1734509,4.4,0.7016247789065043,0.0,0.2,0.8,"Accessibility, Noise, Atmosphere, Maintenance, Aesthetics, General","great (27), beautiful (18), noisy (9), new (9), near (9), peaceful (9), good (9), lovely (9), bad (9), parking (6), old (3)",371
Merton,Lavender Park,Park,51.4121564,-0.1702661,4.1,0.5935363153616587,0.06666666666666667,0.4,0.5333333333333333,"Cleanliness, Traffic, General","good (18), walking (9), amazing (3), safe (3), clean (3), parking (3)",220
Merton,Sir Joseph Hood Memorial Playing Fields,Park,51.3915884,-0.2366634,4.4,0.6514911949634552,0.0,0.3333333333333333,0.6666666666666666,"Aesthetics, Cleanliness, Atmosphere, General","lovely (36), great (18), safe (12), parking (12), empty (9), fantastic (9), excellent (9), good (9), tidy (6), lively (3), clean (3), poor (3), cars (3)",506
Merton,Wimbledon Park,Park,51.43818439999999,-0.2092757,4.6,0.6883279879887899,0.0,0.4,0.6,"Noise, Cleanliness, Atmosphere, Maintenance, Aesthetics, Traffic, General","parking (45), beautiful (30), walking (21), lovely (21), perfect (18), good (18), peaceful (18), safe (15), gorgeous (9), maintained (9), stunning (9), buzzing (9), lively (9), flow (9), pretty (9), disappointing (9), wonderful (3), charming (3), cars (3), relaxing (1)",4386
Merton,Garratt Park,Park,51.435893,-0.1884329,4.4,0.679731543858846,0.06666666666666667,0.3333333333333333,0.6,"Noise, Cleanliness, Atmosphere, Aesthetics, General","wonderful (18), parking (16), relaxing (12), beautiful (9), serene (9), gorgeous (9), fantastic (9), safe (9), good (6), clean (6), quiet (3)",275
Merton,Tamworth Farm Allotments TFAS,Park,51.41420759999999,-0.1638989,4.5,0.4549873828887939,0.4,0.4,0.2,"Safety, Maintenance, Traffic, Aesthetics, General","good (18), secure (9), parking (9), noisy (3), ugly (3), messy (3), safe (3)",26
Merton,Sutton Arena,Park,51.3841124,-0.1814415,4.3,0.6056613822778066,0.0,0.26666666666666666,0.7333333333333333,"Atmosphere, Traffic, Accessibility, General","great (36), good (21), safe (21), parking (18), excellent (9), busy (9), noisy (6), easy (3), near (3), roomy (3)",267
Merton,"City St George's, University of London (Tooting)",University,51.4269516,-0.1738811,4.5,0.523996376991272,0.4,0.4,0.2,"Cleanliness, Aesthetics, Accessibility, General","good (9), fantastic (9), clean (9), amazing (9), lovely (9), tidy (6), safe (3), messy (3), easy (3), shouting (3)",268
Merton,St George's Hospital,Hospital,51.42656299999999,-0.1752284,3.7,0.6888313829898834,0.0,0.4,0.6,"Maintenance, Cleanliness, Aesthetics, General","good (21), tidy (18), messy (15), safe (12), amazing (9), worst (9), great (9), clean (9), easy (6), noisy (3)",1181
Merton,Enterprise Car & Van Hire - New Malden,Car Rental,51.4001232,-0.2398446999999999,4.1,0.5995377997557322,0.13333333333333333,0.3333333333333333,0.5333333333333333,"Accessibility, Cleanliness, Maintenance, Aesthetics, Traffic, General","vehicle (36), messy (21), new (18), cars (15), great (15), dusty (12), poor (9), near (9), safe (9), bad (9), upgraded (9), good (9), tidy (6), noisy (3)",233
Merton,Colliers Wood Station,Transit Station,51.4181987,-0.1777967,3.3,0.5632890727784898,0.2222222222222222,0.4444444444444444,0.3333333333333333,"Comfort, Cleanliness","clean (9), pleasant (9)",9
Merton,Merton Abbey (Stop E),Transit Station,51.4164335,-0.1815468,3.3,0.3513179322083791,0.6666666666666666,0.3333333333333333,0.0,Aesthetics,lovely (3),4
Merton,Belgrave Walk,Transit Station,51.4009785,-0.1783926,3.6,0.4775049418210983,0.3333333333333333,0.26666666666666666,0.4,"Comfort, Traffic","walking (12), safe (9), unpleasant (9), good (6), poor (6), cramped (3), noisy (3)",19
Merton,Colliers Wood,Subway Station,51.41817029999999,-0.1778597,4.2,0.599959131081899,0.0,0.8,0.2,"Maintenance, Cleanliness, Aesthetics, General","old (9), new (9), good (9), lovely (9), lively (3), noisy (3), safe (3), ugly (3), parking (3), dark (3), dead (3)",89
Merton,Wimbledon Park,Subway Station,51.4344081,-0.1993932,4.2,0.6159730116526286,0.0,0.4666666666666667,0.5333333333333333,"Maintenance, Cleanliness, Aesthetics, General","clean (12), walking (9), tidy (9), wonderful (9), fantastic (9), good (9), pretty (9), parking (6), roomy (6), busy (3), noisy (3), safe (3), messy (3), amazing (3)",58
Merton,New Malden,Transit Station,51.4040632,-0.25621,3.8,0.5850351889928181,0.06666666666666667,0.5333333333333333,0.4,"Accessibility, Noise, Cleanliness, Atmosphere, Maintenance, General","new (27), clean (18), good (12), quiet (9), improved (9), great (9), accessible (9), tidy (9), filthy (9), central (9), safe (6), lovely (3), noisy (3)",75
Merton,Southfields,Subway Station,51.4450087,-0.2065149,4.3,0.4774290124575297,0.2,0.6,0.2,"Maintenance, Traffic, Atmosphere, Accessibility","busy (18), central (9), near (9), tidy (6), good (6), dark (3), dead (3), safe (3)",117
Merton,Tooting Broadway,Subway Station,51.4276438,-0.167955,4.3,0.562741200129191,0.13333333333333333,0.3333333333333333,0.5333333333333333,"Traffic, Atmosphere, General","good (27), busy (21), safe (15), amazing (9), great (6), lively (6), tidy (3), noisy (3), messy (3), honking (2)",202
Merton,Tandem Centre,Shopping Mall,51.4138525,-0.1777389,4.2,0.6898428241411845,0.0,0.13333333333333333,0.8666666666666667,"Accessibility, Cleanliness, Maintenance, Traffic, General","parking (24), near (18), safe (12), neat (9), new (9), great (9), good (6), cars (3), walking (3), busy (3), relaxing (3)",3738
Merton,Priory Retail Park,Shopping Mall,51.41620649999999,-0.1793915,4.2,0.5984052220980326,0.06666666666666667,0.3333333333333333,0.6,"Comfort, Traffic, Atmosphere, General","great (18), parking (18), safe (9), uncomfortable (9), good (9), busy (9)",1495
Merton,Mitcham Town Centre (High Street),Shopping Mall,51.4063919,-0.1634422,3.8,0.5451546907424927,0.13333333333333333,0.6666666666666666,0.2,"Maintenance, Cleanliness, Traffic, General","good (12), rubbish (9), broken (9), parking (9), tidy (3), safe (3), walking (3), old (3)",47
Merton,Caesar's Camp,Tourist Attraction,51.42581089999999,-0.2391474,3.3,0.4664269785086314,0.2,0.7333333333333333,0.06666666666666667,"Aesthetics, Accessibility","far (9), walking (6), safe (6), tidy (3), lovely (3), relaxing (3)",12
Merton,All England Lawn Tennis & Croquet Club,Tourist Attraction,51.4342911,-0.2144883,4.8,0.7224721570809682,0.0,0.26666666666666666,0.7333333333333333,"Comfort, Maintenance, Traffic, Aesthetics, General","beautiful (18), walking (12), safe (9), old (9), modern (9), fantastic (9), great (9), enjoyable (9), amazing (6), noisy (6), lovely (3), charming (3)",10178
Merton,Jurassic Encounter Adventure Golf,Tourist Attraction,51.40437409999999,-0.2426841999999999,4.5,0.6673741499582927,0.0,0.4,0.6,"Aesthetics, Traffic, Accessibility, General","good (27), great (18), driving (15), lovely (15), tidy (12), safe (9), far (9), flow (3), messy (3), difficult (3)",1207
Merton,Buddhapadipa Temple,Tourist Attraction,51.4307479,-0.2205011,4.8,0.6175344347953796,0.13333333333333333,0.26666666666666666,0.6,"Accessibility, Noise, Cleanliness, Atmosphere, Maintenance, Aesthetics, Traffic, General","beautiful (30), peaceful (30), lovely (21), parking (18), safe (15), calm (12), perfect (12), stunning (9), tidy (9), walking (9), far (9), serene (9), maintained (9), quiet (9), wonderful (9), busy (9), new (9), relaxing (3), near (3), good (3), cars (3), noisy (3)",1275
Merton,Wimbledon Masjid,Mosque,51.43643300000001,-0.1972162,4.8,0.6271986285845439,0.0,0.3333333333333333,0.6666666666666666,"Cleanliness, Aesthetics, General","excellent (18), good (9), beautiful (9), clean (9), cars (6), parking (6), improved (1)",516
Merton,Free Tennis Courts Tamworth Recreation Ground,Tourist Attraction,51.414984,-0.1623008,4.5,0.6441922148068746,0.0,0.4,0.6,"Cleanliness, Atmosphere, Maintenance, Aesthetics, Traffic, General","good (9), crowded (9), bad (9), excellent (9), modern (9), clean (9), busy (9), safe (6), tidy (6), maintained (6), old (3), lovely (3), lighting (1)",40
Merton,"Shree Ghanapathy Temple, Wimbledon",Hindu Temple,51.4233627,-0.1892624,4.8,0.7774280945460001,0.0,0.0,1.0,"Accessibility, Noise, Cleanliness, Atmosphere, Maintenance, Traffic, Aesthetics, General","good (27), lovely (21), beautiful (18), bad (18), safe (9), parking (9), maintained (9), connected (9), great (9), near (9), peaceful (9), accessible (9), new (9), terrible (9), messy (9), calm (6), noisy (6), cars (3), poor (3)",933
Merton,Wimbledon Park Lake,Natural Feature,51.4359407,-0.2071219,4.6,0.5124860525131225,0.2,0.6666666666666666,0.13333333333333333,"Maintenance, Aesthetics","lovely (9), parking (6), messy (3), walking (3), good (3), dirty (3), safe (3), old (3)",24
Merton,Hookhamslade Pond,Natural Feature,51.4317601,-0.2291951,5.0,0.42629097402095795,0.5,0.5,0.0,"Noise, Atmosphere",quiet (9),3
Merton,Three Kings Pond,Natural Feature,51.403907,-0.1613297,4.3,0.5005360424518586,0.2,0.6,0.2,"Maintenance, Aesthetics, Accessibility","beautiful (18), lovely (18), new (9), damaged (9), near (9), walking (3), safe (3), relaxing (3), parking (1)",35
Merton,Queen's Mere,Natural Feature,51.43810149999999,-0.2372826,5.0,0.6969659626483917,0.0,0.5,0.5,Aesthetics,pretty (9),3
Merton,Putney Heath,Natural Feature,51.44319489999999,-0.2338354,4.9,0.5994630389743381,0.0,0.6666666666666666,0.3333333333333333,"Aesthetics, General","great (9), perfect (7), lovely (6), walking (3)",7
Merton,Fishponds Wood,Natural Feature,51.42395140000001,-0.2499384,3.0,0.0,0.0,0.0,0.0,,,1
Merton,Greenshaw Wood,Natural Feature,51.380627,-0.1875111,3.5,0.5196709682544073,0.5,0.0,0.5,"Noise, Traffic, Atmosphere, General","quiet (15), good (9), walking (3), noisy (3)",2
Merton,Lambeth Cemetery and Crematorium,Cemetery,51.428036,-0.180223,3.6,0.6030116061369578,0.0,0.4666666666666667,0.5333333333333333,"Accessibility, Safety, Noise, Atmosphere, Maintenance, Aesthetics, Traffic, General","tidy (21), safe (18), beautiful (18), new (18), good (15), lovely (12), peaceful (12), flow (9), far (9), loud (9), easy (9), messy (6), updated (3), active (3), poor (3), walking (3), connected (3)",44
Merton,Putney Vale Cemetery,Cemetery,51.43970059999999,-0.2413122,4.1,0.638354464371999,0.0,0.4,0.6,"Accessibility, Noise, Cleanliness, Atmosphere, Maintenance, Aesthetics, Traffic, General","lovely (18), terrible (9), tidy (9), wonderful (9), beautiful (9), maintained (9), peaceful (9), old (9), near (9), good (9), walking (7), noisy (6), messy (3), flow (3), safe (3)",45
Merton,Sutton Cemetery,Cemetery,51.3784596,-0.2047316,4.1,0.6218566179275513,0.0,0.6,0.4,"Noise, Atmosphere, Aesthetics, General","beautiful (27), fantastic (9), good (3), quiet (3), safe (3), lovely (3)",12
Merton,Merton & Sutton Joint Cemetery,Cemetery,51.3894106,-0.2271335,4.1,0.5932962775230408,0.0,0.4666666666666667,0.5333333333333333,"Noise, Cleanliness, Atmosphere, Maintenance, Aesthetics, Traffic, General","peaceful (21), good (18), lovely (12), flow (9), great (9), maintained (9), parking (9), beautiful (9), rubbish (9), clean (9), noisy (6), safe (3), tidy (3)",26
Merton,Morden Cemetery (Battersea New),Cemetery,51.3911425,-0.2248704,4.0,0.5792645891507466,0.2,0.4,0.4,"Noise, Cleanliness, Atmosphere, Maintenance, Aesthetics, General","beautiful (18), quiet (18), tidy (18), lovely (18), amazing (9), broken (9), peaceful (9), clean (3), noisy (3), safe (3)",15
Merton,Streatham Cemetery,Cemetery,51.4324299,-0.1764777,4.1,0.714509105682373,0.0,0.13333333333333333,0.8666666666666667,"Accessibility, Noise, Atmosphere, Aesthetics, Traffic, General","lovely (27), safe (24), quiet (15), perfect (9), busy (9), peaceful (9), great (9), bad (9), good (9), flow (3), walking (3), near (3), tidy (3)",27
Merton,Gap Road Cemetery,Cemetery,51.429333,-0.1948589,4.6,0.5436791131893793,0.0,0.8333333333333334,0.16666666666666666,"Noise, Cleanliness, Atmosphere, Maintenance, Aesthetics, General","peaceful (15), quiet (9), maintained (9), calm (6), walking (3), good (3), noisy (3), lovely (3)",10
Merton,Church Road Cemetery,Cemetery,51.40363050000001,-0.174277,5.0,0.37798453370730084,1.0,0.0,0.0,"Accessibility, Safety, Cleanliness, Atmosphere, Maintenance, General","old (9), maintained (9), safe (9), awful (9), near (3), bad (3), busy (3), dead (3)",1
Merton,London Road Cemetery,Cemetery,51.4154381,-0.1644026,4.5,0.5406619866689046,0.26666666666666666,0.4666666666666667,0.26666666666666666,"Accessibility, Noise, Cleanliness, Atmosphere, Traffic, General","quiet (18), pedestrian (9), clean (9), calm (9), good (9), near (6), safe (3), peaceful (3), walking (3)",21
Merton,Cuddington Cemetery,Cemetery,51.37826159999999,-0.2360134,3.3,0.5205043388737572,0.0,0.8888888888888888,0.1111111111111111,"Accessibility, Noise, Atmosphere, Traffic, General","peaceful (9), accessible (9), good (9), quiet (6), flow (3), near (3), walking (3)",3
Merton,Yahweh Christian Fellowship,Church,51.429267,-0.1765508,4.7,0.769982240597407,0.0,0.2,0.8,"General, Comfort, Aesthetics, Safety","great (27), messy (15), lovely (15), welcoming (15), security (9), safe (3)",25
Merton,"St Teresa of the Child Jesus, Morden",Church,51.3894444,-0.1808333,4.7,0.723099950949351,0.0,0.06666666666666667,0.9333333333333333,"Noise, Comfort, Aesthetics, General","great (27), lovely (15), silent (9), welcoming (9), amazing (9), beautiful (9), good (9), peaceful (3), messy (2)",125
Merton,"St Martin's Church, Morden",Church,51.39242410000001,-0.221317,4.8,0.6658715049425761,0.0,0.13333333333333333,0.8666666666666667,"Comfort, Aesthetics, General","welcoming (24), great (9), lovely (6), peaceful (3)",16
Merton,"All Saints' Church, Wimbledon",Church,51.4189885,-0.1854459,3.9,0.48649802307287854,0.4166666666666667,0.3333333333333333,0.25,"Aesthetics, General","great (18), tidy (3), lovely (3)",14
Merton,RCCG Living Water Parish south wimbledon,Church,51.4210372,-0.1872897,4.6,0.629628312587738,0.2,0.06666666666666667,0.7333333333333333,"Comfort, Traffic, Aesthetics, General","parking (19), lovely (15), cars (9), excellent (9), great (9), welcoming (9), tidy (6), amazing (6)",22
Merton,Malden Centre Car Park,Parking,51.40025849999999,-0.2528156,3.7,0.6747373839219412,0.0,0.4,0.6,"Accessibility, Cleanliness, Atmosphere, Maintenance, Traffic, General","parking (66), amazing (18), new (18), good (15), cars (12), safe (9), maintained (9), busy (9), easy (9), near (3), tidy (3)",54
Merton,Blagdon Road Car Park,Parking,51.4000358,-0.2543531000000001,2.5,0.6116324543952942,0.2,0.2,0.6,"Traffic, General","parking (27), driving (9), terrible (9), tidy (6), messy (3), noisy (3)",20
Merton,Tooting Library,Library,51.4265457,-0.1657008,4.4,0.7428746402263642,0.0,0.4,0.6,"Noise, Aesthetics, General","excellent (18), great (18), lovely (18), loud (9), wonderful (9), messy (6), tidy (6), roomy (3), busy (3)",96
Merton,Southfields Library,Library,51.44352929999999,-0.2087231,4.3,0.6063644111156463,0.2,0.4,0.4,"Maintenance, Noise, Aesthetics, General","loud (24), great (18), old (9), wonderful (9), good (9), messy (6), noisy (6), grimy (3)",71
Merton,Circle Library,Library,51.3854957,-0.1745803,4.0,0.6259033203125,0.0,0.4,0.6,"Cleanliness, Atmosphere, General","perfect (18), good (18), clean (15), relaxing (12), tidy (6), noisy (3), updated (3), messy (3)",27
Merton,Mitcham Library,Library,51.4086424,-0.1625764,4.3,0.7410306036472321,0.0,0.2,0.8,"Noise, Cleanliness, Atmosphere, General","great (18), quiet (18), good (12), wonderful (9), clean (9), perfect (9), excellent (9), worst (9), fantastic (9), safe (6), tidy (3)",76
Merton,New Malden Library,Library,51.3993237,-0.2606322,4.4,0.6931832989056905,0.0,0.4,0.6,"Accessibility, Noise, Comfort, Cleanliness, Atmosphere, Maintenance, Aesthetics, General","great (33), new (18), safe (12), easy (12), good (12), excellent (9), clean (9), spacious (9), difficult (9), wonderful (9), quiet (9), fantastic (9), lovely (9), tidy (3)",54
Merton,West Barnes Library,Library,51.39509109999999,-0.239131,4.0,0.6170218507448832,0.0,0.2,0.8,"Noise, Accessibility, General","great (27), good (18), difficult (9), noisy (9), safe (3)",24
Merton,Colliers Wood Library,Library,51.41878020000001,-0.1773125,4.3,0.696037224928538,0.0,0.26666666666666666,0.7333333333333333,"Accessibility, Noise, Atmosphere, Maintenance, Aesthetics, General","quiet (18), lovely (15), fantastic (9), good (9), peaceful (9), bad (9), screaming (9), difficult (9), amazing (9), modern (9), improved (9), great (9), safe (6), disappointing (3), tidy (3), easy (3), near (3)",47
Merton,Sutton Life Centre,Library,51.37913380000001,-0.2013976,4.3,0.5749574979146321,0.2,0.2,0.6,"Accessibility, Noise, Cleanliness, Atmosphere, Aesthetics, Traffic, General","good (36), clean (18), tidy (18), great (18), pretty (9), music (9), quiet (9), parking (9), safe (9), accessible (9), relaxing (3)",48
Merton,Earlsfield Library,Library,51.4424666,-0.1866814,4.5,0.7478776852289836,0.0,0.0,1.0,"Noise, Aesthetics, General","good (39), great (27), lovely (18), fantastic (18), noisy (9), roomy (6), lighting (3), tidy (3), safe (3)",32
Merton,Burntwood School,School,51.4383279,-0.1797715,3.6,0.6538853983084361,0.2,0.2,0.6,"Accessibility, Safety, Comfort, Maintenance, General","tidy (27), safe (24), new (18), messy (15), bad (9), awful (9), horrible (9), uncomfortable (9), difficult (9), peaceful (3), lovely (3), good (3), poor (3), easy (3), isolated (3)",92
Merton,Crown Kindergartens Day Nursery Wimbledon,School,51.425859,-0.1974620000000001,4.4,0.637476795911789,0.2,0.4,0.4,"Comfort, Maintenance, Traffic, Aesthetics, General","great (45), fantastic (24), good (21), lovely (19), safe (12), welcoming (9), wonderful (9), pretty (9), cars (9), new (9), tidy (6), dark (3), dead (3)",12
Merton,Modern Montessori International Ltd,School,51.4145165,-0.2368195999999999,5.0,0.912888785203298,0.0,0.0,1.0,"Cleanliness, Safety","clean (18), safe (9), tidy (3), noisy (3)",1
Merton,Perseid Lower School,School,51.3971447,-0.1953947,4.5,0.0,0.0,0.0,0.0,,,2
Merton,Churchill College,University,51.3998431,-0.2618265999999999,5.0,0.6815702716509501,0.0,0.0,1.0,General,good (9),1
Merton,Orchard Hill College,University,51.4074308,-0.2641306999999999,4.8,0.5795855290359921,0.0,0.4444444444444444,0.5555555555555556,"Maintenance, Comfort, Aesthetics, General","lovely (9), new (9), good (9), inviting (6), safe (3), messy (2)",12
Merton,South Thames College - Tooting Centre,University,51.427225,-0.1679585,4.2,0.7034003059069316,0.2,0.0,0.8,"Noise, General, Aesthetics, Safety","security (27), messy (24), great (18), excellent (9), lovely (9), amazing (9), loud (6), wonderful (6), safe (3), tidy (3), fantastic (3)",70
Merton,New Victoria Hospital,Hospital,51.4158261,-0.2541567,3.9,0.7842600444952647,0.2,0.0,0.8,"Safety, Noise, Comfort, Atmosphere, Maintenance, Aesthetics, General","messy (33), new (27), pleasant (18), great (18), lovely (12), safe (9), active (9), quiet (9), improved (9), amazing (6), dark (3), dead (3), pretty (3), shouting (3), tidy (3), good (3)",92
Merton,Nuffield Health Parkside Hospital,Hospital,51.4357845,-0.2238555,3.9,0.7322886486848196,0.2,0.0,0.8,"Comfort, Aesthetics, Safety, General","great (27), amazing (21), excellent (18), messy (9), lovely (9), safe (9), comfortable (9), uncomfortable (9), tidy (6), pleasant (3), shouting (3)",305
Merton,St Helier Hospital,Hospital,51.3805311,-0.18442,3.1,0.687391444047292,0.0,0.2,0.8,"Safety, Comfort, Maintenance, Traffic, Aesthetics, General","easy (18), noisy (18), safe (15), tidy (12), amazing (9), fantastic (9), beautiful (9), unsafe (9), lovely (9), comfortable (9), broken (9), pretty (9), flow (3), good (3), messy (3), roomy (3)",732
Merton,Tooting medical center,Hospital,51.4202157,-0.1611604,3.4,0.7616721828778584,0.0,0.13333333333333333,0.8666666666666667,"Accessibility, Comfort, Cleanliness, Atmosphere, Maintenance, Aesthetics, General","comfortable (18), clean (9), modern (9), maintained (9), welcoming (9), relaxing (9), excellent (9), lovely (9), messy (6)",258
Merton,Tooting South Medical Centre,Hospital,51.4220882,-0.1616424,2.9,0.5825712958971659,0.2,0.2,0.6,"Accessibility, Comfort, Maintenance, Aesthetics, Traffic, General","safe (21), improved (12), good (12), messy (11), central (9), wonderful (9), welcoming (9), great (9), tidy (6), difficult (3)",270
Merton,Dr A Mirza,Hospital,51.38985449999999,-0.1899934,3.7,0.5356117486953735,0.5,0.0,0.5,General,"safe (9), good (9), tidy (3), messy (3)",3
Merton,First Health Medical & Skin Clinic,Hospital,51.38434419999999,-0.2127819,4.8,0.7278164227803549,0.0,0.2,0.8,"Comfort, Maintenance, Aesthetics, Traffic, General","messy (36), great (9), comfortable (9), welcoming (9), disappointing (9), fantastic (9), shouting (3), safe (3), tidy (3), good (2)",190
Merton,Wimbledon Park Clinic,Hospital,51.43447760000001,-0.2000264,5.0,0.0,0.0,0.0,0.0,,,2
Merton,Merton Priory Chapter House,Travel Agency,51.4140701,-0.1815798,4.7,0.5753935972849528,0.06666666666666667,0.5333333333333333,0.4,"Maintenance, Traffic, Safety, General","excellent (9), parking (9), safe (9), secure (9), old (9), tidy (3), fantastic (3)",21
Merton,Wimbledon Windmill Museum,Museum,51.4376647,-0.2315987,4.5,0.5790427605311076,0.0,0.6,0.4,"Accessibility, Comfort, Maintenance, Traffic, Aesthetics, General","good (18), great (18), safe (9), parking (9), lovely (9), near (9), tight (9), old (9), walkable (9), busy (6), cramped (3)",389
Merton,Wimbledon Lawn Tennis Museum,Museum,51.43450399999999,-0.213367,4.8,0.7482780118783315,0.0,0.2,0.8,"Accessibility, Comfort, Atmosphere, Maintenance, Aesthetics, General","amazing (9), lovely (9), enjoyable (9), safe (9), great (9), convenient (9), tidy (6), good (6), messy (3), old (3)",656
Merton,Wimbledon in Sporting History,Museum,51.4305798,-0.1866449,5.0,0.8418415039777756,0.0,0.0,1.0,"Maintenance, Aesthetics, General","great (39), wonderful (18), old (18), amazing (9), excellent (9), fantastic (9), good (3)",6
Merton,Wandle Industrial Museum,Museum,51.40227899999999,-0.168051,4.5,0.5788261075814565,0.0,0.6,0.4,"Maintenance, General","great (9), old (9), safe (6), shouting (3), messy (3), parking (3)",51
Merton,Wimbledon Art Studios,Art Gallery,51.432613,-0.187677,4.8,0.7206243475278219,0.0,0.2,0.8,"Maintenance, Traffic, Atmosphere, General","great (24), vibrant (18), excellent (9), fantastic (9), walking (9), good (9), tidy (6), messy (3)",118
Merton,Tingari Arts of Central Australia & Eastern Desert Art,Art Gallery,51.4289098,-0.2209301,5.0,0.6445326805114746,0.3333333333333333,0.0,0.6666666666666666,"Maintenance, General","great (9), good (3)",4
Merton,Hicks Gallery,Art Gallery,51.4273718,-0.200034,4.3,0.633319902420044,0.0,0.3333333333333333,0.6666666666666666,General,"good (9), great (9), wonderful (9), messy (3), tidy (3), lovely (3)",10
Merton,Richmond Park,Park,51.441185,-0.2745320000000001,4.8,0.7609053452809652,0.0,0.0,1.0,"Safety, Noise, Cleanliness, Atmosphere, Maintenance, Aesthetics, Traffic, General","lovely (27), walking (24), parking (18), great (18), safe (15), old (12), gorgeous (9), peaceful (9), spotless (9), perfect (9), clean (9), amazing (9), cyclists (9), busy (9), calm (3), lighting (3), bikes (2)",28925
Merton,Plough Green,Park,51.38501309999999,-0.252693,3.6,0.4399206002553304,0.2,0.8,0.0,"Maintenance, Comfort, Aesthetics, General","old (9), good (9), comfortable (9), beautiful (9), safe (6), noisy (3)",31
Merton,Stone Place Car Park,Transit Station,51.3783666,-0.2429806,5.0,0.35537131627400714,1.0,0.0,0.0,Comfort,pleasant (9),1
Merton,Sutton,Transit Station,51.3597332,-0.1908287,3.9,0.6230475385983785,0.0,0.26666666666666666,0.7333333333333333,"Accessibility, Cleanliness, Maintenance, Aesthetics, General","good (33), lovely (30), clean (27), pretty (27), tidy (15), neat (9), maintained (9), new (9), central (9), easy (9), safe (6), busy (6), dark (3), dead (3)",139
Merton,Tooting Bec,Subway Station,51.43552149999999,-0.1595141,4.2,0.502435306708018,0.13333333333333333,0.6666666666666666,0.2,"Accessibility, Cleanliness, Atmosphere, Maintenance, Traffic, Aesthetics, General","busy (18), good (9), safe (9), beautiful (9), old (9), clean (9), lovely (9), noisy (6), tidy (3), roomy (3), difficult (3)",74
Merton,Balham,Subway Station,51.44342169999999,-0.1531109,4.1,0.45731959541638695,0.2,0.8,0.0,"Traffic, Atmosphere, Accessibility","busy (9), noisy (6), far (2)",51
Merton,East Putney,Subway Station,51.45908490000001,-0.2107763,3.9,0.6337384402751922,0.0,0.4,0.6,"Accessibility, Noise, Cleanliness, Atmosphere, Traffic, General","loud (9), busy (9), good (9), far (9), quiet (9), dirty (9), noisy (6), safe (6)",73
Merton,Southside Shopping Centre,Shopping Mall,51.4551102,-0.1939974,4.2,0.6156399627526601,0.06666666666666667,0.26666666666666666,0.6666666666666666,"Accessibility, Cleanliness, Atmosphere, Maintenance, Traffic, Aesthetics, General","good (58), parking (45), convenient (18), great (18), safe (12), clean (9), maintained (9), crowded (9), easy (9), lovely (9), old (9), busy (9), wonderful (9), tidy (6), fantastic (6), dark (3), dead (3), roomy (3), noisy (3), lighting (3), cars (3), relaxing (1)",9210
Merton,Times Square Shopping Centre,Shopping Mall,51.3637531,-0.1920222,3.8,0.6180389006932576,0.0,0.4666666666666667,0.5333333333333333,"Aesthetics, Maintenance, Atmosphere, General","great (45), good (15), new (9), attractive (9), excellent (9), maintained (2), messy (2)",2141
Merton,Sutton Town Centre,Shopping Mall,51.3647005,-0.1938194,4.6,0.5338065365950266,0.0,0.8,0.2,"Traffic, General","walking (9), great (9), good (9), parking (3), busy (3)",14
Merton,Wandsworth Common,Natural Feature,51.444945,-0.1703269,4.7,0.54626411596934,0.06666666666666667,0.5333333333333333,0.4,"Comfort, Atmosphere, Aesthetics, Traffic, General","great (27), lovely (18), cyclists (9), walking (9), excellent (9), safe (9), pleasant (9), calm (6), parking (3)",88
Merton,Edgecombe Hall Pond,Natural Feature,51.4458427,-0.2111964,4.5,0.5506818956798978,0.1111111111111111,0.5555555555555556,0.3333333333333333,"Aesthetics, Accessibility","near (12), pretty (9), beautiful (9), tidy (6), lively (6), lovely (6), parking (3), relaxing (3)",8
Merton,7 Post Pond,Natural Feature,51.44522629999999,-0.2228766,4.3,0.5090565383434296,0.0,0.6666666666666666,0.3333333333333333,"Noise, Atmosphere, General","great (9), quiet (1)",3
Merton,Seven Islands Pond,Natural Feature,51.3983021,-0.1527366,4.5,0.6810053169727326,0.0,0.4,0.6,"Noise, Atmosphere, Aesthetics","lovely (22), beautiful (18), gorgeous (9), peaceful (9), parking (6), walking (6)",13
Merton,King's Mere,Natural Feature,51.4450082,-0.2296253,5.0,0.4561980499161614,0.3333333333333333,0.6666666666666666,0.0,"Noise, Atmosphere, Accessibility","central (9), peaceful (9), safe (3), walking (3)",4
Merton,Plough Green Pond,Natural Feature,51.38470419999999,-0.2534009,3.0,0.0,0.0,0.0,0.0,,,1
Merton,Curling Pond,Natural Feature,51.4434794,-0.2351696,5.0,0.6645490527153015,0.0,0.3333333333333333,0.6666666666666666,"Noise, Atmosphere, General","perfect (9), peaceful (6)",1
Merton,Scio Pond,Natural Feature,51.44627149999999,-0.2339071,4.2,0.45943081710073685,0.2222222222222222,0.7777777777777778,0.0,"Aesthetics, Noise, Cleanliness, Atmosphere","clean (9), peaceful (9), lovely (6)",5
Merton,Martin's Pond,Natural Feature,51.4372019,-0.2648113,3.0,0.4969715078671773,0.2,0.6,0.2,,safe (6),5
Merton,One Island Pond,Natural Feature,51.3914288,-0.142266,4.0,0.0,0.0,0.0,0.0,,,2
Merton,Still Pond,Natural Feature,51.4315136,-0.2769779,4.9,0.5449746211369833,0.26666666666666666,0.26666666666666666,0.4666666666666667,"Noise, Atmosphere, Aesthetics, Traffic, General","lovely (30), peaceful (9), beautiful (9), great (9), quiet (9), stunning (3)",9
Merton,Wandsworth Cemetery,Cemetery,51.44429590000001,-0.1831909,4.2,0.5725632786750794,0.06666666666666667,0.6666666666666666,0.26666666666666666,"Noise, Cleanliness, Atmosphere, Maintenance, Aesthetics, Traffic, General","maintained (24), good (21), busy (18), peaceful (9), great (9), wonderful (9), safe (6), tidy (3), walking (3), lovely (2)",27
Merton,Western Cemetery (Streatham),Cemetery,51.40732969999999,-0.141969,4.5,0.3193678657213847,1.0,0.0,0.0,,,4
Merton,Kingston Cemetery & Crematorium,Cemetery,51.4056663,-0.2881598,3.8,0.5966391086578369,0.0,0.3333333333333333,0.6666666666666666,"Comfort, Maintenance, Traffic, Aesthetics, General","good (18), safe (12), pretty (9), broken (9), improved (9), welcoming (9), tidy (6), messy (6), walking (3), flow (3)",39
Merton,Streatham Park Cemetery,Cemetery,51.40631639999999,-0.1455706,4.1,0.4695136696100235,0.0,1.0,0.0,Comfort,"pleasant (9), good (3)",9
Merton,Surbiton Cemetery,Cemetery,51.4002427,-0.2875925,3.2,0.7575440724690755,0.0,0.13333333333333333,0.8666666666666667,"Accessibility, Noise, Cleanliness, Atmosphere, Maintenance, Aesthetics, Traffic, General","clean (18), bikes (18), lovely (18), noisy (15), peaceful (15), broken (9), poor (9), safe (9), maintained (9), far (9), empty (9), good (9), tidy (6), messy (6), active (3), roomy (3)",13
Merton,Huguenot Burial Ground,Cemetery,51.4582336,-0.1835656,5.0,0.7026061018308004,0.0,0.0,1.0,"Noise, Traffic, Aesthetics","lovely (9), traffic (9)",1
Merton,Cemetery,Cemetery,51.4611899,-0.2208447,5.0,0.264064684510231,1.0,0.0,0.0,Maintenance,old (9),1
Merton,Old Church,Church,51.4392651,-0.1481993,5.0,0.48453788459300995,0.0,1.0,0.0,"Maintenance, General","old (18), great (9)",3
Merton,"Our Lady & St Peter RC Church, Wimbledon",Church,51.4472889,-0.2199408,4.8,0.6879438996315003,0.0,0.2,0.8,"Comfort, Cleanliness, Atmosphere, Maintenance, Aesthetics, General","good (30), unattractive (18), lovely (18), tidy (12), modern (9), welcoming (9), clean (9), noisy (3), safe (3), dead (3), cars (3)",57
Merton,St. Pius X Roman Catholic Church,Church,51.4084981,-0.2750801,4.5,0.5441945334275563,0.0,1.0,0.0,"Noise, Traffic, Aesthetics, General","traffic (9), good (9), lovely (9), great (9), messy (6), safe (3), tidy (3)",15
Merton,"Christ Church, New Malden",Church,51.40689690000001,-0.2574814999999999,4.4,0.5506223365664482,0.0,0.75,0.25,"Aesthetics, General","good (9), lovely (3)",7
Merton,New Malden Baptist Church,Church,51.40031219999999,-0.2645266,4.6,0.6882673839728037,0.0,0.2,0.8,"Accessibility, Cleanliness, Maintenance, Aesthetics, Traffic, General","parking (27), lovely (21), great (18), good (18), clean (9), easy (9), difficult (9), amazing (9), new (9), safe (3), beautiful (3), noisy (3)",38
Merton,"Emmanuel Church, Morden",Church,51.3824274,-0.2161179,4.5,0.5859959622224172,0.0,0.75,0.25,"Noise, Traffic, General","good (9), traffic (9)",10
Merton,Victory Baptist Church,Church,51.4201961,-0.1637129,5.0,0.6334965030352274,0.0,0.3333333333333333,0.6666666666666666,Atmosphere,"vibrant (9), messy (3), good (3), safe (3)",3
Merton,North Cheam Baptist Church,Church,51.3803723,-0.2164962,5.0,0.6853556210796038,0.0,0.5,0.5,"Comfort, Aesthetics, General","welcoming (9), lovely (6), fantastic (6), wonderful (3)",5
Merton,The Church of Jesus Christ of Latter-day Saints,Church,51.3981246,-0.1728684,4.3,0.5386872907479604,0.4666666666666667,0.13333333333333333,0.4,General,"good (9), fantastic (6), wonderful (3)",15
Merton,Tooting Junction Baptist Church,Church,51.4201202,-0.1638104,3.9,0.4807283679644267,0.2,0.6666666666666666,0.13333333333333333,"Comfort, Accessibility, General","welcoming (9), far (9), fantastic (3), tidy (3), loud (3), good (3), safe (3), old (2)",18
Merton,"St Augustine's Church, Tooting",Church,51.4308352,-0.16752,4.8,0.6339961111545562,0.06666666666666667,0.3333333333333333,0.6,"Accessibility, Noise, Atmosphere, Aesthetics, General","lovely (9), wonderful (9), peaceful (9), calm (6), safe (3), accessible (3), honking (1)",10
Merton,Mitcham Baptist Church,Church,51.4075095,-0.1626242,4.5,0.6478611694441901,0.0,0.6666666666666666,0.3333333333333333,General,"great (45), good (18), amazing (9)",4
Merton,Tooting Methodist Church,Church,51.42897239999999,-0.1649478,4.4,0.6361781398455302,0.0,0.4,0.6,"Aesthetics, General","good (18), excellent (9), lovely (6), fantastic (6), wonderful (3)",18
Merton,F.L. Beadle & Sons - Civil & Electrical Engineers,Parking,51.3723164,-0.2313426,5.0,0.5427806377410889,0.0,1.0,0.0,"Cleanliness, Traffic, General","vehicle (9), tidy (9), great (9), good (9), flow (3), far (3), loud (3)",1
Merton,NCP Wandsworth Southside 2,Parking,51.4557234,-0.1953768,3.7,0.5604075531164805,0.0,0.6,0.4,"Traffic, Accessibility, General","parking (72), tidy (9), easy (9), good (9), walking (9), messy (8), cars (5)",174
Merton,FYCO Limited,Car Wash,51.4574364,-0.1972783,2.6,0.6357361396153768,0.0,0.4,0.6,"Cleanliness, Atmosphere, Maintenance, Traffic, General","clean (21), dirty (18), tidy (12), busy (9), broken (9), great (9), good (9), cars (8), noisy (3)",10
Merton,Gibson Road Multi-storey Car Park,Parking,51.3623521,-0.1970418,3.6,0.6690813501675924,0.0,0.6,0.4,"Comfort, Traffic, Accessibility, General","cars (47), parking (42), spacious (9), terrible (9), poor (9), safe (3), noisy (3), central (3)",87
Merton,Cheam Library,Library,51.35948209999999,-0.2167520999999999,3.7,0.7138193607330322,0.0,0.26666666666666666,0.7333333333333333,"Maintenance, Noise, General","messy (21), good (9), fantastic (9), new (9), great (9), safe (3), loud (3)",27
Merton,Roehampton Library,Library,51.4497754,-0.2418853999999999,4.5,0.6582936922709147,0.0,0.4,0.6,"Aesthetics, Accessibility, General","easy (18), lovely (12), good (9), wonderful (9), amazing (9), messy (6), safe (3)",75
Merton,Northcote Library,Library,51.4552433,-0.1648181,4.3,0.5840102016925812,0.13333333333333333,0.4,0.4666666666666667,"Accessibility, Noise, Cleanliness, Atmosphere, Maintenance, Traffic, Aesthetics, General","new (36), old (27), beautiful (9), busy (9), excellent (9), quiet (9), good (9), accessible (9), near (6), safe (6), lovely (6), clean (3), updated (3)",33
Merton,Balham Library,Library,51.4454409,-0.1521435,4.6,0.7789199789365132,0.0,0.06666666666666667,0.9333333333333333,"Noise, Atmosphere, Aesthetics, Traffic, General","great (33), lovely (18), peaceful (9), calm (9), parking (9), fantastic (9), amazing (9), good (3), safe (3)",70
Merton,Worcester Park Library,Library,51.3780549,-0.241505,4.6,0.5889306445916493,0.2,0.2,0.6,"Maintenance, Traffic, Aesthetics, General","good (18), lovely (12), amazing (9), wonderful (9), perfect (9), modern (9), parking (9), excellent (9), flow (9), safe (6), messy (3)",35
Merton,University of Roehampton London,University,51.4563401,-0.2446496,4.0,0.6248560508092245,0.0,0.5333333333333333,0.4666666666666667,"Accessibility, Noise, Atmosphere, Maintenance, Aesthetics, General","central (18), amazing (18), modern (18), safe (15), near (9), lovely (9), peaceful (9), beautiful (9), connected (7), tidy (6), messy (6), busy (3), noisy (3), parking (3), good (3), walking (3), improved (3)",699
Merton,Cheam Leisure Centre,Gym,51.3683533,-0.224559,3.5,0.6687248667081197,0.0,0.4666666666666667,0.5333333333333333,"Accessibility, Cleanliness, Maintenance, Aesthetics, General","tidy (24), good (21), safe (15), old (12), messy (9), maintained (9), pretty (9), bad (9), modern (9), dirty (9), great (9), noisy (6), poor (6), roomy (3), clean (3), near (3)",315
Merton,Nuffield Health Wandsworth Fitness & Wellbeing Gym,Gym,51.4472002,-0.1945628,3.1,0.6149013539155325,0.06666666666666667,0.4666666666666667,0.4666666666666667,"Accessibility, Comfort, Cleanliness, Atmosphere, Maintenance, Aesthetics, General","good (27), active (18), welcoming (18), easy (18), tidy (15), poor (9), spacious (9), clean (9), pretty (9), messy (9), terrible (9), safe (6), disappointing (6), cars (6), calm (6), cozy (6), new (3), roomy (3), noisy (3), upgraded (3), maintained (3)",90
Merton,Kingston University London Kingston Hill Campus,University,51.42928309999999,-0.2648284999999999,4.5,0.5589921116828919,0.0,0.6666666666666666,0.3333333333333333,"Maintenance, Traffic, Safety, General","great (15), safe (9), modern (9), perfect (9), walking (9), parking (9), old (9), new (9), good (9), cars (6), lovely (6), bad (3), busy (3), calm (3), cozy (3)",276
Merton,Kingston University London Roehampton Vale Campus,University,51.4373429,-0.2516120999999999,4.4,0.6846799731254578,0.2,0.0,0.8,"Comfort, Traffic, General","good (18), great (18), parking (15), excellent (9), enjoyable (9), wonderful (6), tidy (3), safe (3), fantastic (3)",50
Merton,Carshalton College,University,51.37185239999999,-0.1652401,3.7,0.5906584044297536,0.2,0.4,0.4,"Comfort, Cleanliness, Traffic, Aesthetics, General","worst (9), welcoming (9), safe (6), messy (6), tidy (3), clean (3)",95
Merton,Holistic Healing College,University,51.4436271,-0.1667529,5.0,0.9059508045514425,0.0,0.0,1.0,General,"wonderful (9), messy (6), noisy (3), tidy (3), good (3)",1
Merton,Whitelands College,University,51.4485947,-0.2434607,4.5,0.6817276994387309,0.0,0.4,0.6,"Safety, Noise, Comfort, Atmosphere, Maintenance, Aesthetics, General","beautiful (18), great (18), quiet (9), safe (9), cozy (9), excellent (9), walking (6), parking (6), lovely (6), roomy (3), noisy (3)",29
Merton,Kingston Hospital,Hospital,51.4148217,-0.2823991,3.4,0.7577951947848002,0.0,0.2,0.8,"Maintenance, Atmosphere, Accessibility, General","messy (21), great (18), bad (18), easy (12), roomy (9), fantastic (9), calm (9), good (9), amazing (9), noisy (6), tidy (3), safe (3), improved (2)",838
Merton,Wandsworth Medical Centre,Hospital,51.45376599999999,-0.1921841,3.0,0.6081111351648967,0.13333333333333333,0.4666666666666667,0.4,General,"messy (15), great (9), wonderful (9), tidy (3)",231
Merton,Queen Mary's Hospital,Hospital,51.4556562,-0.2426608999999999,3.9,0.5791947583357493,0.0,0.4,0.6,"Maintenance, Cleanliness, Accessibility, General","easy (12), maintained (9), clean (9), difficult (9), great (9), excellent (9), cars (3), parking (3), tidy (3), noisy (3), near (3)",246
Merton,Royal Hospital For Neuro-disability,Hospital,51.45162699999999,-0.2141958,3.9,0.8036691506703695,0.0,0.2,0.8,"Aesthetics, Maintenance, Atmosphere, General","worst (27), good (21), lovely (18), new (9), relaxing (9), great (9), messy (6), horrible (6), damaged (3), poor (3), walking (3), noisy (3)",55
Merton,Churchill Medical Centre (Kingston),Hospital,51.41340899999999,-0.2882018,2.4,0.5493053456147512,0.2,0.4,0.4,"Maintenance, Aesthetics, Accessibility, General","good (27), tidy (21), bad (18), safe (15), disappointing (9), noisy (9), messy (9), poor (9), excellent (9), new (9), difficult (9), easy (9), old (9), lively (3), near (3)",163
Merton,"St. Margaret's Badminton Club, Tooting",Museum,51.4375305,-0.1583116,4.3,0.7916051546732584,0.0,0.1111111111111111,0.8888888888888888,"Aesthetics, General","great (9), wonderful (9), excellent (9), lovely (6)",6
Merton,Whitehall,Museum,51.35944720000001,-0.2172667,4.7,0.6752836644649506,0.0,0.2,0.8,"Accessibility, Cleanliness, Atmosphere, Maintenance, Aesthetics, Traffic, General","safe (15), beautiful (9), maintained (9), attractive (9), pretty (9), accessible (9), good (9), near (3)",118
Merton,Dorich House Museum,Museum,51.43335639999999,-0.2630587999999999,4.7,0.6679025093714396,0.0,0.4,0.6,"Accessibility, Comfort, Cleanliness, Traffic, Aesthetics, General","beautiful (27), wonderful (18), parking (18), perfect (9), clean (9), gorgeous (9), spacious (9), easy (9), safe (6), lighting (3), lovely (1), busy (1)",115
Merton,Stanley Picker House,Museum,51.42277989999999,-0.2685178999999999,5.0,0.0,0.0,0.0,0.0,,,2
Merton,London Sewing Machine Museum,Museum,51.4365653,-0.1586657,4.7,0.5400546458032396,0.0,1.0,0.0,"Accessibility, Safety, Noise, Maintenance, General","amazing (18), improved (15), safe (15), good (12), accessible (9), police (9), silent (9), perfect (9), modern (9), noisy (3), new (3), music (3), walking (3), dark (3), dead (3), near (3), tidy (3)",3
Merton,Wandsworth Prison Museum,Museum,51.4503499,-0.1765756,4.2,0.5518579185009003,0.0,0.9333333333333333,0.06666666666666667,"Maintenance, Cleanliness, General","good (9), maintained (9), safe (6), cars (3), parking (3), dark (3), dead (3), tidy (3)",24
Merton,Honeywood Museum,Museum,51.3651858,-0.1649999,4.6,0.6171896457672119,0.0,0.5333333333333333,0.4666666666666667,"Comfort, Atmosphere, Maintenance, Traffic, Aesthetics, General","pleasant (9), parking (9), driving (9), good (9), wonderful (9), cozy (9), modern (9), serene (9), charming (6), cars (3), safe (3), walking (3), roomy (3)",297
Merton,Art Movement,Art Gallery,51.4409968,-0.1743681,5.0,0.7507027586301168,0.0,0.3333333333333333,0.6666666666666666,"Maintenance, Aesthetics","new (9), beautiful (9)",7
Merton,MAGAN Gallery London,Art Gallery,51.43605600000001,-0.1601565,3.7,0.8803660141097175,0.0,0.0,1.0,"Safety, Comfort, Atmosphere, Maintenance, Aesthetics, Traffic, General","wonderful (18), noisy (18), fantastic (9), safe (9), vibrant (9), lively (9), inviting (9), terrible (9), beautiful (3), flow (3), lovely (3), tidy (3)",6
Merton,Gallery Midnight,Art Gallery,51.4381855,-0.1555049,4.9,0.8389035860697428,0.0,0.0,1.0,"Comfort, Atmosphere, Maintenance, Aesthetics, Traffic, General","lovely (15), vibrant (9), busy (9), great (9), beautiful (9), welcoming (9), lighting (3), calm (3), safe (3), tidy (3)",8
Merton,Platform 1 Gallery,Art Gallery,51.4464438,-0.1636642,3.7,0.4484786242246628,0.5,0.5,0.0,Maintenance,modern (9),3
Merton,Kristin Hjellegjerde Gallery,Art Gallery,51.45984000000001,-0.188785,4.8,0.638272744913896,0.16666666666666666,0.25,0.5833333333333334,"Aesthetics, General","amazing (12), stunning (9), great (9), lovely (3)",12
Merton,WWT London Wetland Centre,Tourist Attraction,51.476141,-0.234665,4.6,0.7223455468813579,0.0,0.0,1.0,"Noise, Maintenance, Traffic, Aesthetics, General","great (45), good (30), shouting (18), lovely (18), dark (9), dead (9), parking (9), walking (9), excellent (9), beautiful (9), pretty (9), new (9), tidy (6), modern (3), messy (3)",3405
Merton,Bishops Park,Park,51.4716726,-0.2171168,4.6,0.5975463052590688,0.0,0.4666666666666667,0.5333333333333333,"Aesthetics, Traffic, Accessibility, General","parking (30), walking (30), lovely (18), safe (15), far (9), near (9), great (9), good (9), relaxing (6), updated (3), repaired (3)",3330
Merton,Tooting Bec Common,Park,51.4410011,-0.1397635,4.5,0.6944745937983196,0.0,0.2,0.8,"Comfort, Cleanliness, Atmosphere, Maintenance, Aesthetics, Traffic, General","safe (24), good (21), busy (18), clean (15), parking (15), lovely (12), walking (12), maintained (11), active (9), cyclists (9), pleasant (9), fantastic (9), great (6), cars (6), dark (3), dead (3), pedestrian (3)",3252
Merton,"Wilderness Island, London Wildlife Trust",Park,51.3732935,-0.1583628,4.5,0.5905492504437765,0.0,0.7333333333333333,0.26666666666666666,"Aesthetics, Noise, Atmosphere, Accessibility","peaceful (18), quiet (18), lovely (18), safe (9), near (6), relaxing (3), muddy (3), parking (3), tidy (3)",276
Merton,Putney Heath Cricket Ground,Park,51.45009759999999,-0.2283811,4.4,0.6652678966522216,0.2,0.2,0.6,"Maintenance, Atmosphere, General","good (9), perfect (9), vibrant (6), noisy (3)",128
Merton,Kingston,Transit Station,51.41260519999999,-0.3010676999999999,4.0,0.6497383892536164,0.2,0.2,0.6,"Accessibility, Noise, Atmosphere, Aesthetics, Traffic, General","good (30), busy (18), messy (18), noisy (9), calm (9), worst (9), traffic (9), walking (3), near (3), dark (3), dead (3), roomy (3)",182
Merton,Ewell High Street Car Park,Transit Station,51.3482912,-0.2487655,5.0,0.0,0.0,0.0,0.0,,,1
Merton,West Norwood Fire Station,Bus Station,51.4258663,-0.1054869,5.0,0.4784209595786201,0.1111111111111111,0.8888888888888888,0.0,General,"good (9), risky (1)",3
Merton,Clapham South,Subway Station,51.45277649999999,-0.1478127,4.2,0.5678854684034983,0.0,0.6666666666666666,0.3333333333333333,"Maintenance, Cleanliness, Aesthetics, Accessibility","convenient (9), accessible (9), charming (9), old (9), tidy (6), clean (3), lovely (3), safe (3), noisy (3)",88
Merton,Putney Bridge,Subway Station,51.4679691,-0.2089232,4.3,0.5693655212720236,0.2,0.4,0.4,"Accessibility, Safety, Cleanliness, Atmosphere, Maintenance, Traffic, General","safe (21), busy (21), clean (12), old (9), accessible (9), easy (9), good (9), near (9), noisy (6), walking (6), upgraded (3)",104
Merton,Parsons Green,Subway Station,51.4752816,-0.2010216,3.8,0.5474575301011403,0.0,0.6,0.4,"Atmosphere, Maintenance, Traffic, Aesthetics, General","old (18), good (9), pretty (9), crowded (9), busy (9), charming (9), noisy (6), upgraded (3), safe (3)",64
Merton,Clapham Common,Subway Station,51.4617867,-0.138353,4.2,0.4989643613497416,0.2,0.6,0.2,"Accessibility, Safety, Noise, Cleanliness, Atmosphere, Aesthetics, Traffic, General","near (21), amazing (18), busy (18), far (18), safe (12), neat (12), new (12), empty (9), dangerous (9), crowded (9), music (9), beautiful (9), pretty (9), lovely (9), cozy (6), clean (6), ugly (6), walking (6), good (6), tidy (3)",109
Merton,Fulham Broadway,Subway Station,51.48033280000001,-0.1943638,4.3,0.6615862647692362,0.0,0.26666666666666666,0.7333333333333333,"Accessibility, Safety, Cleanliness, Atmosphere, Maintenance, General","good (45), calm (9), maintained (9), clean (9), great (9), wonderful (9), new (9), old (9), lovely (6), near (3), safe (3), busy (2)",236
Merton,Rotunda,Shopping Mall,51.4120368,-0.3002716,4.2,0.5808155397574107,0.0,0.6,0.4,"Accessibility, Atmosphere, Maintenance, Aesthetics, General","good (21), easy (18), modern (9), vibrant (9), appealing (9), lively (9), great (9), safe (3), busy (3), difficult (3)",2069
Merton,Eden Walk Shopping,Shopping Mall,51.4091775,-0.3036699,4.2,0.5131125291188557,0.13333333333333333,0.6666666666666666,0.2,"Safety, Cleanliness, Atmosphere, Traffic, Aesthetics, General","great (27), safe (27), lovely (18), busy (9), good (9), clean (3), neat (1), near (1), new (1)",4918
Merton,The Bentall Centre,Shopping Mall,51.4112777,-0.3047442,4.3,0.6705939829349518,0.0,0.4,0.6,"Accessibility, Safety, Atmosphere, Traffic, Aesthetics, General","lovely (39), security (18), police (18), busy (18), good (15), parking (9), great (9), safe (6), far (6), messy (3), risky (3), roomy (3)",10501
Merton,Valley Retail Park,Shopping Mall,51.37989040000001,-0.1264796,4.1,0.6582415699958801,0.0,0.26666666666666666,0.7333333333333333,"Accessibility, Comfort, Atmosphere, Maintenance, Traffic, Aesthetics, General","parking (42), good (36), great (15), noisy (12), safe (12), accessible (9), enjoyable (9), tidy (9), near (9), new (9), old (9), crowded (9), lovely (9), busy (9), flow (6), convenient (3), messy (3)",9405
Merton,Putney Exchange,Shopping Mall,51.46407720000001,-0.2156969,4.1,0.5964958131313324,0.06666666666666667,0.6,0.3333333333333333,"Comfort, Cleanliness, Atmosphere, Traffic, General","great (18), calm (9), excellent (9), tidy (9), spacious (9), walking (9), bad (9), lovely (6), good (6), noisy (6), clean (3), wonderful (3)",2601
Merton,Shopstop @ Clapham Junction,Shopping Mall,51.4635724,-0.1689101,3.9,0.5036557753880818,0.0,1.0,0.0,"Accessibility, Safety, General","good (21), great (18), safe (15), security (9), near (9), tidy (6), amazing (6), dark (3), dead (3), lovely (3)",540
Merton,West London Islamic Cultural Centre Mosque,Mosque,51.4767083,-0.2019629999999999,4.8,0.6338851888974507,0.0,0.4,0.6,"Accessibility, Comfort, Cleanliness, Atmosphere, Maintenance, Aesthetics, General","safe (15), wonderful (9), beautiful (9), good (9), spacious (9), new (9), active (9), clean (9), welcoming (9), easy (6), near (3), lovely (3)",892
Merton,Croydon (Mitcham Road) Cemetery and Crematorium,Cemetery,51.3936293,-0.1248193,4.2,0.647343800465266,0.0,0.3333333333333333,0.6666666666666666,"Noise, Comfort, Cleanliness, Atmosphere, Maintenance, Aesthetics, General","beautiful (21), lovely (18), great (12), maintained (9), spacious (9), comfortable (9), peaceful (9), wonderful (6), clean (6), safe (3), lighting (3), tidy (3), fantastic (3)",56
Merton,St Mary's Cemetery - Wandsworth,Cemetery,51.458505,-0.169836,4.3,0.5542840758959452,0.2,0.4,0.4,"Maintenance, Cleanliness, Aesthetics, General","charming (9), good (9), maintained (9), beautiful (9), safe (6), relaxing (3), walking (3)",8
Merton,Ham Christian Centre,Church,51.4340912,-0.3134866,4.4,0.6650988459587097,0.0,0.3333333333333333,0.6666666666666666,"Aesthetics, General","lovely (9), great (9)",8
Merton,Putney Lower Common Cemetery Chapel,Church,51.4693106,-0.2324493,4.4,0.5351872583230336,0.2,0.4666666666666667,0.3333333333333333,"Accessibility, Cleanliness, Atmosphere, Maintenance, Aesthetics, General","neglected (9), lovely (9), old (9), great (9), good (9), dead (9), beautiful (6), safe (3), near (3)",13
Merton,Boston Road Baptist Church,Church,51.3877277,-0.117651,4.5,0.48580850495232475,0.1111111111111111,0.7777777777777778,0.1111111111111111,"Comfort, General","spacious (9), amazing (3)",6
Merton,"All Saints, Fulham",Church,51.4686111,-0.2116667,4.6,0.733116090297699,0.0,0.2,0.8,"Noise, Atmosphere, Maintenance, Aesthetics, General","lovely (27), beautiful (27), wonderful (9), old (9), quiet (9), excellent (9), safe (6), walking (3), peaceful (3)",109
Merton,Barclay Hall Christian Fellowship,Church,51.4793508,-0.1969277,5.0,0.4461480875809987,0.6666666666666666,0.0,0.3333333333333333,General,fantastic (3),3
Merton,Ruach City Church - Streatham Hill,Church,51.4404476,-0.1258809,4.7,0.7905668417612711,0.0,0.2,0.8,"Accessibility, General","disappointing (18), far (9), noisy (9), good (9), amazing (9), accessible (9), tidy (6), maintained (6), safe (3), lively (3), lovely (3)",115
Merton,"Christ Church, Surbiton Hill",Church,51.3898597,-0.2924878,4.4,0.672125001748403,0.0,0.3333333333333333,0.6666666666666666,"Accessibility, Comfort, Maintenance, Aesthetics, General","lovely (30), welcoming (27), great (24), excellent (9), safe (9), beautiful (9), far (9), good (9), near (9), new (9), old (9), lively (3), dark (3), dead (3), parking (3)",26
Merton,Rose Car Park,Parking,51.407272,-0.3067043,2.9,0.7702907701333364,0.2,0.0,0.8,"Accessibility, Safety, Comfort, Cleanliness, Atmosphere, Maintenance, Traffic, General","cars (33), safe (30), great (27), parking (21), tight (18), busy (18), tidy (12), walking (12), central (9), worst (9), old (9), awful (9), broken (9), unpleasant (9), dark (9), clean (9), police (9), noisy (6), good (3), neglected (3), convenient (3)",458
Merton,Q-Park Eden Walk,Storage,51.409358,-0.3050950000000001,3.3,0.7176553765932719,0.0,0.4,0.6,"Safety, Comfort, Cleanliness, Maintenance, Traffic, Aesthetics, General","parking (33), poor (21), safe (18), cars (18), noisy (12), horrible (9), pedestrian (9), filthy (9), great (9), broken (9), driving (9), awful (9), lovely (9), unpleasant (9), unsafe (9), old (9), messy (6), tidy (3), wonderful (3), good (3)",145
Merton,Riverside West Car Park,Parking,51.4626584,-0.1893962,4.1,0.7363243420918782,0.0,0.06666666666666667,0.9333333333333333,"General, Comfort, Traffic, Safety","cars (33), parking (30), secure (18), tight (18), safe (15), excellent (9), great (9), good (9), messy (6), noisy (3)",65
Merton,CarParkDirect,Parking,51.4644219,-0.213943,3.4,0.5832871635754903,0.2,0.4,0.4,General,"good (9), cars (6), parking (6), pretty (3), noisy (3), tidy (3)",20
Merton,NCP Kingston Fairfield,Parking,51.4093075,-0.3015078,2.9,0.6665824274222056,0.06666666666666667,0.3333333333333333,0.6,"Accessibility, Comfort, Cleanliness, Maintenance, Traffic, Aesthetics, General","parking (87), cars (46), tight (27), driving (27), great (21), worst (18), damaged (18), far (15), clean (15), lovely (12), tidy (12), new (9), maintained (9), amazing (9), safe (9), perfect (9), ugly (3), bad (3), dead (3), noisy (3)",239
Merton,Canbury Place Car Park,Parking,51.4139087,-0.3013047,3.8,0.7138829469680786,0.0,0.4,0.6,"Traffic, Accessibility","parking (24), cars (12), convenient (9), difficult (9), tidy (3), vehicle (3)",141
Merton,The Bittoms Car Park,Parking,51.4056503,-0.3053517,3.2,0.6596802473068237,0.0,0.4666666666666667,0.5333333333333333,"Accessibility, Safety, Noise, Atmosphere, Aesthetics","dark (21), pretty (18), parking (15), safe (15), convenient (9), cars (9), quiet (9), tidy (3), messy (3), busy (3), dead (3), walking (3)",52
Merton,Shotfield Car Park,Parking,51.3574522,-0.1517676,3.7,0.480770738919576,0.2,0.6666666666666666,0.13333333333333333,"Accessibility, General","easy (9), safe (9), far (9), poor (9), tidy (6), parking (3), noisy (3)",18
Merton,SURBITON CARWASH,Car Wash,51.37660890000001,-0.3034244,3.3,0.6495140194892883,0.0,0.4666666666666667,0.5333333333333333,"Maintenance, Cleanliness, Aesthetics, General","clean (21), good (12), old (9), poor (9), tidy (9), pretty (9), terrible (9), cars (9), dirty (9), spotless (9), easy (3)",31
Merton,Chessington Carwash,Car Wash,51.37663569999999,-0.3035987,3.4,0.6365141868591309,0.2,0.2,0.6,"Maintenance, Cleanliness, Aesthetics, General","cars (18), great (18), clean (15), pretty (9), awful (9), wonderful (6), noisy (6), tidy (6), neat (6), near (6), new (6), safe (3), messy (3), dirty (3), fantastic (3)",31
Merton,Ace Hand Car Wash,Car Wash,51.376609,-0.3036214,3.6,0.7156703333059947,0.0,0.4,0.6,"Cleanliness, Atmosphere, Maintenance, Traffic, General","cars (27), clean (24), great (18), amazing (15), damaged (12), fantastic (9), filthy (9), muddy (9), busy (9), good (9), safe (9), disappointing (9), broken (3), noisy (3), lovely (3)",178
Merton,Kingston Library,Library,51.40928649999999,-0.300215,3.9,0.6529188474019368,0.0,0.6,0.4,"Accessibility, Noise, Comfort, Maintenance, Aesthetics, General","great (36), noisy (15), good (12), lovely (12), modern (9), cramped (9), fantastic (9), safe (9), pretty (9), excellent (9), screaming (9), poor (9), roomy (6), easy (6), dark (3), dead (3), near (3)",94
Merton,Tate Streatham Library,Library,51.4316603,-0.1289974,4.2,0.6392154594262441,0.0,0.4,0.6,"Comfort, Aesthetics, General","great (27), good (27), lovely (15), elegant (9), pleasant (9), messy (6), safe (3), busy (3)",87
Merton,Clapham Library,Library,51.4629807,-0.1332635,3.3,0.7043838779131572,0.0,0.4666666666666667,0.5333333333333333,"Accessibility, Noise, Comfort, Cleanliness, Atmosphere, Maintenance, Aesthetics, General","great (36), loud (18), good (18), lovely (12), quiet (9), clean (9), spacious (9), modern (9), easy (9), safe (6), tidy (3)",98
Merton,West Norwood Library,Movie Theater,51.4331689,-0.1029505,4.4,0.6169138034184773,0.2,0.2,0.6,"Noise, Comfort, Maintenance, General","great (36), worst (18), shouting (18), good (12), safe (9), wonderful (9), loud (9), awful (9), new (9), comfortable (9), ugly (3), messy (3), tidy (3), bikes (3)",240
Merton,Ewell Court Library and room hire,Library,51.361683,-0.260945,4.9,0.6981176217397054,0.0,0.2,0.8,"Comfort, Traffic, Aesthetics, General","lovely (30), great (24), parking (9), pleasant (9), good (9), roomy (3), safe (3), walking (3)",17
Merton,Kingston University Penrhyn Road Library,Library,51.4039319,-0.3036683,4.4,0.663563323020935,0.0,0.4666666666666667,0.5333333333333333,"Accessibility, Noise, Cleanliness, Atmosphere, Maintenance, Traffic, Aesthetics, General","new (21), amazing (18), clean (15), neat (9), convenient (9), traffic (9), good (9), busy (9), maintained (6), quiet (6), messy (6), safe (3), peaceful (3), wonderful (3), beautiful (3)",74
Merton,Kingston History Centre,Library,51.40827290000001,-0.305968,4.7,0.6380033642053604,0.5,0.0,0.5,Aesthetics,beautiful (9),3
Merton,Gingko,Library,51.46704090000001,-0.180317,5.0,0.42917702595392865,0.0,1.0,0.0,"Aesthetics, General",great (9),1
Merton,Wandsworth Heritage Service,Library,51.4641033,-0.1641236,5.0,0.704215943813324,0.0,0.0,1.0,,,2
Merton,Nuffield Health Wandsworth Southside Fitness & Wellbeing Gym,Gym,51.45617069999999,-0.1945598,2.7,0.7429429809252421,0.0,0.2,0.8,"Accessibility, Safety, Comfort, Cleanliness, Atmosphere, Maintenance, General","dirty (30), great (18), safe (15), clean (15), good (15), tidy (12), filthy (12), old (9), rubbish (9), central (9), spacious (9), wonderful (9), maintained (9), relaxing (9), terrible (9), near (9), broken (9), new (9), poor (9), roomy (6), noisy (6), messy (6), lovely (6), updated (3)",208
Merton,Bright Horizons Sutton Day Nursery and Preschool,School,51.3617183,-0.198777,4.6,0.7486207286516825,0.0,0.2,0.8,"Traffic, Aesthetics, Accessibility, General","lovely (18), wonderful (18), tidy (12), great (9), far (9), pretty (9), good (9), fantastic (9), safe (6), noisy (3), amazing (3), messy (3), roomy (3), flow (3)",14
Merton,Kingston College,University,51.4068845,-0.3046307999999999,3.6,0.5960785607496898,0.2,0.3333333333333333,0.4666666666666667,"Safety, Comfort, Atmosphere, Maintenance, Aesthetics, General","good (33), excellent (27), ugly (21), new (18), relaxing (9), lovely (9), security (9), welcoming (9), noisy (6), fantastic (6), tidy (3)",217
Merton,Kingston University Penrhyn Road Campus,University,51.4032364,-0.3034851000000001,4.1,0.6679570297400157,0.0,0.26666666666666666,0.7333333333333333,"Accessibility, Comfort, Cleanliness, Maintenance, Aesthetics, Traffic, General","perfect (18), great (15), pretty (9), neat (9), spacious (9), amazing (9), maintained (9), bad (9), tidy (9), parking (9), safe (6), messy (6), inconvenient (6), good (3)",474
Merton,Richmond & Hillcroft Adult & Community College - Hillcroft Campus,University,51.39192300000001,-0.3013408,4.1,0.62112864057223,0.0,0.6,0.4,General,"great (9), amazing (9), good (9), terrible (9), connected (3), messy (3)",15
Merton,South Bank Colleges,University,51.4587037,-0.1410873,3.2,0.764200645685196,0.06666666666666667,0.13333333333333333,0.8,"Accessibility, Atmosphere, Maintenance, Aesthetics, Traffic, General","messy (20), safe (18), worst (18), tidy (15), noisy (12), busy (9), far (9), new (9), updated (3), good (3), easy (3), improved (3)",146
Merton,"The Institute of Cancer Research, London",University,51.34409489999999,-0.1892491,4.4,0.611580862601598,0.06666666666666667,0.3333333333333333,0.6,"Cleanliness, General","wonderful (6), safe (3), great (3), clean (3), horrible (3), fantastic (3)",19
Merton,Nescot (North East Surrey College of Technology),University,51.3423181,-0.2447662999999999,3.0,0.8254886269569397,0.0,0.0,1.0,"Safety, Cleanliness, Atmosphere, Traffic, General","bad (45), tidy (33), rubbish (27), horrible (9), noisy (9), good (9), safe (9), dangerous (9), walking (9), fantastic (6), messy (5), crowded (3)",105
Merton,Croydon University Hospital,Hospital,51.3899222,-0.1102979,2.8,0.7971471826235453,0.0,0.2,0.8,"Noise, Comfort, Atmosphere, Maintenance, Aesthetics, Traffic, General","poor (36), noisy (33), tidy (30), busy (18), messy (15), good (9), shouting (9), safe (9), bad (9), welcoming (9), easy (3)",1192
Merton,Royal Marsden Hospital - Sutton,Hospital,51.34336099999999,-0.1905314,4.7,0.8168922742207845,0.0,0.2,0.8,"Maintenance, Cleanliness, General","good (18), messy (9), new (9), clean (9), safe (6), amazing (6), lively (3)",221
Merton,Queenstown Road Medical Practice,Hospital,51.4669777,-0.1503445,2.4,0.6354816575845083,0.0,0.6,0.4,Accessibility,"far (18), difficult (9), safe (6), messy (3)",58
Merton,Kiki's Children's Clinic,Hospital,51.4535119,-0.1536752,5.0,0.8908312201499939,0.0,0.0,1.0,"Maintenance, Accessibility, General","safe (18), fantastic (18), old (18), far (9), improved (9), wonderful (9), amazing (9), lovely (3), noisy (3), messy (3), tidy (3)",12
Merton,Bourne Hall Museum,Museum,51.3504203,-0.2524728,4.5,0.5983059485753377,0.0,0.4,0.6,General,"good (27), great (18), amazing (9)",10
Merton,Kingston Museum,Museum,51.40957179999999,-0.3003078,4.4,0.6139256099859873,0.2,0.2,0.6,"Accessibility, Comfort, Atmosphere, Maintenance, Traffic, Aesthetics, General","lovely (24), safe (21), beautiful (9), flow (9), connected (9), charming (9), welcoming (9), great (9), empty (9), noisy (3)",179
Merton,The Russell Gallery,Art Gallery,51.4672344,-0.2180614,4.7,0.7653688907623291,0.0,0.0,1.0,General,"great (27), fantastic (18), wonderful (9), good (3)",11
Merton,Clarendon Fine Art Kingston Bentalls,Art Gallery,51.4122436,-0.3047744,4.3,0.6699359754721324,0.0,0.3333333333333333,0.6666666666666666,"Aesthetics, General","amazing (12), wonderful (9), great (9), beautiful (9)",27
Merton,THE LAST SUPPER art gallery,Art Gallery,51.456351,-0.162677,5.0,0.6724798917770386,0.0,0.06666666666666667,0.9333333333333333,"Accessibility, Comfort, Cleanliness, Atmosphere, Maintenance, General","great (27), good (9), comfortable (9), inviting (9), muddy (9), safe (9), chaotic (9), new (9), clean (9), easy (9), roomy (3), tidy (3), walking (3)",8
Merton,Corner Gallery,Art Gallery,51.35745379999999,-0.1689201,4.8,0.7929183721542359,0.0,0.0,1.0,"Maintenance, Comfort, Aesthetics, General","great (27), beautiful (18), updated (9), fantastic (9), new (9), excellent (9), amazing (9), good (9), welcoming (9), wonderful (9), stunning (9), safe (3), lovely (3)",21
Merton,1of1design,Art Gallery,51.4163851,-0.3087907,5.0,0.655064590771993,0.2,0.2,0.6,"Accessibility, Cleanliness, Atmosphere, Maintenance, Aesthetics, General","great (36), safe (21), lovely (12), neat (9), vibrant (9), easy (9), lively (9), wonderful (3), roomy (3)",23
