Borough,Location Name,Type,latitude,longitude,Rating,Overall Sentiment Score,Negative Score,Neutral Score,Positive Score,Main Issues,Emotion Keywords,Review Count
Wandsworth,Bramford Community Gardens,Park,51.461652,-0.187019,4.0,0.5351862668991089,0.0,1.0,0.0,"Cleanliness, Traffic","walking (33), safe (15), tidy (9), parking (9), dark (3), dead (3)",10
Wandsworth,The Spit,Park,51.4616054,-0.1947133,4.2,0.49228029847145083,0.2,0.6,0.2,"Maintenance, Noise, Atmosphere, General","great (9), old (9), peaceful (9), dark (3), dead (3), walking (3)",73
Wandsworth,South Park Netball Courts,Park,51.467462,-0.1934573,4.5,0.6227977077166239,0.06666666666666667,0.2,0.7333333333333333,"Safety, Maintenance, Traffic, Aesthetics, General","parking (36), safe (15), beautiful (9), perfect (9), walking (9), noisy (6), poor (3), lovely (3), peaceful (3)",17
Wandsworth,South Park,Park,51.4690816,-0.1944951,4.4,0.6589264591534932,0.06666666666666667,0.4,0.5333333333333333,"Cleanliness, Maintenance, Aesthetics, Traffic, General","maintained (18), lovely (18), good (18), safe (15), parking (12), walking (9), amazing (9), neat (3)",906
Wandsworth,Vicarage Gardens,Park,51.4736158,-0.17716,4.4,0.4984622975190481,0.26666666666666666,0.3333333333333333,0.4,Comfort,"pleasant (9), cozy (6), parking (3), walking (3), relaxing (1)",45
Wandsworth,King George's Park,Park,51.4521109,-0.1947431,4.5,0.638001145919164,0.0,0.6,0.4,"Accessibility, Safety, Noise, Cleanliness, Atmosphere, Maintenance, Aesthetics, General","safe (30), amazing (18), parking (18), peaceful (18), near (9), walking (9), fantastic (9), beautiful (9), serene (9), great (9), clean (9), accessible (9), improved (9), convenient (9), perfect (7), lovely (6), tidy (3), good (3)",1939
Wandsworth,Wandsworth Common,Park,51.45316469999999,-0.169008,4.5,0.5952290197213491,0.2,0.26666666666666666,0.5333333333333333,"Accessibility, Safety, Comfort, Aesthetics, Traffic, General","parking (21), safe (18), beautiful (18), amazing (18), walking (16), easy (9), lovely (9), inconvenient (9), great (9), spacious (9), busy (3), good (3), lively (2)",2835
Wandsworth,The Frying Pan,Park,51.4550582,-0.1772018,1.0,0.8524423042933146,0.0,0.0,1.0,General,worst (9),1
Wandsworth,Bramford Gardens,Park,51.46158150000001,-0.1865008,4.0,0.0,0.0,0.0,0.0,,,1
Wandsworth,Harrington Porter,Park,51.4531936,-0.1745382,5.0,0.7569753209749858,0.0,0.26666666666666666,0.7333333333333333,"Aesthetics, General","excellent (18), fantastic (18), beautiful (9), great (9), perfect (9), tidy (6), safe (3), roomy (3)",35
Wandsworth,Garratt Lane Old Burial Ground,Park,51.45561510000001,-0.1915499000000001,4.1,0.6592906435330709,0.0,0.3333333333333333,0.6666666666666666,"Maintenance, Comfort, Cleanliness, Atmosphere","pleasant (9), maintained (9), safe (6), tidy (3), clean (3), relaxing (3), lovely (3), calm (1)",36
Wandsworth,PropertyJam,Park,51.4501406,-0.1866131,5.0,0.7743917836083306,0.0,0.3333333333333333,0.6666666666666666,General,"good (18), great (18), messy (12), fantastic (9), jammed (6), repaired (4), roomy (3), lighting (3), lively (2)",4
Wandsworth,Sterling Landscapes Ltd,Park,51.461505,-0.193698,5.0,0.7026027366518974,0.0,0.5,0.5,"Maintenance, Cleanliness, Accessibility, General","easy (18), fantastic (15), tidy (12), new (9), good (9), safe (3)",6
Wandsworth,Wandsworth Common Pond,Park,51.4542745,-0.1680897,4.6,0.6559423685073853,0.2,0.0,0.8,"Maintenance, Cleanliness, Atmosphere, General","great (9), relaxing (9), maintained (9), good (9)",74
Wandsworth,Harbour Clubs Chelsea,Gym,51.4695253,-0.1842698,4.4,0.8740338484446207,0.0,0.0,1.0,"Comfort, Cleanliness, Maintenance, Traffic, General","amazing (36), great (18), spotless (9), perfect (9), fantastic (9), clean (9), maintained (9), welcoming (9), walking (9), wonderful (9), messy (6), tidy (3), safe (3), lovely (3)",773
Wandsworth,Cineworld Wandsworth,Movie Theater,51.45393780000001,-0.1933645,4.3,0.5363530298074086,0.3333333333333333,0.26666666666666666,0.4,"Accessibility, Safety, Cleanliness, Maintenance, General","great (27), dark (9), clean (9), near (9), bad (9), new (9), safe (6), noisy (3), tidy (3), messy (3)",2896
Wandsworth,Clapham Junction Station,Transit Station,51.4646378,-0.169492,3.2,0.6840262571970622,0.0,0.4,0.6,"Accessibility, Noise, Cleanliness, Atmosphere, Maintenance, Traffic, General","busy (18), good (15), safe (12), near (9), clean (9), accessible (9), new (9), loud (9), worst (9), tidy (6)",95
Wandsworth,Wandsworth Town,Transit Station,51.4608293,-0.1879681,3.9,0.4513929128646851,0.13333333333333333,0.8666666666666667,0.0,"Accessibility, Noise, Cleanliness, Atmosphere, Maintenance, Aesthetics, Traffic, General","clean (27), busy (18), tidy (18), calm (9), beautiful (9), lovely (9), walking (9), old (9), stunning (9), modern (9), easy (9), noisy (9), near (9), great (9), peaceful (9), good (3), roomy (3)",88
Wandsworth,Clapham Junction,Train Station,51.4640143,-0.1700497,4.0,0.6310216625531514,0.0,0.6,0.4,"Accessibility, Cleanliness, Atmosphere, Maintenance, Traffic, General","busy (54), great (27), easy (18), safe (18), bad (18), good (18), far (12), noisy (12), tidy (12), accessible (9), maintained (9), broken (6), lively (2)",1300
Wandsworth,Imperial Wharf Station,Transit Station,51.4746666,-0.1842103,3.5,0.380339374144872,0.5,0.5,0.0,,"safe (3), good (3)",2
Wandsworth,Imperial Wharf,Train Station,51.4750534,-0.1826773,4.0,0.6136422614256541,0.2,0.3333333333333333,0.4666666666666667,"Safety, Cleanliness, Maintenance, Traffic, Aesthetics, General","clean (24), good (21), new (18), tidy (12), modern (9), great (9), beautiful (9), secure (3)",102
Wandsworth,Wandsworth Town Hall,Transit Station,51.4573,-0.190255,4.0,0.0,0.0,0.0,0.0,,,3
Wandsworth,Wandsworth Town Station,Transit Station,51.4607615,-0.1879575,3.3,0.6066659331321717,0.06666666666666667,0.5333333333333333,0.4,"Comfort, Atmosphere, Aesthetics, General","pretty (9), pleasant (9), horrible (9), bad (9), busy (6), good (6), disappointing (5), walking (3), noisy (3)",9
Wandsworth,Ram Street,Transit Station,51.4582515,-0.1920985,5.0,0.0,0.0,0.0,0.0,,,1
Wandsworth,Southside Shopping Centre (Stop T),Bus Station,51.45612000000001,-0.192758,4.0,0.0,0.0,0.0,0.0,,,1
Wandsworth,Southside Shopping Centre (Stop V),Bus Station,51.456267,-0.1927911,4.5,0.0,0.0,0.0,0.0,,,2
Wandsworth,Mapleton Road,Bus Station,51.4538333,-0.1921797,5.0,0.6536327997843424,0.0,0.0,1.0,,,3
Wandsworth,Wandsworth Plain (Stop G),Bus Station,51.458416,-0.1950474,1.0,0.0,0.0,0.0,0.0,,,1
Wandsworth,Wandsworth Police Station (Stop X),Bus Station,51.457306,-0.195777,3.3,0.40170226991176605,0.3333333333333333,0.6666666666666666,0.0,"Traffic, Accessibility, Safety","walking (9), difficult (9), police (9), noisy (3)",4
Wandsworth,Armoury Way (Stop E),Bus Station,51.4584924,-0.1960054,5.0,0.2632173498471578,1.0,0.0,0.0,,,2
Wandsworth,Wandsworth Police Station (Stop Y),Bus Station,51.457203,-0.196602,2.5,0.9679628213246664,0.0,0.0,1.0,,"safe (3), busy (3), noisy (3)",2
Wandsworth,Armoury Way (Stop D),Bus Station,51.458363,-0.1965099,5.0,0.0,0.0,0.0,0.0,,,2
Wandsworth,Clapham Junction Station (Stop C),Bus Station,51.4631398,-0.1700473,4.3,0.501061291495959,0.3333333333333333,0.4666666666666667,0.2,"Traffic, Atmosphere, Accessibility, General","busy (21), easy (9), excellent (9)",12
Wandsworth,Clapham Junction Station (Stop L),Bus Station,51.4631242,-0.1696689,3.7,0.47946791847546893,0.0,1.0,0.0,,"busy (3), safe (3)",3
Wandsworth,Clapham Junction Station (Stop M),Bus Station,51.46339210000001,-0.1686747,4.2,0.5637849072615305,0.25,0.5,0.25,"Atmosphere, Accessibility, General","busy (10), crowded (9), good (9), central (9), safe (3)",6
Wandsworth,Northcote Road (Stop Z),Bus Station,51.460759,-0.1662155,5.0,0.828270673751831,0.0,0.0,1.0,,busy (3),2
Wandsworth,Clapham Junction Station (Stop D),Bus Station,51.46361899999999,-0.168391,4.0,0.6508891185124716,0.0,0.5,0.5,,lovely (3),5
Wandsworth,Clapham Junction Station (Stop H),Bus Station,51.46407579999999,-0.167766,1.0,0.0,0.0,0.0,0.0,,,1
Wandsworth,Townmead Road (Stop TL),Bus Station,51.4671754,-0.189734,5.0,0.0,0.0,0.0,0.0,,,1
Wandsworth,Townmead Road (Stop TE),Bus Station,51.46772199999999,-0.1903088,4.0,0.0,0.0,0.0,0.0,,,2
Wandsworth,Southside Shopping Centre,Shopping Mall,51.4551102,-0.1939974,4.2,0.6006796141465505,0.0,0.4,0.6,"Accessibility, Cleanliness, Atmosphere, Maintenance, Traffic, Aesthetics, General","good (57), parking (45), convenient (18), great (18), safe (12), clean (9), maintained (9), crowded (9), easy (9), lovely (9), old (9), busy (9), wonderful (9), tidy (6), fantastic (6), dark (3), dead (3), roomy (3), noisy (3), lighting (3), cars (3)",9210
Wandsworth,Shopstop @ Clapham Junction,Shopping Mall,51.4635724,-0.1689101,3.9,0.5009914437929789,0.0,0.9333333333333333,0.06666666666666667,"Accessibility, Safety, General","good (21), great (18), safe (15), security (9), amazing (9), near (9), tidy (6), dark (3), dead (3), lovely (3)",540
Wandsworth,St Mary's Wharf Pier,Tourist Attraction,51.4669085,-0.1819872,4.7,0.6180412630240123,0.0,0.5333333333333333,0.4666666666666667,"Aesthetics, Accessibility, General","beautiful (18), easy (9), good (9), walking (6), central (3), busy (3)",23
Wandsworth,The Fairy House by Fairytale Friends,Tourist Attraction,51.4560787,-0.162461,5.0,0.8420759836832682,0.0,0.0,1.0,"Safety, Maintenance, Traffic, Aesthetics, General","great (36), wonderful (33), safe (27), beautiful (27), old (18), amazing (18), messy (9), flow (9), gorgeous (9), pretty (9), perfect (9), tidy (6), lighting (3), connected (3), dark (3), dead (3), good (3)",369
Wandsworth,Immersive Gamebox - Wandsworth London,Tourist Attraction,51.4561331,-0.1927569,4.3,0.702237868309021,0.0,0.06666666666666667,0.9333333333333333,"Maintenance, Comfort, Aesthetics, General","noisy (12), good (12), tidy (9), poor (9), great (9), disappointing (9), uncomfortable (9), terrible (9), safe (6), dark (3), dead (3), roomy (3)",94
Wandsworth,Wandsworth Prison Museum,Museum,51.4503499,-0.1765756,4.2,0.5529728452364604,0.0,0.8666666666666667,0.13333333333333333,"Maintenance, Cleanliness, General","good (9), safe (6), maintained (6), cars (3), parking (3), dark (3), dead (3), tidy (3)",24
Wandsworth,York Gardens,Park,51.46753570000001,-0.1775017,4.1,0.5612159053484599,0.06666666666666667,0.7333333333333333,0.2,"Accessibility, Noise, Cleanliness, Atmosphere, Maintenance, Traffic, Aesthetics, General","good (18), parking (15), maintained (9), busy (9), broken (9), pretty (9), beautiful (9), quiet (9), far (9), safe (3), filthy (3), old (2)",354
Wandsworth,Sundial,Tourist Attraction,51.46980310000001,-0.175847,5.0,0.48112164934476215,0.0,1.0,0.0,,,1
Wandsworth,Shillington Park,Park,51.46839190000001,-0.1661248,4.3,0.6120715061823527,0.0,0.5333333333333333,0.4666666666666667,"Accessibility, Noise, Cleanliness, Atmosphere, Aesthetics, Traffic, General","great (18), good (18), parking (15), noisy (12), walking (12), lovely (9), quiet (9), accessible (9), rubbish (9), dark (3), dead (3), tidy (3)",120
Wandsworth,Wandsworth Park,Park,51.4625699,-0.2042393,4.6,0.6049290080865224,0.0,0.6,0.4,"Accessibility, Atmosphere, Traffic, Aesthetics, General","parking (21), great (18), lovely (18), walking (18), good (12), pretty (9), busy (9), easy (9), beautiful (9), tidy (3), safe (3), wonderful (3)",2180
Wandsworth,Fred Wells Gardens,Park,51.4724024,-0.1756642,4.3,0.6348574300607045,0.0,0.3333333333333333,0.6666666666666666,"Accessibility, Safety, Noise, Atmosphere, Maintenance, Aesthetics, Traffic, General","busy (27), lovely (24), parking (18), peaceful (12), near (9), good (9), quiet (9), great (9), security (9), relaxing (7), upgraded (7), safe (6), new (3), walking (3)",201
Wandsworth,Swaby Gardens,Park,51.44099989999999,-0.1832402,4.4,0.636633308728536,0.0,0.4,0.6,"Maintenance, Safety, General","good (18), safe (12), great (9), parking (9), old (3), lovely (3)",123
Wandsworth,Wandsworth Common,Natural Feature,51.444945,-0.1703269,4.7,0.5589485764503479,0.0,0.6666666666666666,0.3333333333333333,"Comfort, Atmosphere, Aesthetics, Traffic, General","lovely (27), great (24), cyclists (9), calm (9), excellent (9), safe (9), pleasant (9), walking (8), parking (3)",88
Wandsworth,Chelsea Harbour,Natural Feature,51.4749041,-0.1807261,4.8,0.0,0.0,0.0,0.0,,,4
Wandsworth,St Mary's Cemetery - Wandsworth,Cemetery,51.458505,-0.169836,4.3,0.5522445817788442,0.2,0.4,0.4,"Maintenance, Cleanliness, Aesthetics, General","charming (9), good (9), maintained (9), beautiful (9), safe (6), relaxing (3), walking (3)",8
Wandsworth,Wandsworth Cemetery,Cemetery,51.44429590000001,-0.1831909,4.2,0.585249541203181,0.0,0.6666666666666666,0.3333333333333333,"Noise, Cleanliness, Atmosphere, Maintenance, Aesthetics, Traffic, General","maintained (27), good (21), busy (18), peaceful (9), great (9), safe (6), wonderful (6), tidy (3), walking (3), fantastic (3)",27
Wandsworth,Huguenot Burial Ground,Cemetery,51.4582336,-0.1835656,5.0,0.7120614250500997,0.0,0.0,1.0,"Noise, Traffic, Aesthetics","lovely (9), traffic (9)",1
Wandsworth,"Potter's House Church, Wandsworth",Church,51.4619148,-0.1734011,4.6,0.8099886059761048,0.0,0.0,1.0,"Maintenance, Comfort, Aesthetics, General","great (45), lovely (15), fantastic (12), welcoming (9), new (9), good (9), safe (6), messy (3)",29
Wandsworth,Ransom A.M.E. Zion Church,Church,51.4576792,-0.1694963,4.6,0.7119968752066295,0.0,0.2,0.8,"Accessibility, Comfort, Maintenance, Traffic, Aesthetics, General","lovely (21), welcoming (18), old (18), modern (18), parking (9), bad (9), amazing (9), fantastic (9), safe (6), tidy (6), lively (3), near (3)",11
Wandsworth,St Michael's Wandsworth Common,Church,51.4541407,-0.1668746,4.4,0.5212279538313548,0.2,0.5333333333333333,0.26666666666666666,"Comfort, Atmosphere, Aesthetics, General","lovely (24), welcoming (18), great (18), attractive (9), tidy (6), inviting (6)",19
Wandsworth,Christ Church at All Saints Wandsworth,Church,51.4575046,-0.1951438,5.0,0.5667308494448662,0.25,0.5,0.25,"Comfort, General","excellent (9), fantastic (9), welcoming (9), great (9)",4
Wandsworth,St Andrew's United Reformed Church,Church,51.4611784,-0.1623919,5.0,0.0,0.0,0.0,0.0,,,1
Wandsworth,Church of the Nazarene,Church,51.4656292,-0.1707471,4.9,0.5048815831542015,0.25,0.5833333333333334,0.16666666666666666,"Accessibility, General","good (18), easy (12), bad (9), excellent (9), parking (3), amazing (3)",8
Wandsworth,"Welsh Chapel, Clapham",Church,51.4628157,-0.1660437,4.9,0.5212251345316569,0.3333333333333333,0.4166666666666667,0.25,"Maintenance, Aesthetics, General","wonderful (15), lovely (12), amazing (6), fantastic (3)",7
Wandsworth,"St Michael's Church, Southfields",Church,51.4497771,-0.2024538,4.6,0.7042324443658193,0.0,0.2,0.8,"Comfort, Atmosphere, Maintenance, Aesthetics, General","good (18), pleasant (9), excellent (9), great (9), wonderful (9), lovely (9), relaxing (9), modern (9), amazing (9), tidy (6), safe (6), messy (3), dark (3), dead (3), noisy (3)",43
Wandsworth,"Christ Church & St Stephen's, Battersea",Church,51.47023040000001,-0.1698282,3.8,0.5549469664692879,0.08333333333333333,0.6666666666666666,0.25,"Comfort, Aesthetics","beautiful (9), welcoming (9), tidy (6), safe (6)",10
Wandsworth,Broomwood Methodist Church,Church,51.4548527,-0.157636,4.0,0.5775528616375394,0.0,0.7777777777777778,0.2222222222222222,"General, Comfort, Cleanliness, Safety","spacious (9), clean (9), good (9), secure (6), connected (3), relaxing (1)",7
Wandsworth,"St Stephen's, East Putney",Church,51.45851510000001,-0.2063648,5.0,0.6471370855967203,0.0,0.5,0.5,"Comfort, Traffic, Accessibility, General","easy (9), welcoming (9), great (9), flow (3)",2
Wandsworth,"Redeemed Christian Church of God, Beautiful Gate, Battersea",Church,51.4719999,-0.173683,3.0,0.7053977449735006,0.0,0.0,1.0,,"tidy (3), noisy (3)",2
Wandsworth,Our Lady of Perpetual Help Church,Church,51.4726033,-0.1865963,4.8,0.6257070144017537,0.0,0.4,0.6,"Noise, Comfort, Cleanliness, Atmosphere, Maintenance, Aesthetics, General","beautiful (24), maintained (9), welcoming (9), peaceful (9), good (9), safe (3)",26
Wandsworth,St Thomas à Becket's Church,Church,51.45687539999999,-0.2010376,4.7,0.6070025444030762,0.2,0.26666666666666666,0.5333333333333333,"Noise, Comfort, Atmosphere, Maintenance, Aesthetics, General","beautiful (33), welcoming (27), lovely (21), loud (9), uncomfortable (9), good (9), music (9), peaceful (9), excellent (9), tidy (6), old (6), updated (3)",37
Wandsworth,"St Andrew’s Church, Earlsfield",Church,51.440259,-0.1864904,4.5,0.5362677315870921,0.2,0.26666666666666666,0.5333333333333333,"Maintenance, Comfort, Aesthetics, General","lovely (18), welcoming (18), great (9), beautiful (9), safe (9), new (9), messy (3), relaxing (3), loud (3)",22
Wandsworth,"St Peter's Church, Battersea",Church,51.4654884,-0.1773156,4.8,0.712023119131724,0.0,0.06666666666666667,0.9333333333333333,"Accessibility, Safety, Comfort, Maintenance, Aesthetics, General","great (33), welcoming (27), good (18), amazing (18), new (9), safe (9), excellent (9), easy (9), beautiful (9), busy (3), lighting (1)",26
Wandsworth,"St Anne's Church, Wandsworth",Church,51.45491759999999,-0.1877603,4.5,0.6133889059225718,0.0,0.4666666666666667,0.5333333333333333,"Atmosphere, Cleanliness, Aesthetics, General","great (9), lovely (9), beautiful (9), lively (9), clean (9), roomy (3), awful (3), dark (3), dead (3), good (3), safe (3), relaxing (3)",67
Wandsworth,"St Barnabas Church, Southfields",Church,51.4425621,-0.1978801,4.4,0.6422573467095692,0.0,0.4,0.6,"Safety, Noise, Cleanliness, Maintenance, Aesthetics, General","lovely (18), safe (15), clean (9), modern (9), perfect (9), wonderful (9), music (9), beautiful (9), lighting (3), lively (3)",55
Wandsworth,"Sacred Heart of Jesus Catholic Church, Battersea",Church,51.4738814,-0.1727527,4.8,0.6726049025853474,0.0,0.4,0.6,"Comfort, Aesthetics, Accessibility, General","good (27), wonderful (15), lovely (12), enjoyable (9), safe (9), excellent (9), great (9), near (9), perfect (7), parking (3), fantastic (3)",73
Wandsworth,St Barnabas' Church,Church,51.4614168,-0.160916,4.4,0.6263102094332377,0.0,0.6,0.4,"Accessibility, Comfort, Atmosphere, Maintenance, Aesthetics, General","wonderful (15), fantastic (12), beautiful (9), welcoming (9), vibrant (9), lively (9), connected (9), new (9), near (3), loud (3), walking (3)",38
Wandsworth,Riverside West Car Park,Parking,51.4626584,-0.1893962,4.1,0.7340641856193543,0.0,0.0,1.0,"General, Comfort, Traffic, Safety","cars (33), parking (30), secure (18), tight (18), safe (18), excellent (9), great (9), good (9), messy (6), noisy (3)",65
Wandsworth,NCP Wandsworth Southside 2,Parking,51.4557234,-0.1953768,3.7,0.5569719433784485,0.0,0.6,0.4,"Traffic, Accessibility, General","parking (72), easy (10), tidy (9), messy (9), good (9), walking (9), cars (6)",174
Wandsworth,FYCO Limited,Car Wash,51.4574364,-0.1972783,2.6,0.6220978220303853,0.0,0.4666666666666667,0.5333333333333333,"Cleanliness, Atmosphere, Maintenance, Traffic, General","clean (21), dirty (18), tidy (12), cars (9), busy (9), broken (9), good (9), great (6), noisy (3)",10
Wandsworth,Padel Yard parking,Parking,51.4596074,-0.1910038,3.0,0.5614081223805746,0.0,1.0,0.0,Traffic,parking (9),2
Wandsworth,Sainsbury's Wandsworth Car Park,Parking,51.4548842,-0.1912352,3.9,0.5432917416095734,0.06666666666666667,0.6666666666666666,0.26666666666666666,"General, Traffic, Accessibility, Safety","parking (54), safe (18), secure (9), great (9), easy (9), noisy (3)",26
Wandsworth,YourParkingSpace Holiday Inn Express Wandsworth Car Park,Parking,51.4622182,-0.189086,3.2,0.7436949292818705,0.0,0.4,0.6,"Accessibility, Comfort, Maintenance, Traffic, Aesthetics, General","parking (33), noisy (18), tidy (15), fantastic (9), great (9), central (9), welcoming (9), far (9), worst (9), safe (6), cars (3)",9
Wandsworth,Central London Car Storage,Parking,51.4624164,-0.1894342,5.0,0.8348380247751872,0.0,0.0,1.0,"Accessibility, Safety, Cleanliness, Maintenance, Traffic, General","secure (45), parking (42), excellent (27), safe (21), cars (18), clean (18), easy (18), great (18), central (18), good (12), fantastic (9), vehicle (8), tidy (3), spotless (3), noisy (3), messy (3), cozy (3), dark (3), dead (3)",61
Wandsworth,Motorcycle Parking Bay,Parking,51.4507565,-0.18731,5.0,0.0,0.0,0.0,0.0,,,1
Wandsworth,Southside Car Park,Parking,51.4533693,-0.1934895,4.0,0.620128736893336,0.0,0.4,0.6,"Accessibility, Safety, Traffic, Aesthetics, General","parking (51), good (48), security (18), pretty (12), cars (9), difficult (9), tidy (3), near (3), safe (3)",32
Wandsworth,Wandsworth Southside 1,Parking,51.4536408,-0.1938694,3.4,0.5140017006132338,0.1111111111111111,0.5555555555555556,0.3333333333333333,"Safety, Atmosphere, Maintenance, Aesthetics, Traffic","parking (54), cars (42), safe (39), new (18), active (18), good (12), security (9), police (9), beautiful (9), tidy (6), walking (3), noisy (3)",9
Wandsworth,London Battersea Travelodge Car Park,Parking,51.4658333,-0.1803844,3.5,0.0,0.0,0.0,0.0,,,2
Wandsworth,Solo Motorcycles Only,Parking,51.4635632,-0.1698234,5.0,0.0,0.0,0.0,0.0,,,1
Wandsworth,Car Park - Clapham Junction Station | APCOA,Parking,51.46550620000001,-0.1703053,3.6,0.554124257961909,0.4,0.2,0.4,"Accessibility, Comfort, Cleanliness, Traffic, General","accessible (9), clean (9), comfortable (9), dirty (9), filthy (9), parking (9), good (9), busy (6), roomy (3), broken (3), neat (3), near (3), new (3), noisy (3)",14
Wandsworth,JustPark,Parking,51.46537,-0.16496,3.3,0.47283774945471024,0.3333333333333333,0.6666666666666666,0.0,"Traffic, General","good (18), vehicle (13), parking (6), tidy (6), pretty (3), dark (3), dead (3), messy (3), cars (3), safe (3)",3
Wandsworth,Gingko,Library,51.46704090000001,-0.180317,5.0,0.4297187228997548,0.0,1.0,0.0,"Aesthetics, General",great (9),1
Wandsworth,Northcote Library,Library,51.4552433,-0.1648181,4.3,0.5634391864140829,0.2,0.4666666666666667,0.3333333333333333,"Accessibility, Noise, Cleanliness, Atmosphere, Maintenance, Traffic, Aesthetics, General","new (36), old (27), lovely (10), near (9), beautiful (9), busy (9), excellent (9), quiet (9), good (9), accessible (9), safe (6), clean (3), updated (3)",33
Wandsworth,Wandsworth Heritage Service,Library,51.4641033,-0.1641236,5.0,0.7035536567370096,0.0,0.0,1.0,,,2
Wandsworth,Battersea Library,Library,51.4640931,-0.1641992,4.3,0.6140251755714417,0.0,0.6,0.4,"Accessibility, Noise, Cleanliness, Atmosphere, Maintenance, Aesthetics, General","good (18), old (18), great (15), quiet (15), lovely (12), clean (9), convenient (9), pretty (9), difficult (9), music (3), muddy (3), safe (3), lighting (3), relaxing (3), roomy (3)",122
Wandsworth,Earlsfield Library,Library,51.4424666,-0.1866814,4.5,0.7475950717926025,0.0,0.0,1.0,"Noise, Aesthetics, General","good (39), great (27), lovely (18), fantastic (18), noisy (9), roomy (6), lighting (3), tidy (3), safe (3)",32
Wandsworth,York Gardens Library,Library,51.46715,-0.177635,4.5,0.6943339506785074,0.06666666666666667,0.3333333333333333,0.6,"Noise, Comfort, General","great (27), fantastic (9), excellent (9), safe (6), welcoming (6), lovely (3), parking (3), tidy (3), music (3)",37
Wandsworth,Wandsworth Town Library,Library,51.4559716,-0.1919422,4.0,0.616877426703771,0.0,0.6,0.4,"Noise, Comfort, Atmosphere, Maintenance, Aesthetics, General","great (27), quiet (21), tidy (12), lovely (12), safe (9), new (9), relaxing (9), comfortable (9), screaming (9), good (9), old (9), spacious (9), modern (9), dark (3), dead (3), noisy (3), messy (3)",68
Wandsworth,Nuffield Health Wandsworth Southside Fitness & Wellbeing Gym,Gym,51.45617069999999,-0.1945598,2.7,0.7451688448588053,0.0,0.2,0.8,"Accessibility, Safety, Comfort, Cleanliness, Atmosphere, Maintenance, General","dirty (30), great (18), safe (15), clean (15), good (15), tidy (12), filthy (12), old (9), rubbish (9), central (9), spacious (9), wonderful (9), maintained (9), relaxing (9), terrible (9), near (9), new (9), poor (9), roomy (6), noisy (6), messy (6), lovely (6), broken (6), updated (3)",208
Wandsworth,Nuffield Health Wandsworth Fitness & Wellbeing Gym,Gym,51.4472002,-0.1945628,3.1,0.619101744890213,0.0,0.6,0.4,"Accessibility, Comfort, Cleanliness, Atmosphere, Maintenance, Aesthetics, General","good (27), active (18), welcoming (18), easy (18), tidy (15), poor (9), spacious (9), clean (9), pretty (9), disappointing (9), messy (9), terrible (9), safe (6), cars (6), calm (6), cozy (6), new (3), roomy (3), noisy (3), upgraded (3), maintained (3)",90
Wandsworth,The Little Gym Wandsworth & Fulham,Gym,51.46307840000001,-0.1894712,4.7,0.9001252929369609,0.0,0.0,1.0,"Maintenance, Comfort, Safety, General","old (27), fantastic (27), lovely (15), safe (12), amazing (9), welcoming (9), great (9), messy (3), improved (3), relaxing (3), tidy (3), risky (3)",44
Wandsworth,Riverside Nursery,School,51.4650566,-0.1834072,4.3,0.697721274693807,0.06666666666666667,0.13333333333333333,0.8,"Accessibility, Safety, Comfort, Cleanliness, Maintenance, Aesthetics, General","safe (30), clean (18), messy (18), difficult (18), great (18), good (12), lovely (12), welcoming (9), secure (9), new (9), excellent (9), connected (9), old (9), near (9), spacious (9), fantastic (9), tidy (6), wonderful (3)",11
Wandsworth,The Spencer Lawn Tennis Club,School,51.441382,-0.178077,4.5,0.7177527070045471,0.0,0.4,0.6,"Maintenance, Noise, General","fantastic (18), safe (9), improved (9), perfect (9), good (9), terrible (9), loud (9), shouting (9), great (9), lovely (3)",16
Wandsworth,Northcote House Nursery,School,51.45763119999999,-0.1663318,4.7,0.6686420222123464,0.2,0.2,0.6,"Accessibility, Noise, Cleanliness, Atmosphere, Maintenance, Aesthetics, Traffic, General","lovely (22), new (21), amazing (18), wonderful (18), excellent (18), tidy (15), safe (12), roomy (12), disappointing (9), improved (9), near (9), neglected (9), convenient (9), walking (9), music (9), good (9), pretty (3), old (3), cozy (3)",23
Wandsworth,The Kindergartens Nursery Schools - Head Office,School,51.4581676,-0.1687692,3.0,0.5380599697430929,0.0,1.0,0.0,,"tidy (6), messy (3)",2
Wandsworth,Mouse House Nursery School SW18: The Kindergartens,School,51.4526936,-0.1842356,5.0,0.0,0.0,0.0,0.0,,,1
Wandsworth,"Abacus Ark Nursery Schools, Clapham Junction",School,51.460885,-0.1752555,4.8,0.7405319174130758,0.0,0.26666666666666666,0.7333333333333333,"Accessibility, Atmosphere, Maintenance, Traffic, Aesthetics, General","good (30), lovely (30), great (27), old (21), safe (15), walking (9), busy (9), tidy (6), far (3)",19
Wandsworth,International Cambridge College,University,51.4703364,-0.1710526,4.8,0.4023204743862152,0.0,1.0,0.0,,,4
Wandsworth,Holistic Healing College,University,51.4436271,-0.1667529,5.0,0.9002000490824381,0.0,0.0,1.0,General,"wonderful (9), messy (6), noisy (3), tidy (3), good (3)",1
Wandsworth,The Military Preparation College,University,51.4630382,-0.1697884,4.7,0.5479659769270155,0.0,0.5555555555555556,0.4444444444444444,,safe (9),3
Wandsworth,Wandsworth Medical Centre,Hospital,51.45376599999999,-0.1921841,3.0,0.5993651151657104,0.26666666666666666,0.3333333333333333,0.4,General,"messy (15), great (9), wonderful (9), tidy (3)",231
Wandsworth,The Smart Clinics - Wandsworth,Hospital,51.4453484,-0.1662959,3.2,0.7017752210299174,0.0,0.3333333333333333,0.6666666666666666,"Accessibility, Comfort, Maintenance, Aesthetics, General","tidy (21), great (18), noisy (12), far (9), worst (9), messy (9), unpleasant (9), poor (9), risky (3), dark (3), dead (3)",9
Wandsworth,Kiki's Children's Clinic,Hospital,51.4535119,-0.1536752,5.0,0.8872680902481079,0.0,0.0,1.0,"Maintenance, Accessibility, General","safe (18), fantastic (18), old (18), far (9), improved (9), wonderful (9), amazing (9), lovely (3), noisy (3), messy (3), tidy (3)",12
Wandsworth,London Doctors Clinic Wandworth,Doctor,51.4602921,-0.1885403,3.5,0.6261765579382579,0.0,0.4666666666666667,0.5333333333333333,"Accessibility, Comfort, Maintenance, Aesthetics, General","good (24), comfortable (9), poor (9), easy (9), noisy (9), horrible (9), dark (6), dead (6), walking (3), messy (3)",39
Wandsworth,Corona Test Centre,Hospital,51.45375199999999,-0.192216,3.9,0.806684414545695,0.0,0.13333333333333333,0.8666666666666667,"Noise, Atmosphere, Maintenance, Aesthetics, General","messy (39), tidy (18), good (12), safe (12), noisy (9), terrible (9), disappointing (9), roomy (3), lively (3), quiet (3)",62
Wandsworth,The Smart Clinics - Clapham Junction,Hospital,51.462901,-0.170201,1.0,0.0,0.0,0.0,0.0,,,1
Wandsworth,Bupa Health Centre Clapham,Physiotherapist,51.4629009,-0.1702008,4.4,0.6325120747089386,0.0,0.4666666666666667,0.5333333333333333,"Maintenance, Comfort, Aesthetics, General","great (36), messy (24), comfortable (9), safe (9), lovely (9), updated (9), excellent (9), walking (3), flow (1), far (1)",7
Wandsworth,Alma-Nac Slim House,Museum,51.4598472,-0.1779814,4.9,0.5833862721920013,0.2,0.3333333333333333,0.4666666666666667,"Aesthetics, Comfort, Atmosphere, General","amazing (18), great (18), attractive (9), wonderful (3), tidy (3), comfortable (3)",9
Wandsworth,Kristin Hjellegjerde Gallery,Art Gallery,51.45984000000001,-0.188785,4.8,0.593318077425162,0.16666666666666666,0.3333333333333333,0.5,"Aesthetics, General","great (9), stunning (6), amazing (6), lovely (3)",12
Wandsworth,THE LAST SUPPER art gallery,Art Gallery,51.456351,-0.162677,5.0,0.6700729489326477,0.0,0.13333333333333333,0.8666666666666667,"Accessibility, Comfort, Cleanliness, Atmosphere, Maintenance, General","great (27), good (9), comfortable (9), inviting (9), muddy (9), safe (9), chaotic (9), new (9), easy (9), clean (6), roomy (3), tidy (3), walking (3)",8
Wandsworth,Platform 1 Gallery,Art Gallery,51.4464438,-0.1636642,3.7,0.44403107464313507,0.5,0.5,0.0,Maintenance,modern (9),3
Wandsworth,Art Movement,Art Gallery,51.4409968,-0.1743681,5.0,0.7339302168952094,0.0,0.3333333333333333,0.6666666666666666,"Maintenance, Aesthetics","new (9), beautiful (9)",7
Wandsworth,Plus One Gallery,Art Gallery,51.4659048,-0.1931541,4.7,0.8307856957117716,0.0,0.0,1.0,"Maintenance, Aesthetics, General","beautiful (9), amazing (9), wonderful (9), modern (9), tidy (3), noisy (3), safe (3)",16
Wandsworth,Julia Jane Heckles,Art Gallery,51.4554491,-0.1891117,5.0,0.6302675803502401,0.0,0.0,1.0,,,1
Wandsworth,The FTSQ Gallery,Art Gallery,51.4543073,-0.1753906,5.0,0.622442622979482,0.0,0.0,1.0,"Maintenance, General","amazing (9), new (9), great (9), roomy (3), messy (3)",1
Wandsworth,Studio Artnuances Ltd,Art Gallery,51.4639811,-0.184103,5.0,0.2950136164824168,1.0,0.0,0.0,,,1
Wandsworth,Steam Works Gallery,Art Gallery,51.45920450000001,-0.1943202,5.0,0.8669129014015198,0.0,0.0,1.0,General,excellent (9),1
Wandsworth,Battersea Park,Park,51.4791075,-0.1564981,4.7,0.595777956644694,0.0,0.6,0.4,"Accessibility, Noise, Comfort, Cleanliness, Atmosphere, Maintenance, Aesthetics, Traffic, General","parking (60), beautiful (39), peaceful (33), safe (27), modern (27), perfect (21), old (21), scenic (18), great (18), clean (18), maintained (18), vibrant (18), music (18), walking (15), charming (12), serene (9), relaxing (9), central (9), cyclists (9), quiet (9), active (9), fantastic (9), spacious (9), easy (9), near (3), far (3), lighting (3), lively (3), cars (3), busy (3), flow (3), good (3), tidy (3)",22077
Wandsworth,Chelsea Physic Garden,Tourist Attraction,51.48491720000001,-0.1627774,4.6,0.7606410344441732,0.0,0.2,0.8,"Noise, Atmosphere, Maintenance, Aesthetics, Traffic, General","beautiful (24), lovely (21), safe (21), great (18), bad (12), amazing (9), modern (9), traffic (9), driving (9), chaotic (9), excellent (9), old (3), tidy (3)",2033
Wandsworth,Battersea Park Children's Zoo,Zoo,51.4813528,-0.1565835,4.3,0.7689381837844849,0.0,0.0,1.0,"Accessibility, Comfort, Cleanliness, Maintenance, Aesthetics, General","safe (33), lovely (28), clean (27), beautiful (18), maintained (18), great (18), easy (18), perfect (16), tidy (15), old (12), amazing (9), welcoming (9), parking (6), dark (6), dead (6), improved (3), relaxing (3)",2285
Wandsworth,Bishops Park,Park,51.4716726,-0.2171168,4.6,0.612263395388921,0.0,0.4,0.6,"Aesthetics, Traffic, Accessibility, General","parking (30), walking (30), lovely (18), safe (15), far (9), near (9), great (9), good (9), relaxing (6), updated (3), repaired (3)",3330
Wandsworth,Tooting Bec Common,Park,51.4410011,-0.1397635,4.5,0.6984242995580038,0.0,0.2,0.8,"Comfort, Cleanliness, Atmosphere, Maintenance, Aesthetics, Traffic, General","safe (24), good (21), clean (18), busy (18), lovely (18), parking (15), walking (12), maintained (9), active (9), great (9), cyclists (9), pleasant (9), fantastic (9), cars (6), dark (3), dead (3), pedestrian (3)",3252
Wandsworth,Garratt Park,Park,51.435893,-0.1884329,4.4,0.6883851925532023,0.0,0.3333333333333333,0.6666666666666666,"Noise, Cleanliness, Atmosphere, Aesthetics, General","parking (17), wonderful (15), relaxing (12), fantastic (12), clean (9), beautiful (9), serene (9), quiet (9), safe (9), good (6), gorgeous (6)",275
Wandsworth,Latchmere Recreation Ground,Park,51.4718856,-0.1616379,4.2,0.6623676141103109,0.0,0.4,0.6,"Noise, Comfort, Atmosphere, Maintenance, General","good (9), great (9), amazing (9), peaceful (9), pleasant (9), noisy (6), parking (6), new (3), safe (3)",95
Wandsworth,Battersea Park Playground,Park,51.47621179999999,-0.1612617,4.8,0.7630366325378418,0.0,0.2,0.8,"Accessibility, Safety, Cleanliness, Maintenance, Aesthetics, Traffic, General","parking (20), pedestrian (18), good (18), safe (15), clean (12), lovely (9), easy (9), excellent (9), dark (9), poor (6), old (3), lighting (3)",758
Wandsworth,Fulham Palace Walled Garden,Park,51.4695005,-0.2135814,4.7,0.7876348336537679,0.0,0.13333333333333333,0.8666666666666667,"Comfort, Atmosphere, Maintenance, Aesthetics, Traffic, General","beautiful (27), vibrant (18), good (12), relaxing (12), great (9), gorgeous (9), safe (9), new (9), pleasant (9), lovely (6), walking (3), flow (3), lively (3), dark (3), dead (3)",64
Wandsworth,English Gardening School,Park,51.4849657,-0.1625689,5.0,0.5259562730789185,0.0,1.0,0.0,Traffic,"flow (3), safe (3)",5
Wandsworth,Wimbledon Park,Park,51.43818439999999,-0.2092757,4.6,0.6875037471453349,0.0,0.4,0.6,"Noise, Cleanliness, Atmosphere, Maintenance, Aesthetics, Traffic, General","parking (44), beautiful (30), walking (21), lovely (21), perfect (18), good (18), peaceful (18), safe (15), gorgeous (9), maintained (9), stunning (9), buzzing (9), lively (9), flow (9), pretty (9), disappointing (9), wonderful (3), charming (3), cars (3), relaxing (1)",4386
Wandsworth,Putney Station,Transit Station,51.4609999,-0.216648,3.8,0.6643102546532949,0.0,0.2,0.8,"Accessibility, Safety, Comfort, Cleanliness, General","good (9), awful (9), tight (9), far (9), great (9), convenient (9), safe (3), noisy (3), messy (3), near (3)",21
Wandsworth,Balham Station,Transit Station,51.4435638,-0.1524017,3.5,0.7541441957155863,0.0,0.06666666666666667,0.9333333333333333,"Accessibility, Safety, Noise, Cleanliness, Atmosphere, Maintenance, Traffic, Aesthetics, General","good (18), busy (12), safe (12), near (9), horrible (9), old (9), shouting (9), dusty (9), tidy (6), clean (5), walking (3), police (3), wonderful (3)",16
Wandsworth,Battersea Square,Transit Station,51.4752022,-0.1753624,3.0,0.37797225018342334,0.3333333333333333,0.6666666666666666,0.0,,lively (1),2
Wandsworth,Southfields,Subway Station,51.4450087,-0.2065149,4.3,0.476284788052241,0.2,0.6,0.2,"Maintenance, Traffic, Atmosphere, Accessibility","busy (18), central (9), near (6), tidy (6), good (6), dark (3), dead (3), safe (3)",117
Wandsworth,Putney Bridge Station (Stop FC),Transit Station,51.46782109999999,-0.209055,4.0,0.5285670955975851,0.0,1.0,0.0,Maintenance,"old (9), good (3)",5
Wandsworth,Putney Bridge,Subway Station,51.4679691,-0.2089232,4.3,0.5431158542633057,0.26666666666666666,0.3333333333333333,0.4,"Accessibility, Safety, Cleanliness, Atmosphere, Maintenance, Traffic, General","safe (21), busy (21), clean (12), old (10), accessible (9), easy (9), good (9), near (9), noisy (6), walking (6), upgraded (3)",104
Wandsworth,Putney Bridge,Transit Station,51.4684158,-0.2106206,5.0,0.0,0.0,0.0,0.0,,,1
Wandsworth,Clapham South,Subway Station,51.45277649999999,-0.1478127,4.2,0.5669553657372792,0.0,0.6666666666666666,0.3333333333333333,"Maintenance, Cleanliness, Aesthetics, Accessibility","convenient (9), accessible (9), charming (9), old (9), tidy (6), clean (3), lovely (3), safe (3), noisy (3)",88
Wandsworth,Parsons Green,Subway Station,51.4752816,-0.2010216,3.8,0.5481996993223827,0.06666666666666667,0.5333333333333333,0.4,"Atmosphere, Maintenance, Traffic, Aesthetics, General","old (18), good (9), pretty (9), crowded (9), busy (9), charming (9), noisy (6), upgraded (3), safe (3)",64
Wandsworth,Putney,Train Station,51.4611747,-0.2164213,4.1,0.5292664666970571,0.06666666666666667,0.7333333333333333,0.2,"Accessibility, Atmosphere, Maintenance, Aesthetics, General","great (27), good (24), connected (18), safe (15), crowded (9), excellent (9), central (9), accessible (9), messy (9), pretty (9), bad (9), tidy (6), walking (3)",141
Wandsworth,Balham,Subway Station,51.44342169999999,-0.1531109,4.1,0.45515509049097697,0.2,0.8,0.0,"Traffic, Atmosphere, Accessibility","busy (9), noisy (6), far (3)",51
Wandsworth,Balham,Transit Station,51.44322709999999,-0.1524452,3.8,0.4867821951707204,0.26666666666666666,0.6,0.13333333333333333,"Accessibility, Safety, Comfort, Atmosphere, Maintenance, Traffic, General","safe (30), good (27), busy (18), near (15), easy (9), pleasant (9), connected (9), new (5), roomy (3), tidy (3)",68
Wandsworth,Fulham Broadway,Subway Station,51.48033280000001,-0.1943638,4.3,0.6706901828447978,0.0,0.26666666666666666,0.7333333333333333,"Accessibility, Safety, Cleanliness, Atmosphere, Maintenance, General","good (45), calm (9), maintained (9), clean (9), great (9), new (9), old (9), lovely (6), wonderful (6), near (3), safe (3), fantastic (3)",236
Wandsworth,Clapham Common Station,Transit Station,51.4616404,-0.1402519,3.1,0.4888044099013011,0.2,0.6,0.2,"Accessibility, Safety, Noise, Atmosphere, Maintenance, Aesthetics, Traffic","safe (21), shouting (18), old (9), busy (9), difficult (9), messy (6), tidy (3), updated (3), walking (3), noisy (3)",16
Wandsworth,Wimbledon Park,Subway Station,51.4344081,-0.1993932,4.2,0.6275589028994243,0.0,0.4,0.6,"Maintenance, Cleanliness, Aesthetics, General","clean (15), walking (9), tidy (9), wonderful (9), good (9), amazing (9), pretty (9), parking (6), roomy (6), fantastic (6), busy (3), noisy (3), safe (3), messy (3)",58
Wandsworth,Tooting Bec,Subway Station,51.43552149999999,-0.1595141,4.2,0.4996462345123291,0.26666666666666666,0.5333333333333333,0.2,"Accessibility, Cleanliness, Atmosphere, Maintenance, Traffic, Aesthetics, General","busy (18), good (9), safe (9), beautiful (9), old (9), clean (9), lovely (9), noisy (6), tidy (3), roomy (3), difficult (3)",74
Wandsworth,Clapham Common,Subway Station,51.4617867,-0.138353,4.2,0.5071398615837097,0.2,0.6,0.2,"Accessibility, Safety, Noise, Cleanliness, Atmosphere, Aesthetics, Traffic, General","near (21), busy (19), amazing (18), far (18), safe (12), neat (12), new (12), empty (9), dangerous (9), crowded (9), clean (9), music (9), beautiful (9), pretty (9), lovely (9), cozy (6), ugly (6), walking (6), good (6), tidy (3)",109
Wandsworth,West Brompton,Subway Station,51.4872591,-0.1955188,3.8,0.5172876795132955,0.0,0.8,0.2,"Accessibility, Atmosphere, Maintenance, Aesthetics, General","good (12), dead (12), convenient (9), modern (9), tidy (9), elegant (9), safe (6), wonderful (6), peaceful (6), near (3), walking (3), perfect (3), dark (3)",46
Wandsworth,Clapham North,Subway Station,51.4650932,-0.1295309,4.1,0.6047827283541362,0.06666666666666667,0.5333333333333333,0.4,"Accessibility, Safety, Atmosphere, Maintenance, General","great (27), bad (18), difficult (18), vibrant (9), central (9), fantastic (9), worst (9), safe (9), lively (3), connected (3), noisy (3), walking (3)",112
Wandsworth,Earl's Court,Subway Station,51.4915767,-0.1938947,4.2,0.711023227373759,0.0,0.2,0.8,"Accessibility, Cleanliness, Atmosphere, Maintenance, Traffic, General","great (21), safe (18), accessible (18), busy (18), clean (18), new (18), easy (15), good (15), walking (12), excellent (9), central (9), old (9), amazing (9), near (6)",684
Wandsworth,East Putney,Subway Station,51.45908490000001,-0.2107763,3.9,0.6377746204535166,0.0,0.4,0.6,"Accessibility, Noise, Cleanliness, Atmosphere, Traffic, General","loud (9), busy (9), good (9), far (9), quiet (9), dirty (9), noisy (6), safe (6)",73
Wandsworth,Tooting Broadway,Subway Station,51.4276438,-0.167955,4.3,0.5549680352210998,0.13333333333333333,0.26666666666666666,0.6,"Traffic, Atmosphere, General","good (27), busy (21), safe (15), amazing (9), great (9), lively (6), tidy (3), noisy (3), messy (3), honking (2)",202
Wandsworth,Battersea Power Station,Subway Station,51.479774,-0.1418745,4.6,0.5467678387959798,0.2,0.5333333333333333,0.26666666666666666,"Cleanliness, Aesthetics, Accessibility, General","great (27), good (27), beautiful (18), accessible (9), perfect (9), stunning (9), clean (9), safe (6), messy (3)",249
Wandsworth,Putney Exchange,Shopping Mall,51.46407720000001,-0.2156969,4.1,0.5985092302163442,0.13333333333333333,0.4666666666666667,0.4,"Comfort, Cleanliness, Atmosphere, Traffic, General","great (18), calm (9), excellent (9), tidy (9), spacious (9), walking (9), bad (9), lovely (6), good (6), noisy (6), wonderful (3), clean (2)",2601
Wandsworth,Fulham Broadway Retail Centre,Shopping Mall,51.48034029999999,-0.194502,4.2,0.46761841972668966,0.4,0.6,0.0,"Accessibility, Safety, Cleanliness, Atmosphere, Maintenance, Traffic, General","safe (24), good (21), great (18), parking (12), busy (10), clean (9), outdated (9), new (9), central (9), convenient (9), security (6), flow (3), old (3)",1338
Wandsworth,Safari Centre,Shopping Mall,51.4802215,-0.1978185,4.8,0.0,0.0,0.0,0.0,,,4
Wandsworth,Bella Shopping Centre,Shopping Mall,51.4845422,-0.2020869,3.9,0.635066435734431,0.0,0.4,0.6,"Maintenance, Comfort, Cleanliness, General","good (18), clean (9), welcoming (9), noisy (3), lovely (3)",38
Wandsworth,Purely Spontaneous,Shopping Mall,51.4486229,-0.1294571,5.0,0.0,0.0,0.0,0.0,,,1
Wandsworth,Crosby Moran Hall,Tourist Attraction,51.4825121,-0.1725873,4.5,0.5254512151082357,0.06666666666666667,0.5333333333333333,0.4,"Aesthetics, Accessibility, General","great (27), safe (15), near (12), beautiful (9), walking (9), lovely (6), parking (6)",74
Wandsworth,All England Lawn Tennis & Croquet Club,Tourist Attraction,51.4342911,-0.2144883,4.8,0.7299014786879222,0.0,0.26666666666666666,0.7333333333333333,"Comfort, Maintenance, Traffic, Aesthetics, General","beautiful (18), walking (12), safe (9), old (9), amazing (9), modern (9), fantastic (9), great (9), enjoyable (9), noisy (6), lovely (3), charming (3)",10178
Wandsworth,National Army Museum,Tourist Attraction,51.486405,-0.1604413,4.5,0.7744402329126994,0.0,0.0,1.0,"Comfort, Cleanliness, Atmosphere, Maintenance, General","excellent (18), good (18), great (18), safe (15), new (9), clean (9), modern (9), upgraded (9), fantastic (9), welcoming (6), noisy (3), messy (3)",2673
Wandsworth,National Trust - Carlyle's House,Museum,51.48408069999999,-0.1698022,4.6,0.6532795429229736,0.13333333333333333,0.26666666666666666,0.6,"Comfort, Aesthetics, Accessibility, General","lovely (21), fantastic (15), great (9), excellent (9), welcoming (9), pretty (9), easy (9), beautiful (9), wonderful (9), tidy (6), lively (5), safe (3), roomy (3), busy (3)",133
Wandsworth,New Covent Garden Market,Tourist Attraction,51.4801414,-0.1389138,4.2,0.49231393734614054,0.26666666666666666,0.5333333333333333,0.2,"Accessibility, Atmosphere, Maintenance, Traffic, Aesthetics, General","far (27), amazing (18), flow (18), parking (18), good (15), cars (15), convenient (12), pretty (9), messy (9), busy (9), easy (9), great (9), excellent (9), new (9), walking (6), calm (6), cozy (6), central (6), safe (3), tidy (3), dark (3), dead (3)",460
Wandsworth,West London Islamic Cultural Centre Mosque,Mosque,51.4767083,-0.2019629999999999,4.8,0.6296869119008383,0.0,0.4,0.6,"Accessibility, Comfort, Cleanliness, Atmosphere, Maintenance, Aesthetics, General","safe (15), wonderful (9), beautiful (9), easy (9), good (9), spacious (9), new (9), active (9), welcoming (9), clean (6), near (3), lovely (3)",892
Wandsworth,Wimbledon Masjid,Mosque,51.43643300000001,-0.1972162,4.8,0.6062531848748525,0.0,0.5333333333333333,0.4666666666666667,"Cleanliness, Aesthetics, General","excellent (18), good (9), beautiful (9), clean (9), cars (6), parking (6), improved (2)",516
Wandsworth,Go Ape Battersea,Tourist Attraction,51.4756119,-0.1617384,4.6,0.783758920431137,0.0,0.13333333333333333,0.8666666666666667,"Accessibility, Safety, Comfort, Atmosphere, Aesthetics, General","safe (15), good (12), tidy (9), secure (9), welcoming (9), gorgeous (9), calm (9), difficult (9), parking (6), amazing (6), lovely (3), messy (3), old (2)",1956
Wandsworth,Mount Pond,Natural Feature,51.45662360000001,-0.1503955,4.8,0.45178911752170986,0.3333333333333333,0.6666666666666666,0.0,"Aesthetics, Atmosphere, Accessibility, General","great (18), far (9), good (9), beautiful (9), safe (6), tidy (3), calm (1)",4
Wandsworth,Edgecombe Hall Pond,Natural Feature,51.4458427,-0.2111964,4.5,0.5454293423228793,0.1111111111111111,0.5555555555555556,0.3333333333333333,"Aesthetics, Accessibility","near (12), pretty (9), beautiful (9), tidy (6), lovely (6), lively (4), parking (3), relaxing (3)",8
Wandsworth,Eagle Pond,Natural Feature,51.4560555,-0.1453473,4.3,0.5175564487775167,0.0,1.0,0.0,,,6
Wandsworth,Wimbledon Park Lake,Natural Feature,51.4359407,-0.2071219,4.6,0.5145875374476115,0.2,0.6666666666666666,0.13333333333333333,"Maintenance, Aesthetics","lovely (9), parking (6), messy (3), walking (3), good (3), dirty (3), safe (3), old (3)",24
Wandsworth,Long Pond,Natural Feature,51.4595874,-0.1427054,4.2,0.543104796608289,0.06666666666666667,0.7333333333333333,0.2,"Aesthetics, Noise, Atmosphere, General","relaxing (9), peaceful (9), perfect (9), lovely (6), disappointing (5), safe (3)",6
Wandsworth,Cock Pond,Natural Feature,51.4622976,-0.1409762,4.6,0.6550513108571371,0.13333333333333333,0.13333333333333333,0.7333333333333333,"Aesthetics, General","great (21), good (9), beautiful (9), lovely (3), noisy (3), dark (3), dead (3)",5
Wandsworth,Boating Lake,Natural Feature,51.47796,-0.1523466,4.0,0.6757954259713491,0.0,0.16666666666666666,0.8333333333333334,General,great (9),4
Wandsworth,Ladies Pond,Natural Feature,51.4785313,-0.1548287,4.7,0.5804739892482758,0.3333333333333333,0.16666666666666666,0.5,"Aesthetics, General","safe (9), amazing (9), lovely (6)",6
Wandsworth,Boating Lake,Natural Feature,51.4796017,-0.1523555,4.8,0.4362705515490638,0.3333333333333333,0.6666666666666666,0.0,"Comfort, General","pleasant (9), great (6), safe (3)",6
Wandsworth,7 Post Pond,Natural Feature,51.44522629999999,-0.2228766,4.3,0.49470188220342,0.0,0.7777777777777778,0.2222222222222222,"Noise, Atmosphere, General","great (6), quiet (1)",3
Wandsworth,King's Mere,Natural Feature,51.4450082,-0.2296253,5.0,0.4492181208398607,0.3333333333333333,0.6666666666666666,0.0,"Noise, Atmosphere, Accessibility","central (9), peaceful (9), safe (3), walking (3)",4
Wandsworth,Scio Pond,Natural Feature,51.44627149999999,-0.2339071,4.2,0.4681587020556132,0.2222222222222222,0.7777777777777778,0.0,"Aesthetics, Noise, Cleanliness, Atmosphere","clean (9), peaceful (9), lovely (9)",5
Wandsworth,Curling Pond,Natural Feature,51.4434794,-0.2351696,5.0,0.6544646620750427,0.0,0.3333333333333333,0.6666666666666666,"Noise, Atmosphere, General","perfect (9), peaceful (3)",1
Wandsworth,Putney Heath,Natural Feature,51.44319489999999,-0.2338354,4.9,0.6052915983729892,0.0,0.6666666666666666,0.3333333333333333,"Aesthetics, General","great (9), lovely (9), perfect (7), walking (3)",7
Wandsworth,Putney Heath,Natural Feature,51.450598,-0.2241595,4.7,0.5485768649313185,0.2222222222222222,0.4444444444444444,0.3333333333333333,"Aesthetics, Traffic, Accessibility","walking (12), accessible (9), safe (6), parking (4), tidy (3), lovely (3)",3
Wandsworth,Putney Heath,Natural Feature,51.4481355,-0.2246909,5.0,0.4265218873818715,0.3333333333333333,0.6666666666666666,0.0,Aesthetics,lovely (6),1
Wandsworth,Brompton Cemetery,Cemetery,51.4840418,-0.1898014,4.7,0.6487183014551798,0.0,0.2,0.8,"Aesthetics, Accessibility, General","great (18), beautiful (18), inaccessible (9), walking (3)",418
Wandsworth,Lambeth Cemetery and Crematorium,Cemetery,51.428036,-0.180223,3.6,0.6297213355700175,0.0,0.4,0.6,"Accessibility, Safety, Noise, Atmosphere, Maintenance, Aesthetics, Traffic, General","tidy (21), safe (18), beautiful (18), new (18), good (15), lovely (12), peaceful (12), flow (9), far (9), loud (9), easy (9), messy (6), updated (3), active (3), poor (3), walking (3), connected (3)",44
Wandsworth,Streatham Cemetery,Cemetery,51.4324299,-0.1764777,4.1,0.7155811071395874,0.0,0.2,0.8,"Accessibility, Noise, Atmosphere, Aesthetics, Traffic, General","lovely (27), safe (24), quiet (12), busy (9), peaceful (9), great (9), bad (9), good (9), perfect (7), flow (3), walking (3), near (3), tidy (3)",27
Wandsworth,Cemetery,Cemetery,51.4611899,-0.2208447,5.0,0.2815147837003072,1.0,0.0,0.0,Maintenance,old (9),1
Wandsworth,Moravian Burial Ground,Cemetery,51.4834051,-0.1759775,4.0,0.4958995183308919,0.0,1.0,0.0,"Aesthetics, Maintenance, Noise, Atmosphere","quiet (18), safe (9), modern (9), beautiful (9), lovely (9), pretty (9), tidy (3), relaxing (3)",1
Wandsworth,Catacombs,Cemetery,51.4845313,-0.1903399,5.0,0.0,0.0,0.0,0.0,,,1
Wandsworth,Fulham Cemetery,Cemetery,51.479901,-0.2170328,4.1,0.5830241680145264,0.2,0.2,0.6,"Accessibility, Safety, Noise, Comfort, Atmosphere, Maintenance, Aesthetics, General","beautiful (24), wonderful (24), quiet (24), walking (12), noisy (9), safe (9), lovely (9), peaceful (9), great (9), vibrant (9), police (9), pleasant (9), new (9), remote (9), tidy (3), flow (3), far (3), protected (3), fantastic (3), messy (1)",19
Wandsworth,Gap Road Cemetery,Cemetery,51.429333,-0.1948589,4.6,0.5217509890596072,0.08333333333333333,0.6666666666666666,0.25,"Noise, Cleanliness, Atmosphere, Maintenance, Aesthetics, General","peaceful (14), quiet (9), maintained (9), calm (6), walking (3), good (3), noisy (3), lovely (3)",10
Wandsworth,Fulham Road Jewish Cemetery,Cemetery,51.4895023,-0.1751934,4.7,0.40165263911088306,0.3333333333333333,0.6666666666666666,0.0,"Accessibility, Noise, Cleanliness, Maintenance, Aesthetics","dusty (9), isolated (9), silent (9), old (9), charming (9), busy (6), safe (6), lovely (3)",3
Wandsworth,Cemetery,Cemetery,51.4888731,-0.1563557,4.5,0.7954230474101173,0.0,0.3333333333333333,0.6666666666666666,"Aesthetics, General","bad (9), elegant (9), amazing (6), safe (3)",4
Wandsworth,Barnes Cemetery,Cemetery,51.47100649999999,-0.2348770000000001,4.6,0.5902513444423676,0.0,0.6,0.4,"Accessibility, Safety, Noise, Atmosphere, Maintenance, Traffic, Aesthetics, General","safe (33), dark (27), old (18), perfect (18), peaceful (18), beautiful (18), good (15), lovely (13), walking (12), tidy (9), plain (9), far (9), lighting (3), messy (3), charming (3), noisy (3), parking (1)",16
Wandsworth,Barclay Hall Christian Fellowship,Church,51.4793508,-0.1969277,5.0,0.4461480875809987,0.6666666666666666,0.0,0.3333333333333333,General,fantastic (3),3
Wandsworth,Old Church,Church,51.4392651,-0.1481993,5.0,0.5108256489038467,0.0,0.8333333333333334,0.16666666666666666,"Maintenance, General","old (18), great (9)",3
Wandsworth,Yahweh Christian Fellowship,Church,51.429267,-0.1765508,4.7,0.7749994119008382,0.0,0.13333333333333333,0.8666666666666667,"General, Comfort, Aesthetics, Safety","great (27), messy (15), welcoming (15), lovely (12), security (9), safe (3)",25
Wandsworth,"All Saints, Fulham",Church,51.4686111,-0.2116667,4.6,0.7277356922626496,0.0,0.2,0.8,"Noise, Atmosphere, Maintenance, Aesthetics, General","lovely (27), beautiful (27), wonderful (9), old (9), excellent (9), safe (6), quiet (6), walking (3), peaceful (3)",109
Wandsworth,Putney Lower Common Cemetery Chapel,Church,51.4693106,-0.2324493,4.4,0.5432306170463562,0.2,0.4,0.4,"Accessibility, Cleanliness, Atmosphere, Maintenance, Aesthetics, General","beautiful (9), neglected (9), lovely (9), old (9), great (9), good (9), dead (9), safe (3), near (3)",13
Wandsworth,"Our Lady & St Peter RC Church, Wimbledon",Church,51.4472889,-0.2199408,4.8,0.6882219791412354,0.0,0.2,0.8,"Comfort, Cleanliness, Atmosphere, Maintenance, Aesthetics, General","good (30), unattractive (18), lovely (18), tidy (12), modern (9), welcoming (9), clean (9), noisy (3), safe (3), dead (3), cars (3)",57
Wandsworth,St Luke's & Christ Church,Church,51.48954519999999,-0.1695538,4.6,0.7432108044624328,0.0,0.2,0.8,"Maintenance, Atmosphere, Aesthetics, General","stunning (18), good (9), beautiful (9), amazing (9), wonderful (9), active (9), peaceful (3)",199
Wandsworth,Brixton Baptist Church,Church,51.4617715,-0.1253771,4.4,0.6226136088371277,0.0,0.4666666666666667,0.5333333333333333,"Comfort, Accessibility, General","easy (9), amazing (9), good (9), welcoming (9), wonderful (6), busy (3), walking (3), noisy (3), cars (3), calm (3), cozy (3), ugly (3), fantastic (3)",29
Wandsworth,"Ascension Church, Balham",Church,51.45070739999999,-0.1494436,4.9,0.7096266567707061,0.0,0.4,0.6,"Noise, Comfort, Atmosphere, Aesthetics, General","welcoming (24), lovely (24), peaceful (12), safe (12), perfect (9), excellent (9), fantastic (9), great (9), enjoyable (9), beautiful (9), amazing (9), relaxing (3), good (3), connected (3), tidy (3)",87
Wandsworth,Ethiopian Orthodox Church St Mary,Church,51.4707027,-0.1489725,4.7,0.5599868893623352,0.2,0.4,0.4,"Noise, Aesthetics, Accessibility, General","loud (18), music (18), lovely (12), safe (9), terrible (9), near (9), beautiful (9), tidy (6), messy (3), good (3), noisy (3), active (3)",113
Wandsworth,Assemblies of the First Born,Church,51.4725604,-0.1651648,4.8,0.461400531232357,0.0,1.0,0.0,,"safe (3), peaceful (3)",5
Wandsworth,The Platt Christian Centre,Church,51.4654305,-0.2170427,3.5,0.639893372853597,0.0,0.0,1.0,General,great (9),4
Wandsworth,Christ Church Balham,Church,51.4438298,-0.1535016,4.7,0.7831840276718139,0.0,0.0,1.0,"Maintenance, Comfort, General","welcoming (27), wonderful (9), great (9), safe (3), tidy (3), lovely (3), walking (1)",14
Wandsworth,Chelsea Community Church,Church,51.4825835,-0.1824323,4.6,0.7174971759319305,0.2,0.0,0.8,"Traffic, General","parking (12), good (9), safe (3), cars (3), noisy (3), lovely (3)",10
Wandsworth,Chelsea Bridge Wharf Car Park,Parking,51.48153560000001,-0.1484777,4.0,0.47209078272183735,0.2,0.8,0.0,"Accessibility, Safety, Noise, Cleanliness, Atmosphere, Maintenance, Traffic, Aesthetics, General","parking (84), good (33), cars (27), secure (18), near (18), quiet (9), pedestrian (9), difficult (9), great (9), security (9), modern (9), beautiful (9), safe (6), tidy (6), clean (6), amazing (6), messy (3), noisy (3)",83
Wandsworth,Chelsea London Car Park,Car Wash,51.4806008,-0.1800169,3.9,0.6066489696502686,0.0,0.6,0.4,"Accessibility, Safety, Comfort, Traffic, General","parking (39), safe (27), cars (12), security (9), pleasant (9), easy (9), excellent (9), secure (9), walking (6)",60
Wandsworth,CarParkDirect,Parking,51.4644219,-0.213943,3.4,0.5785309433937073,0.13333333333333333,0.4666666666666667,0.4,General,"good (9), cars (6), parking (6), pretty (3), noisy (3), tidy (3)",20
Wandsworth,Clapham Library,Library,51.4629807,-0.1332635,3.3,0.6955740114053091,0.0,0.4666666666666667,0.5333333333333333,"Accessibility, Noise, Comfort, Cleanliness, Atmosphere, Maintenance, Aesthetics, General","great (36), loud (18), good (18), quiet (9), clean (9), spacious (9), modern (9), easy (9), lovely (6), safe (6), tidy (3)",98
Wandsworth,Tooting Library,Library,51.4265457,-0.1657008,4.4,0.7459883650143941,0.0,0.4,0.6,"Noise, Aesthetics, General","excellent (18), great (18), lovely (15), loud (9), wonderful (9), messy (6), tidy (6), roomy (3), busy (3)",96
Wandsworth,Southfields Library,Library,51.44352929999999,-0.2087231,4.3,0.5994447727998098,0.2,0.4,0.4,"Maintenance, Noise, Aesthetics, General","loud (24), great (18), old (9), wonderful (9), good (9), messy (6), noisy (6), grimy (3)",71
Wandsworth,Battersea Park Library,Library,51.47445450000001,-0.1546273,4.5,0.6917111059029897,0.0,0.4,0.6,"Comfort, Cleanliness, Aesthetics, General","amazing (9), great (9), lovely (9), tidy (6), clean (6), lively (3), parking (3), welcoming (3), safe (3)",41
Wandsworth,Chelsea and Westminster Hospital: Imperial College Medical Library,Library,51.4845152,-0.1823678,5.0,0.0,0.0,0.0,0.0,,,2
Wandsworth,Balham Library,Library,51.4454409,-0.1521435,4.6,0.7488165895144144,0.0,0.0,1.0,"Noise, Atmosphere, Aesthetics, Traffic, General","great (33), peaceful (9), parking (9), lovely (9), calm (6), fantastic (6), amazing (6), good (3), safe (3)",70
Wandsworth,Fulham Library,Library,51.47708829999999,-0.2025501999999999,4.1,0.5716877241929372,0.2,0.3333333333333333,0.4666666666666667,"Noise, Comfort, Atmosphere, Maintenance, Aesthetics, General","damaged (30), good (21), great (18), lovely (15), safe (9), uncomfortable (9), broken (9), excellent (9), quiet (9), tidy (3), poor (3), bikes (3)",99
Wandsworth,Brompton Library,Library,51.49012450000001,-0.1882916,4.2,0.6988146384557088,0.0,0.4,0.6,"Accessibility, Noise, Comfort, Aesthetics, General","tidy (12), good (9), spacious (9), pretty (9), screaming (9), loud (9), safe (6), messy (6), near (3)",45
Wandsworth,Burntwood School,School,51.4383279,-0.1797715,3.6,0.6325217425823212,0.2,0.26666666666666666,0.5333333333333333,"Accessibility, Safety, Comfort, Maintenance, General","tidy (27), safe (24), new (18), messy (15), bad (9), horrible (9), uncomfortable (9), difficult (9), awful (6), peaceful (3), lovely (3), good (3), poor (3), easy (3), isolated (3)",92
Wandsworth,Nuffield Health Fulham Fitness and Wellbeing Centre,Gym,51.4771405,-0.2221572,3.6,0.5378664195537567,0.4,0.2,0.4,"Accessibility, Noise, Comfort, Cleanliness, Atmosphere, Maintenance, Traffic, General","great (42), good (39), clean (21), safe (18), quiet (18), welcoming (18), excellent (18), messy (15), tidy (12), roomy (9), wonderful (9), parking (9), easy (9), poor (9), disappointing (9), enjoyable (9), dirty (9), broken (9), new (9), cars (6), amazing (6), busy (3), calm (3), cozy (3), noisy (3)",137
Wandsworth,"City St George's, University of London (Tooting)",University,51.4269516,-0.1738811,4.5,0.5211421847343445,0.4,0.4,0.2,"Cleanliness, Aesthetics, Accessibility, General","good (9), fantastic (9), clean (9), amazing (9), lovely (9), tidy (6), safe (3), messy (3), easy (3), shouting (2)",268
Wandsworth,Morley College London - Chelsea Centre for Creative Industries,University,51.48181599999999,-0.1854059,3.9,0.5953884720802307,0.0,0.6,0.4,"Accessibility, Safety, Noise, Comfort, Atmosphere, Maintenance, Aesthetics, General","messy (69), good (39), new (36), bad (27), noisy (21), poor (21), tidy (18), uncomfortable (18), safe (12), modern (9), shouting (9), threatening (9), empty (9), security (9), pretty (9), far (9), roomy (3)",76
Wandsworth,South Bank Colleges,University,51.4587037,-0.1410873,3.2,0.771827107667923,0.0,0.2,0.8,"Accessibility, Atmosphere, Maintenance, Aesthetics, Traffic, General","messy (21), safe (18), worst (18), tidy (15), noisy (12), busy (9), far (9), new (9), updated (3), good (3), easy (3), improved (3)",146
Wandsworth,London Film Academy,University,51.4819173,-0.1982197,4.6,0.841221809387207,0.0,0.0,1.0,"Comfort, Aesthetics, Safety, General","good (27), amazing (27), great (18), pretty (12), welcoming (9), perfect (9), messy (9), wonderful (9), security (9), tidy (6), noisy (3), safe (3), walking (3)",167
Wandsworth,"The Institute of Cancer Research, London",University,51.489948,-0.174505,5.0,0.6207190553347269,0.0,0.3333333333333333,0.6666666666666666,,,2
Wandsworth,Postgraduate Search,University,51.4685563,-0.2092778,5.0,0.33918018142382306,1.0,0.0,0.0,Maintenance,"new (9), modern (9)",1
Wandsworth,Perform Within St Francis Xavier College,University,51.45211419999999,-0.1495594,1.0,0.470445175965627,0.0,1.0,0.0,General,"bad (9), tidy (3)",1
Wandsworth,Lambeth College Vauxhall Centre,University,51.4760136,-0.1328776,3.4,0.6256599485874176,0.0,0.4666666666666667,0.5333333333333333,General,"terrible (18), horrible (9), good (9), tidy (6), safe (3), parking (3)",15
Wandsworth,RCA Battersea,University,51.4793857,-0.1705408,4.0,0.6808023114999135,0.0,0.4,0.6,"Safety, Comfort, Maintenance, Aesthetics, General","good (27), safe (12), pretty (9), new (9), beautiful (9), security (9), unpleasant (9), tidy (3), messy (3)",38
Wandsworth,"ACM London, Academy of Contemporary Music",University,51.4623634,-0.1393677,3.8,0.5289733091990153,0.06666666666666667,0.7333333333333333,0.2,"Noise, Maintenance, Aesthetics, General","great (27), tidy (15), music (9), new (9), amazing (9), noisy (9), messy (8), wonderful (6), bad (3), fantastic (3)",18
Wandsworth,The Michael Tippett College,University,51.4466908,-0.1408775,3.7,0.5454803705215454,0.0,1.0,0.0,Aesthetics,lovely (9),3
Wandsworth,Central Film School,University,51.46575800000001,-0.1259365,4.0,0.5518959691127141,0.2,0.4,0.4,"Maintenance, Aesthetics, Accessibility, General","central (18), messy (9), pretty (9), excellent (9), tidy (6), noisy (3), improved (3)",45
Wandsworth,Boston University - London,University,51.4925846,-0.1852592,3.8,0.49645449221134186,0.0,1.0,0.0,General,good (18),10
Wandsworth,NHLI Guy Scadding Building,University,51.4900536,-0.1719777,4.6,0.42038261890411377,0.0,1.0,0.0,General,"amazing (9), messy (3), tidy (3)",10
Wandsworth,Chelsea and Westminster Hospital,Hospital,51.4843947,-0.1817018,3.9,0.7613919297854106,0.2,0.0,0.8,"Accessibility, Safety, Comfort, Maintenance, Aesthetics, General","amazing (27), excellent (9), tidy (9), comfortable (9), near (6), safe (6), easy (3), lovely (3), messy (3), relaxing (3)",1004
Wandsworth,St George's Hospital,Hospital,51.42656299999999,-0.1752284,3.7,0.68323539296786,0.06666666666666667,0.3333333333333333,0.6,"Maintenance, Cleanliness, Aesthetics, General","good (21), tidy (18), messy (15), safe (12), amazing (9), worst (9), great (9), clean (9), easy (7), noisy (3), jammed (1)",1181
Wandsworth,Royal Brompton Hospital,Hospital,51.4891103,-0.1701254,4.2,0.7074166337649027,0.0,0.06666666666666667,0.9333333333333333,"Accessibility, Comfort, Cleanliness, Maintenance, Aesthetics, General","amazing (36), comfortable (27), wonderful (18), good (12), new (9), pleasant (9), clean (9), easy (9), lovely (9), perfect (6), pretty (3), noisy (3), tidy (3), messy (3)",358
Wandsworth,Chelsea Outpatient Centre,Hospital,51.4864256,-0.1716999,4.2,0.6480315903822581,0.0,0.6,0.4,"Maintenance, Comfort, Aesthetics, General","excellent (18), wonderful (9), messy (9), amazing (9), great (9), comfortable (9), lovely (6), noisy (3), safe (3), new (3)",60
Wandsworth,Queenstown Road Medical Practice,Hospital,51.4669777,-0.1503445,2.4,0.6272262990474701,0.06666666666666667,0.5333333333333333,0.4,Accessibility,"far (15), difficult (9), safe (6), messy (3)",58
Wandsworth,Ovara Health,Hospital,51.483914,-0.1847774,4.2,0.7988172054290772,0.0,0.0,1.0,"Accessibility, Cleanliness, Maintenance, Aesthetics, General","tidy (12), good (9), easy (9), clean (9), lovely (9), fantastic (9), maintained (6), messy (5), safe (3)",166
Wandsworth,Royal Hospital For Neuro-disability,Hospital,51.45162699999999,-0.2141958,3.9,0.8069180289904276,0.0,0.2,0.8,"Aesthetics, Maintenance, Atmosphere, General","worst (27), good (21), lovely (19), new (9), relaxing (9), horrible (9), great (9), messy (6), damaged (3), poor (3), walking (3), noisy (3)",55
Wandsworth,Nuffield Health Parkside Hospital,Hospital,51.4357845,-0.2238555,3.9,0.7318253477414449,0.2,0.0,0.8,"Comfort, Aesthetics, Safety, General","great (27), amazing (21), excellent (18), messy (9), lovely (9), safe (9), comfortable (9), uncomfortable (9), tidy (6), pleasant (3), shouting (3)",305
Wandsworth,In Mind Hospital Healthcare Group,Hospital,51.476741,-0.1702419,5.0,0.0,0.0,0.0,0.0,,,2
Wandsworth,Battersea Bridge House,Hospital,51.47665749999999,-0.1704148,3.7,0.0,0.0,0.0,0.0,,,3
Wandsworth,South Kensington & Chelsea Mental Health Centre,Hospital,51.484373,-0.1802553,2.6,0.7557250499725342,0.0,0.2,0.8,"Maintenance, Accessibility, General","fantastic (9), messy (9), broken (9), connected (9), tidy (6), safe (6), noisy (3)",14
Wandsworth,Wimbledon Park Clinic,Hospital,51.43447760000001,-0.2000264,5.0,0.0,0.0,0.0,0.0,,,2
Wandsworth,"St. Margaret's Badminton Club, Tooting",Museum,51.4375305,-0.1583116,4.3,0.8079824381404452,0.0,0.0,1.0,"Aesthetics, General","great (9), wonderful (9), excellent (9), lovely (6)",6
Wandsworth,Chelsea FC Museum,Tourist Attraction,51.48269209999999,-0.1915235,4.7,0.728189084927241,0.0,0.3333333333333333,0.6666666666666666,"Maintenance, Comfort, Aesthetics, General","great (27), worst (9), wonderful (9), lovely (9), bad (9), fantastic (9), enjoyable (9), roomy (6), noisy (6), old (3), tidy (3), messy (3), shouting (3), lighting (2)",2746
Wandsworth,VENTIQUE,Art Gallery,51.4788181,-0.1847262,5.0,0.0,0.0,0.0,0.0,,,1
Wandsworth,Clapham South Deep Level Shelter,Museum,51.45347,-0.1474088,4.6,0.7043952624003093,0.0,0.6,0.4,"Maintenance, Aesthetics, Accessibility, General","old (9), lovely (9), good (9), far (9), fantastic (3), messy (2)",20
Wandsworth,London Sewing Machine Museum,Museum,51.4365653,-0.1586657,4.7,0.5334337883525424,0.0,1.0,0.0,"Accessibility, Safety, Noise, Maintenance, General","amazing (18), improved (15), safe (15), good (12), accessible (9), police (9), silent (9), perfect (9), modern (9), noisy (3), new (3), music (3), walking (3), dark (3), dead (3), near (3), tidy (3)",3
Wandsworth,Coachman’s Lodge,Museum,51.47117979999999,-0.216934,3.0,0.5604382356007894,0.0,0.6666666666666666,0.3333333333333333,General,amazing (3),1
Wandsworth,Jonathan Cooper,Art Gallery,51.4856876,-0.1799696,5.0,0.6595573822657267,0.0,0.25,0.75,General,good (18),9
Wandsworth,Quantum Contemporary Art,Art Gallery,51.4742891,-0.1587264,5.0,0.6874014834562937,0.1111111111111111,0.1111111111111111,0.7777777777777778,"Accessibility, General","great (9), amazing (3), difficult (3)",6
Wandsworth,The Russell Gallery,Art Gallery,51.4672344,-0.2180614,4.7,0.7372757991154989,0.0,0.06666666666666667,0.9333333333333333,General,"great (24), fantastic (12), wonderful (9), good (3)",11
Wandsworth,"Charlotte Partridge, Portrait Artist",Art Gallery,51.46500699999999,-0.155009,5.0,0.8624184528986613,0.0,0.0,1.0,"Aesthetics, General","beautiful (9), wonderful (6), fantastic (3)",1
Wandsworth,L & V Art and Design,Art Gallery,51.4742391,-0.1586498,5.0,0.0,0.0,0.0,0.0,,,1
Wandsworth,Knight Webb Gallery,Art Gallery,51.47866819999999,-0.1704387,4.3,0.5332867304484049,0.0,0.8333333333333334,0.16666666666666666,,,4
Wandsworth,JGM Gallery,Art Gallery,51.4792026,-0.169324,4.5,0.7939483165740967,0.0,0.2,0.8,"Aesthetics, Maintenance, Atmosphere, General","great (18), wonderful (9), vibrant (9), beautiful (9), elegant (9), old (3), safe (3)",11
Wandsworth,Brook Green,Park,51.496182,-0.2198333,4.4,0.5773429036140442,0.0,0.6,0.4,"Accessibility, Safety, Noise, Cleanliness, Atmosphere, Maintenance, Aesthetics, Traffic, General","lovely (27), pretty (18), relaxing (18), quiet (18), busy (18), safe (18), good (12), perfect (12), amazing (9), modern (9), new (9), easy (9), clean (9), parking (5), tidy (3), near (3), lively (3)",386
Wandsworth,WWT London Wetland Centre,Tourist Attraction,51.476141,-0.234665,4.6,0.7225206136703491,0.0,0.13333333333333333,0.8666666666666667,"Noise, Maintenance, Traffic, Aesthetics, General","great (45), good (30), shouting (18), lovely (18), walking (12), dark (9), dead (9), parking (9), excellent (9), beautiful (9), pretty (9), new (9), tidy (6), modern (3), messy (3)",3405
Wandsworth,Flanders Fields Memorial Garden,Tourist Attraction,51.5005394,-0.1357828,4.7,0.7272071739037832,0.0,0.13333333333333333,0.8666666666666667,"Aesthetics, General","beautiful (9), excellent (9), amazing (9), walking (3), safe (3), lovely (1)",21
Wandsworth,Hyde Park,Park,51.5073638,-0.1641135,4.7,0.6589103559652965,0.0,0.4,0.6,"Noise, Cleanliness, Atmosphere, Maintenance, Aesthetics, Traffic, General","parking (31), beautiful (27), walking (27), safe (24), busy (18), quiet (18), perfect (18), great (18), lovely (13), flow (12), calm (12), relaxing (12), peaceful (9), wonderful (9), maintained (9), crowded (9), amazing (6), bikes (6), tidy (6), vehicle (5), messy (3)",135087
Wandsworth,Brockwell Park,Park,51.45082000000001,-0.1076672,4.6,0.7980042934417725,0.0,0.0,1.0,"Accessibility, Noise, Comfort, Cleanliness, Atmosphere, Maintenance, Aesthetics, Traffic, General","music (36), beautiful (27), parking (24), maintained (18), walking (16), lovely (12), safe (12), lively (9), spacious (9), tight (9), clean (9), amazing (9), perfect (9), great (9), peaceful (9), good (9), roomy (3), far (3), tidy (3), relaxing (3)",8321
Wandsworth,Kensington Gardens,Park,51.506987,-0.179165,4.7,0.6919321457544962,0.0,0.2,0.8,"Safety, Noise, Cleanliness, Atmosphere, Aesthetics, Traffic, General","safe (30), perfect (27), relaxing (24), walking (21), peaceful (18), busy (18), quiet (18), beautiful (18), calm (15), parking (15), crowded (9), lovely (9), clean (9), fantastic (9), great (9), bikes (6), tidy (3), flow (3)",28982
Wandsworth,Stockwell Skate Park,Park,51.4660545,-0.1163401,4.5,0.6890641450881958,0.0,0.4,0.6,"Accessibility, Safety, Atmosphere, Maintenance, Traffic, General","good (30), safe (24), busy (18), new (9), near (9), lighting (9), perfect (9), parking (6), lovely (3), tidy (3), bikes (3)",308
Wandsworth,Holland Park,Park,51.50322519999999,-0.2036668,4.7,0.6271964391072591,0.0,0.6,0.4,"Noise, Cleanliness, Atmosphere, Aesthetics, Traffic, General","beautiful (36), parking (30), great (27), busy (18), lovely (18), relaxing (15), safe (12), perfect (9), serene (9), vibrant (9), charming (9), crowded (9), pretty (9), neat (9), clean (9), quiet (6), walking (3), easy (3)",15101
Wandsworth,Buckingham Palace Garden,Tourist Attraction,51.50112020000001,-0.1460413,4.6,0.6579830408096313,0.0,0.4,0.6,"Accessibility, Noise, Comfort, Cleanliness, Atmosphere, Maintenance, Aesthetics, Traffic, General","peaceful (36), beautiful (27), maintained (27), walking (15), safe (12), pleasant (9), stunning (9), flow (9), serene (9), perfect (9), relaxing (9), bustling (9), accessible (9), disappointing (9), lovely (6), quiet (3)",2928
Wandsworth,The Green Park,Park,51.5039416,-0.1434016,4.6,0.689329206943512,0.0,0.2,0.8,"Accessibility, Noise, Comfort, Cleanliness, Atmosphere, Maintenance, Aesthetics, Traffic, General","beautiful (27), serene (27), parking (27), great (27), relaxing (21), safe (18), maintained (18), quiet (18), perfect (16), walking (12), accessible (9), peaceful (9), clean (9), spacious (9), excellent (9), easy (9), active (9), central (9), lovely (3), tidy (3), good (3)",26295
Wandsworth,Kyoto Garden,Tourist Attraction,51.50299219999999,-0.2046902,4.7,0.6169728994369507,0.06666666666666667,0.5333333333333333,0.4,"Accessibility, Noise, Cleanliness, Atmosphere, Maintenance, Aesthetics, Traffic, General","beautiful (36), tidy (18), busy (18), serene (18), maintained (18), great (18), parking (15), peaceful (12), near (9), loud (9), amazing (9), vibrant (9), quiet (9), perfect (9), charming (9), calm (9), scenic (9), safe (6), good (3), clean (3), shouting (3), messy (3), lighting (3)",12227
Wandsworth,Bonnington Square Pleasure Garden,Park,51.4842993,-0.120288,4.7,0.5441794077555339,0.2,0.4,0.4,"Accessibility, Noise, Atmosphere, Aesthetics, Traffic, General","great (18), chaotic (9), good (9), central (9), beautiful (9), quiet (9), busy (9), amazing (6), near (6), lovely (3), parking (3)",121
Wandsworth,Royal Artillery Memorial,Transit Station,51.50259759999999,-0.1517873,4.3,0.5751056611537934,0.0,0.6,0.4,"Maintenance, Accessibility, General","parking (12), great (9), near (9), new (9)",13
Wandsworth,Morden Road,Transit Station,51.4088386,-0.1929738,3.9,0.5780467291673025,0.2,0.2,0.6,"Accessibility, General","convenient (9), good (9), safe (9), walking (6), poor (6), busy (3)",21
Wandsworth,Victoria Coach Station,Transit Station,51.4922333,-0.1482793,3.4,0.5814639627933502,0.0,0.8,0.2,"Accessibility, Safety, Noise, Comfort, Cleanliness, Atmosphere, Maintenance, Traffic, Aesthetics, General","walking (18), tidy (18), messy (12), clean (12), safe (9), busy (9), pleasant (9), horrible (9), shouting (9), traffic (9), dirty (9), easy (9), crowded (9), security (9), ugly (9), good (9), convenient (9), near (3), roomy (3), upgraded (3)",987
Wandsworth,Victoria,Transit Station,51.4952103,-0.1438979,4.3,0.6436500469843547,0.2,0.4,0.4,"Accessibility, Safety, Comfort, Cleanliness, Atmosphere, Maintenance, Aesthetics, Traffic, General","good (33), safe (24), clean (21), tidy (18), modern (18), busy (12), beautiful (9), lovely (9), pretty (9), accessible (9), spacious (9), old (9), new (9), maintained (9), crowded (9), security (9), surveillance (9), charming (3)",4907
Wandsworth,Saint George's Road Car Park,Transit Station,51.4203725,-0.2083013,1.5,0.7447665413220723,0.0,0.26666666666666666,0.7333333333333333,"Accessibility, Safety, Cleanliness, Maintenance, Traffic","parking (54), dirty (18), rubbish (18), cars (12), convenient (9), damaged (9), dark (9), good (3), vehicle (3), walking (3), clean (3)",13
Wandsworth,Queens Road Car Park,Transit Station,51.4219086,-0.2033521,2.0,0.730660617351532,0.0,0.3333333333333333,0.6666666666666666,,"noisy (6), busy (3)",5
Wandsworth,Hall School Wimbledon (Senior School),Bus Station,51.4149757,-0.2213072,3.4,0.5851078695721097,0.0,0.4444444444444444,0.5555555555555556,General,"great (9), safe (3), lovely (1)",11
Wandsworth,Royal Crescent (Stop HD),Bus Station,51.5051283,-0.2141295,3.0,0.7064928650856018,0.0,0.4,0.6,"Maintenance, Traffic, Accessibility, General","busy (22), good (18), safe (9), great (9), driving (9), pedestrian (9), awful (9), new (9), tidy (9), risky (6), convenient (3), bad (3), walking (3), messy (3), connected (3), noisy (3)",25
Wandsworth,Shepherd's Bush Bus Garage,Bus Station,51.5015116,-0.2262197,4.0,0.5571922898292542,0.26666666666666666,0.3333333333333333,0.4,"Maintenance, Atmosphere, Aesthetics, General","safe (15), busy (12), horrible (9), empty (9), tidy (6), poor (6), noisy (3), walking (3), bikes (3)",36
Wandsworth,West Kensington,Subway Station,51.49056460000001,-0.2064539,3.8,0.5150887548923493,0.0,0.8,0.2,"Accessibility, Cleanliness, Atmosphere, Maintenance, Aesthetics, Traffic","busy (45), difficult (36), easy (27), crowded (27), maintained (27), near (18), parking (18), convenient (18), lovely (9), accessible (9), old (9), noisy (9), safe (6), tidy (6), walking (3), dark (3), dead (3)",76
Wandsworth,Gloucester Road,Subway Station,51.49440480000001,-0.1827321,4.3,0.6717023909091949,0.06666666666666667,0.3333333333333333,0.6,"Accessibility, Noise, Atmosphere, Maintenance, Traffic, General","accessible (27), great (18), good (18), perfect (18), walking (9), near (6), quiet (3), lighting (3), new (3), difficult (3), safe (3), parking (3)",296
Wandsworth,South Kensington,Subway Station,51.49415579999999,-0.1739576,4.3,0.598235551516215,0.0,0.6666666666666666,0.3333333333333333,"Accessibility, Comfort, Atmosphere, Maintenance, Aesthetics, Traffic, General","busy (30), safe (21), perfect (18), charming (12), cozy (9), excellent (9), beautiful (9), easy (9), wonderful (9), bad (9), modern (9), new (9), accessible (9), relaxing (7), near (6), dark (6), dead (6), walking (3), convenient (3), old (3)",482
Wandsworth,Sloane Square,Subway Station,51.4923519,-0.1564328,4.3,0.5642947634061177,0.06666666666666667,0.7333333333333333,0.2,"Accessibility, Safety, Comfort, Atmosphere, Maintenance, Aesthetics, Traffic, General","good (15), beautiful (9), charming (9), busy (9), great (9), safe (9), convenient (9), amazing (9), tidy (9), new (9), comfortable (9), flow (3), dangerous (3)",203
Wandsworth,Barons Court,Subway Station,51.4903156,-0.2135906,4.1,0.681247756878535,0.0,0.6,0.4,"Accessibility, Safety, Noise, Atmosphere, Maintenance, Aesthetics, Traffic","beautiful (18), traffic (18), lovely (12), safe (9), dark (9), near (9), new (9), pedestrian (9), pretty (9), inconvenient (9), noisy (3), roomy (3), calm (3)",158
Wandsworth,Colliers Wood,Subway Station,51.41817029999999,-0.1778597,4.2,0.5795526365439098,0.13333333333333333,0.6666666666666666,0.2,"Maintenance, Cleanliness, Aesthetics, General","old (9), new (9), good (9), lovely (9), lively (3), noisy (3), safe (3), ugly (3), parking (3), dark (3), dead (3)",89
Wandsworth,Stockwell,Subway Station,51.4723538,-0.1228245,4.0,0.5102338115374248,0.06666666666666667,0.9333333333333333,0.0,"Safety, Accessibility, General","safe (15), great (9), easy (9), far (5), lively (3), busy (3), bikes (2)",86
Wandsworth,Brixton,Subway Station,51.4625983,-0.1147482,4.3,0.5681709249814352,0.2,0.4,0.4,"Safety, Noise, Comfort, Cleanliness, Atmosphere, Maintenance, Traffic, General","great (27), safe (18), good (12), busy (9), amazing (9), wonderful (9), music (9), improved (9), pleasant (9), tidy (3), walking (3)",367
Wandsworth,Cardinal Place,Shopping Mall,51.49710020000001,-0.141117,4.3,0.5951650122801463,0.06666666666666667,0.4666666666666667,0.4666666666666667,"Accessibility, Noise, Atmosphere, Aesthetics, Traffic, General","wonderful (27), great (27), lovely (24), quiet (18), safe (9), beautiful (9), empty (9), noisy (3), flow (3), near (3)",6733
Wandsworth,Tandem Centre,Shopping Mall,51.4138525,-0.1777389,4.2,0.7015974164009094,0.0,0.0,1.0,"Accessibility, Cleanliness, Maintenance, Traffic, General","parking (24), near (18), safe (12), neat (9), new (9), great (9), good (6), cars (3), walking (3), busy (3), relaxing (3)",3738
Wandsworth,Duke of York Square,Shopping Mall,51.4914045,-0.1597764,4.5,0.5476820389429728,0.0,0.8,0.2,"Accessibility, Atmosphere, Maintenance, Aesthetics, Traffic, General","great (45), new (36), safe (24), good (18), charming (15), lively (12), crowded (12), vibrant (9), accessible (9), perfect (9), easy (9), lovely (9), relaxing (3), flow (3)",4263
Wandsworth,W12 Shopping,Shopping Mall,51.50349670000001,-0.2191805,4.0,0.6389666676521302,0.0,0.4,0.6,"Accessibility, Safety, Noise, Comfort, Cleanliness, Atmosphere, Maintenance, Traffic, General","parking (36), safe (33), convenient (27), good (18), accessible (18), dark (18), perfect (16), fantastic (9), pleasant (9), inviting (9), clean (9), maintained (9), enjoyable (9), excellent (9), great (9), driving (9), bustling (9), near (6), old (3), walking (3), lovely (1)",5810
Wandsworth,Victoria Place,Shopping Mall,51.49471020000001,-0.14589,4.1,0.6705506960550944,0.0,0.4666666666666667,0.5333333333333333,"Accessibility, Cleanliness, Atmosphere, Aesthetics, Traffic, General","clean (18), attractive (9), perfect (9), central (9), noisy (6), safe (3), busy (3), vehicle (3), roomy (3)",5780
Wandsworth,Livat Hammersmith,Shopping Mall,51.49295619999999,-0.228687,3.9,0.7697878281275431,0.0,0.2,0.8,"Comfort, Cleanliness, Maintenance, Aesthetics, Traffic, General","good (18), clean (18), safe (12), improved (9), dirty (9), maintained (9), bad (9), new (9), appealing (9), inviting (9), great (9), amazing (9), lovely (9), cars (3), parking (3), poor (3), flow (3), messy (3)",6074
Wandsworth,Wimbledon Quarter,Shopping Mall,51.4214084,-0.2049002,4.0,0.5413447141647338,0.2,0.6,0.2,"Accessibility, Safety, Noise, Comfort, Atmosphere, Maintenance, General","good (18), safe (12), spacious (9), dark (9), quiet (9), easy (9), walking (6), lovely (3), ugly (3)",5338
Wandsworth,Broadway Shopping Centre,Shopping Mall,51.4922124,-0.2245587,4.0,0.7343602418899536,0.0,0.13333333333333333,0.8666666666666667,"Accessibility, Safety, Noise, Cleanliness, Aesthetics, General","music (27), great (18), safe (15), amazing (15), convenient (9), security (9), lovely (9), disappointing (9), clean (9), easy (9), busy (6), pretty (6), good (3), dark (3), dead (3), beautiful (3), tidy (3), noisy (3), near (3), poor (3)",3251
Wandsworth,Regent's Place,Shopping Mall,51.497135,-0.1396757,4.6,0.49280120929082233,0.3333333333333333,0.4444444444444444,0.2222222222222222,"Cleanliness, General","clean (18), good (18), neat (6), near (6), new (6), busy (6)",5
Wandsworth,Gloucester Arcade,Shopping Mall,51.4947723,-0.1838469,4.1,0.5753225107987722,0.06666666666666667,0.6,0.3333333333333333,"Atmosphere, Traffic, General","good (27), great (18), terrible (9), safe (9), busy (9), parking (3), walking (3), flow (3)",1243
Wandsworth,Natural History Museum,Museum,51.49671499999999,-0.1763672,4.7,0.6818456212679546,0.0,0.13333333333333333,0.8666666666666667,"Accessibility, Noise, Atmosphere, Maintenance, Aesthetics, Traffic, General","beautiful (42), great (27), safe (21), amazing (18), perfect (18), pretty (18), easy (18), busy (18), tidy (15), wonderful (9), old (9), crowded (9), central (9), roomy (9), peaceful (9), dark (6), dead (6), lovely (3)",30305
Wandsworth,Victoria and Albert Museum,Tourist Attraction,51.4966392,-0.17218,4.7,0.829107916355133,0.0,0.06666666666666667,0.9333333333333333,"Noise, Atmosphere, Maintenance, Aesthetics, General","amazing (27), beautiful (18), lovely (18), safe (18), stunning (18), great (18), tidy (12), peaceful (9), new (9), fantastic (9), old (9), noisy (3), walking (3), roomy (3), relaxing (3)",62103
Wandsworth,Royal Albert Hall,Tourist Attraction,51.5009088,-0.177366,4.8,0.7936957478523254,0.0,0.0,1.0,"Accessibility, Noise, Comfort, Cleanliness, Maintenance, Aesthetics, General","safe (21), great (18), easy (18), clean (15), music (9), beautiful (9), amazing (9), bad (9), modern (9), perfect (9), pleasant (9), spacious (9), good (9), parking (3), roomy (3)",43300
Wandsworth,Machine Gun Corps Memorial,Tourist Attraction,51.50320869999999,-0.1507247,4.4,0.5802563409010569,0.13333333333333333,0.4666666666666667,0.4,"Maintenance, Accessibility","parking (9), new (9), old (9), safe (3), near (3)",39
Wandsworth,Saatchi Gallery,Art Gallery,51.4906972,-0.1587165,4.5,0.6152889887491862,0.0,0.5333333333333333,0.4666666666666667,"Accessibility, Comfort, Cleanliness, Atmosphere, Maintenance, Traffic, Aesthetics, General","flow (21), tidy (18), clean (18), broken (18), safe (12), perfect (9), walking (9), great (9), good (9), crowded (9), busy (9), enjoyable (9), easy (9), stunning (9), calm (9), lovely (4), lively (3), near (3)",9360
Wandsworth,Bomber Command Memorial,Tourist Attraction,51.5033222,-0.1489698,4.7,0.7621134082476299,0.0,0.2,0.8,"Accessibility, Noise, Atmosphere, Maintenance, Traffic, General","amazing (15), near (9), busy (9), quiet (9), wonderful (9), worst (9), safe (6), noisy (3)",533
Wandsworth,the Design Museum,Museum,51.4998973,-0.2002439999999999,4.4,0.5578351616859436,0.0,0.8,0.2,"Accessibility, Noise, Cleanliness, Atmosphere, Aesthetics, Traffic, General","good (39), beautiful (27), lovely (21), wonderful (15), tidy (9), calm (9), quiet (9), clean (9), flow (9), excellent (9), great (9), near (6), easy (3), fantastic (3)",12718
Wandsworth,Holy Trinity Brompton,Tourist Attraction,51.4978016,-0.169831,4.8,0.85349067846934,0.0,0.0,1.0,"Accessibility, Noise, Maintenance, Aesthetics, General","wonderful (24), fantastic (12), lovely (9), music (9), new (9), central (9), messy (3), safe (3)",971
Wandsworth,Tate Britain,Art Gallery,51.49106210000001,-0.1277886,4.7,0.6272281765937805,0.0,0.6,0.4,"Accessibility, Noise, Comfort, Atmosphere, Maintenance, Aesthetics, Traffic, General","wonderful (18), quiet (18), accessible (18), busy (9), pleasant (9), safe (9), modern (9), beautiful (9), peaceful (9), tidy (6), gorgeous (3), near (3), good (3)",20779
Wandsworth,Buckingham Palace,Tourist Attraction,51.501364,-0.14189,4.5,0.7286811391512553,0.13333333333333333,0.06666666666666667,0.8,"Accessibility, Noise, Atmosphere, Traffic, Aesthetics, General","amazing (18), lovely (18), crowded (9), difficult (9), peaceful (9), great (9), beautiful (9), safe (3), flow (3)",182268
Wandsworth,Westminster Cathedral,Tourist Attraction,51.49580899999999,-0.13944,4.7,0.7859002351760864,0.0,0.13333333333333333,0.8666666666666667,"Accessibility, Noise, Atmosphere, Aesthetics, General","beautiful (36), safe (9), fantastic (9), gorgeous (9), amazing (9), noisy (9), lovely (9), peaceful (9), tidy (3), near (3)",9060
Wandsworth,Leighton House,Museum,51.4986897,-0.2030209,4.6,0.717761488755544,0.0,0.26666666666666666,0.7333333333333333,"Accessibility, Safety, Atmosphere, Aesthetics, General","amazing (24), gorgeous (18), safe (18), lovely (18), beautiful (18), stunning (9), lighting (9), relaxing (9), near (9), wonderful (9), serene (6), parking (3), good (3), walking (3), calm (3)",1589
Wandsworth,Kensington Palace,Tourist Attraction,51.5049757,-0.187681,4.5,0.6459812959035237,0.0,0.5333333333333333,0.4666666666666667,"Accessibility, Noise, Comfort, Cleanliness, Atmosphere, Maintenance, Aesthetics, Traffic, General","beautiful (33), good (27), perfect (18), peaceful (18), safe (15), parking (12), maintained (9), accessible (9), relaxing (9), busy (9), quiet (9), tight (9), pleasant (9), charming (3), near (3), noisy (3)",29751
Wandsworth,Hookhamslade Pond,Natural Feature,51.4317601,-0.2291951,5.0,0.41289471089839935,0.5,0.5,0.0,"Noise, Atmosphere",quiet (9),3
Wandsworth,Queen's Mere,Natural Feature,51.43810149999999,-0.2372826,5.0,0.6812343200047811,0.0,0.5,0.5,Aesthetics,pretty (9),3
Wandsworth,The Pickle,Natural Feature,51.4134116,-0.1804673,4.5,0.33960357308387756,0.6666666666666666,0.3333333333333333,0.0,,good (3),2
Wandsworth,Rushmere Pond,Natural Feature,51.4250024,-0.2243213,4.7,0.6647833049297333,0.0,0.2,0.8,"Accessibility, Safety, Comfort, Atmosphere, Maintenance, Traffic, Aesthetics, General","great (45), near (18), amazing (18), safe (18), parking (12), walking (12), lovely (9), serene (9), vibrant (9), charming (9), inviting (6), relaxing (3), tidy (3)",16
Wandsworth,Barnes Pond,Natural Feature,51.4731208,-0.2468688,4.9,0.6648661971092225,0.0,0.4666666666666667,0.5333333333333333,"Atmosphere, Aesthetics, General","lovely (12), good (9), perfect (9), charming (9), relaxing (9), amazing (6), parking (3)",48
Wandsworth,Putney Vale Cemetery,Cemetery,51.43970059999999,-0.2413122,4.1,0.6412050445874532,0.0,0.4,0.6,"Accessibility, Noise, Cleanliness, Atmosphere, Maintenance, Aesthetics, Traffic, General","lovely (18), tidy (9), wonderful (9), beautiful (9), peaceful (9), old (9), near (9), good (9), walking (7), terrible (6), noisy (6), maintained (6), messy (3), flow (3), safe (3), awful (3)",45
Wandsworth,Margravine Cemetery,Cemetery,51.4888004,-0.2154066000000001,4.5,0.6375502546628317,0.0,0.3333333333333333,0.6666666666666666,"Noise, Cleanliness, Atmosphere, Maintenance, Aesthetics, Traffic, General","beautiful (36), busy (18), poor (18), pretty (18), noisy (12), maintained (9), dead (9), quiet (9), dirty (9), neglected (9), broken (9), gorgeous (9), great (9), serene (9), walking (6), calm (6), tidy (6), safe (6), flow (3), far (3)",66
Wandsworth,London Road Cemetery,Cemetery,51.4154381,-0.1644026,4.5,0.5375183641910553,0.2,0.4666666666666667,0.3333333333333333,"Accessibility, Noise, Cleanliness, Atmosphere, Traffic, General","quiet (18), near (9), pedestrian (9), calm (9), good (9), clean (6), safe (3), peaceful (3), walking (3), honking (1)",21
Wandsworth,London Oratory,Tourist Attraction,51.4970748,-0.1695205,4.7,0.6114660342534383,0.2,0.26666666666666666,0.5333333333333333,"Accessibility, Noise, Comfort, Atmosphere, Maintenance, Aesthetics, Traffic, General","beautiful (39), quiet (36), safe (27), peaceful (18), stunning (15), gorgeous (9), great (9), tidy (9), amazing (9), busy (9), elegant (9), bustling (9), far (9), active (9), welcoming (6), new (3), lighting (3), dark (3), dead (3), cozy (3), near (3), messy (3)",1390
Wandsworth,Universal Pentecostal Church (TPM) - Brixton,Church,51.4610304,-0.1174764,4.9,0.7314261893431345,0.06666666666666667,0.13333333333333333,0.8,"Maintenance, Aesthetics, General","lovely (9), old (9), new (9), amazing (6), safe (3)",79
Wandsworth,"St Michael's Church, Stockwell",Church,51.4718151,-0.1171296,4.6,0.6020851771036784,0.13333333333333333,0.3333333333333333,0.5333333333333333,"Atmosphere, General","great (9), good (3), calm (3), relaxing (2)",13
Wandsworth,Russian Orthodox Cathedral of the Dormition,Tourist Attraction,51.5006178,-0.1692824,4.8,0.7517741521199545,0.0,0.3333333333333333,0.6666666666666666,"Atmosphere, Cleanliness, Aesthetics, Accessibility","beautiful (24), lovely (15), messy (12), crowded (9), relaxing (9), far (9), calm (6)",841
Wandsworth,Railton Road Methodist Church,Church,51.4572869,-0.1066138,4.8,0.4687478144963582,0.3333333333333333,0.4,0.26666666666666666,"Aesthetics, Traffic, General","great (9), driving (6), tidy (3), lovely (3)",8
Wandsworth,Stockwell Methodist Church,Church,51.4712475,-0.127443,4.7,0.656059185663859,0.3333333333333333,0.0,0.6666666666666666,"Comfort, General","amazing (9), uncomfortable (9), great (9), excellent (9), messy (3), tidy (3), improved (3), lovely (1)",7
Wandsworth,St Mary Abbots Church,Tourist Attraction,51.50236,-0.191757,4.7,0.6137787302335104,0.2,0.26666666666666666,0.5333333333333333,"Accessibility, Noise, Atmosphere, Maintenance, Aesthetics, General","beautiful (30), peaceful (30), near (18), lovely (12), central (9), accessible (9), gorgeous (9), stunning (9), tidy (9), quiet (9), difficult (9), calm (9), amazing (9), parking (6), messy (6), lively (3), good (3), walking (3), connected (3)",393
Wandsworth,"St Peter's Church, Eaton Square",Tourist Attraction,51.49780270000001,-0.1491852,4.6,0.6224324107170105,0.13333333333333333,0.26666666666666666,0.6,"Accessibility, Cleanliness, Atmosphere, Maintenance, Traffic, Aesthetics, General","beautiful (27), safe (15), lovely (12), parking (9), near (9), busy (9), maintained (9), modern (9), amazing (9), calm (3), roomy (3)",241
Wandsworth,"Holy Trinity Church, Sloane Square",Tourist Attraction,51.4931357,-0.1575201,4.7,0.6858452975749969,0.0,0.2,0.8,"Accessibility, Safety, Maintenance, Aesthetics, General","beautiful (36), great (36), good (21), amazing (18), old (12), fantastic (12), near (9), police (9), safe (3), noisy (3), cozy (3), damaged (3)",263
Wandsworth,Kensington High Street Car Park - Saba Parking,Parking,51.5011909,-0.194716,3.2,0.7865174611409506,0.0,0.26666666666666666,0.7333333333333333,"Aesthetics, General, Traffic, Safety","good (36), security (27), cars (24), parking (12), tidy (12), vehicle (9), noisy (6), safe (3), messy (3), awful (3)",102
Wandsworth,Q-Park Knightsbridge,Parking,51.500237,-0.1566195,3.3,0.7965312997500101,0.0,0.2,0.8,"Maintenance, Traffic, Safety","parking (106), cars (81), safe (45), broken (45), secure (27), security (27), noisy (21), tidy (9), police (9), pedestrian (9), crime (9), vehicle (9), surveillance (9), messy (6), good (3)",101
Wandsworth,Q-Park Pimlico,Parking,51.490134,-0.146518,4.1,0.5911072810490926,0.2,0.4,0.4,"Accessibility, Comfort, Cleanliness, Atmosphere, Maintenance, Traffic, General","parking (45), vehicle (9), bad (9), maintained (9), fantastic (9), clean (9), empty (9), near (9), cars (9), difficult (9), tight (9), good (9), messy (3), relaxing (3), safe (3)",245
Wandsworth,Euro Car Parks - The Mayfair Car Park,Parking,51.5048981,-0.1510791,3.3,0.6142287691434224,0.13333333333333333,0.4666666666666667,0.4,"General, Cleanliness, Traffic, Safety","parking (30), safe (12), clean (9), tidy (9), cars (9), good (9), terrible (9), pretty (3), noisy (3), messy (3), secure (2)",104
Wandsworth,Nell Gwynn Garages,Parking,51.4923009,-0.1649527,3.3,0.7483933766682943,0.0,0.16666666666666666,0.8333333333333334,"Maintenance, Comfort, Traffic, General","cars (36), good (18), noisy (9), comfortable (9), bad (9), damaged (9), tidy (6), parking (6), roomy (3), poor (3), messy (3)",6
Wandsworth,Kensington Parking Center,Parking,51.49372550000001,-0.1780147,4.3,0.6560371696949006,0.0,0.4,0.6,"General, Traffic, Accessibility, Safety","parking (48), safe (39), cars (21), central (18), easy (18), messy (12), good (9), excellent (9), lighting (9), security (9), great (9), walking (6), tidy (6), near (3), vehicle (3), dark (3), dead (3), pretty (3)",238
Wandsworth,Wimbledon Bridge Car Park,Parking,51.4197907,-0.2066506,3.4,0.5061395128568014,0.0,0.8,0.2,"Accessibility, Cleanliness, Maintenance, Traffic, General","good (27), parking (18), safe (15), tidy (12), new (9), cars (9), maintained (9), noisy (9), busy (9), far (9), rubbish (9), bad (9), broken (9)",45
Wandsworth,Car Park Hartfield Road - Wimbledon,Parking,51.4191485,-0.2045376,3.6,0.6636705060799917,0.0,0.26666666666666666,0.7333333333333333,"Accessibility, Safety, Atmosphere, Traffic, General","parking (58), safe (24), cars (21), tidy (21), busy (18), bad (18), good (12), excellent (9), near (9), far (9), risky (3), noisy (3)",163
Wandsworth,NCP London Knightsbridge,Parking,51.497898,-0.1579859,3.8,0.6774682243665059,0.0,0.4,0.6,"Accessibility, Safety, Comfort, Maintenance, Traffic, General","parking (69), cars (36), security (27), safe (24), easy (18), convenient (18), tight (18), great (15), good (15), near (12), secure (9), tidy (9), new (9), noisy (9), damaged (9), driving (9), ugly (3), perfect (3), pretty (3), risky (2)",211
Wandsworth,NCP Car Park London Royal Garden Hotel,Parking,51.5025392,-0.187983,2.8,0.5494351148605346,0.06666666666666667,0.7333333333333333,0.2,"Accessibility, Safety, Comfort, Cleanliness, Maintenance, Traffic, General","parking (36), cars (27), awful (27), good (18), tight (18), clean (9), safe (9), bad (9), protected (7), tidy (6), messy (6), new (3), convenient (3)",108
Wandsworth,ParkBee Victoria - Greycoat Place,Parking,51.4964309,-0.1345392,2.8,0.5674797375996907,0.2,0.4,0.4,"Accessibility, Safety, Noise, Comfort, Atmosphere, Traffic, General","parking (48), cars (34), tight (12), difficult (9), bad (9), inconvenient (9), dangerous (9), traffic (9), empty (9), easy (9), convenient (9), central (9), safe (6), good (3), pretty (3), tidy (3), dark (3), dead (3)",11
Wandsworth,Q-Park Victoria,Parking,51.4955311,-0.131987,4.0,0.6419945736726125,0.2,0.4,0.4,"Accessibility, Safety, Comfort, Cleanliness, Traffic, General","parking (69), cars (27), good (21), easy (18), tidy (12), clean (9), worst (9), secure (9), tight (9), noisy (6), walking (3), pretty (3), safe (3)",159
Wandsworth,Goethe-Institut London,Library,51.49957359999999,-0.1740761,4.5,0.7399936040242513,0.0,0.4,0.6,"Accessibility, Noise, Comfort, Cleanliness, Atmosphere, Maintenance, Aesthetics, General","good (30), great (27), spacious (18), messy (9), new (9), inviting (9), accessible (9), gorgeous (9), peaceful (9), music (9), lovely (9), clean (9), pretty (9), tidy (6), safe (3), parking (3), noisy (3)",33
Wandsworth,National Art Library,Library,51.49666500000001,-0.172313,4.2,0.633248500029246,0.0,0.4,0.6,"Accessibility, Safety, Noise, Atmosphere, Maintenance, Aesthetics, General","beautiful (18), security (9), difficult (9), calm (9), safe (3), roomy (3), lighting (3), walking (3), noisy (3), good (3), wonderful (3)",39
Wandsworth,Institute of International Visual Arts,Art Gallery,51.4904834,-0.1292983,5.0,0.5774512216448784,0.0,0.5833333333333334,0.4166666666666667,"Maintenance, Aesthetics, General","new (9), good (9), beautiful (3)",6
Wandsworth,Kensington Central Library,Library,51.50150900000001,-0.1941385,4.5,0.5995028674602508,0.0,0.6666666666666666,0.3333333333333333,"Accessibility, Safety, Noise, Comfort, Cleanliness, Atmosphere, Maintenance, Aesthetics, Traffic, General","clean (27), quiet (27), safe (27), great (27), spacious (18), old (18), good (18), lovely (12), security (9), central (9), welcoming (9), outdated (9), poor (9), perfect (9), new (9), unpleasant (9), busy (9), amazing (6), tidy (6), lighting (3), messy (3), sketchy (3), near (3), walking (3), noisy (3)",157
Wandsworth,The Buddhist Society,Library,51.4915597,-0.1439308,4.7,0.5040820042292277,0.3333333333333333,0.3333333333333333,0.3333333333333333,"Aesthetics, Maintenance, Atmosphere, General","great (9), excellent (9), attractive (9), good (9), safe (6)",12
Wandsworth,Tate Streatham Library,Library,51.4316603,-0.1289974,4.2,0.6397171636422475,0.0,0.4,0.6,"Comfort, Aesthetics, General","great (27), good (27), lovely (18), elegant (9), pleasant (9), messy (6), safe (3), busy (3)",87
Wandsworth,Dana Research Centre and Library,Library,51.4971864,-0.1790578,4.2,0.6652244706948598,0.0,0.6,0.4,"Accessibility, Noise, Comfort, Cleanliness, Atmosphere, Maintenance, General","quiet (30), near (9), clean (9), comfortable (9), inconvenient (9), perfect (9), excellent (9), safe (6), tidy (6), noisy (3), dark (3), dead (3), messy (3)",21
Wandsworth,Tate South Lambeth Library,Library,51.4792217,-0.1238411,4.5,0.6158904234568278,0.0,0.7333333333333333,0.26666666666666666,"Noise, Maintenance, Atmosphere, General","great (27), quiet (18), good (12), old (9), wonderful (9), tidy (6), perfect (3), lively (3)",57
Wandsworth,City of Westminster Archives Centre,Library,51.49750439999999,-0.1300415,4.5,0.5990718404452006,0.3333333333333333,0.0,0.6666666666666666,"Maintenance, Comfort, Aesthetics","roomy (9), pleasant (9), lovely (6), noisy (3), good (3), easy (3)",6
Wandsworth,University of Roehampton London,University,51.4563401,-0.2446496,4.0,0.628852907816569,0.0,0.5333333333333333,0.4666666666666667,"Accessibility, Noise, Atmosphere, Maintenance, Aesthetics, General","central (18), amazing (18), modern (18), safe (15), near (9), lovely (9), peaceful (9), connected (9), beautiful (9), tidy (6), messy (5), busy (3), noisy (3), parking (3), good (3), walking (3), improved (2)",699
Wandsworth,Queen Mother Sports Centre,Gym,51.493354,-0.1405451,3.4,0.6051235437393189,0.0,0.6666666666666666,0.3333333333333333,"Accessibility, Safety, Cleanliness, Atmosphere, Maintenance, Aesthetics, Traffic, General","amazing (27), awful (18), good (15), dark (15), clean (15), messy (9), tidy (9), new (9), central (9), bad (9), great (9), lovely (9), lighting (9), disappointing (9), active (9), safe (9), busy (9), poor (9), dead (6), roomy (3), dirty (3)",532
Wandsworth,Bumble Bee's Day Nursery,School,51.4180468,-0.1871651,4.9,0.7941927075386047,0.0,0.0,1.0,"Safety, Noise, Comfort, Maintenance, General","safe (33), amazing (24), good (18), old (18), wonderful (9), inviting (9), great (9), welcoming (9), buzzing (7), lovely (4), tidy (3), peaceful (3), shouting (3), messy (3)",42
Wandsworth,Imperial College London,University,51.49882220000001,-0.1748735,4.5,0.6935150841871898,0.0,0.4,0.6,"Accessibility, Safety, Maintenance, Traffic, General","good (27), safe (18), great (18), fantastic (12), driving (9), modern (9), new (9), central (9), tidy (6)",1216
Wandsworth,Royal College of Art,University,51.5011441,-0.1792847,4.1,0.5683311283588409,0.0,0.6666666666666666,0.3333333333333333,"Accessibility, General","safe (12), bad (9), fantastic (9), good (3), screaming (3)",150
Wandsworth,Abbey College,University,51.4973572,-0.1469486,5.0,0.8727918267250061,0.0,0.0,1.0,,,2
Wandsworth,Lambeth College - Brixton Centre,University,51.4564172,-0.1189836,4.0,0.527284390727679,0.2,0.4,0.4,"Maintenance, Aesthetics","messy (12), tidy (9), beautiful (9), safe (6), parking (3), old (3)",71
Wandsworth,Kingston University London Roehampton Vale Campus,University,51.4373429,-0.2516120999999999,4.4,0.6807921290397644,0.2,0.06666666666666667,0.7333333333333333,"Comfort, Traffic, General","good (18), great (18), parking (18), excellent (9), enjoyable (9), wonderful (6), tidy (3), safe (3), fantastic (3)",50
