Borough,Location Name,Type,latitude,longitude,Rating,Overall Sentiment Score,Negative Score,Neutral Score,Positive Score,Main Issues,Emotion Keywords,Review Count
Westminster,Flanders Fields Memorial Garden,Tourist Attraction,51.5005394,-0.1357828,4.7,0.7324248711268108,0.0,0.3333333333333333,0.6666666666666666,"Aesthetics, General","beautiful (9), excellent (9), amazing (9), walking (3), safe (3)",21
Westminster,The Green Park,Park,51.5039416,-0.1434016,4.6,0.6815558393796285,0.0,0.2,0.8,"Accessibility, Noise, Comfort, Cleanliness, Atmosphere, Maintenance, Aesthetics, Traffic, General","beautiful (27), serene (27), great (27), parking (26), relaxing (21), safe (18), maintained (18), perfect (18), quiet (18), walking (12), accessible (9), peaceful (9), clean (9), spacious (9), excellent (9), easy (9), active (9), central (9), lovely (3), tidy (3), good (3)",26295
Westminster,Jubilee Gardens,Tourist Attraction,51.5040437,-0.1181412,4.5,0.6349470615386963,0.0,0.6,0.4,"Noise, Atmosphere, Maintenance, Aesthetics, Traffic, General","lovely (18), peaceful (18), great (15), beautiful (12), walking (12), parking (11), flow (11), pretty (9), amazing (9), scenic (9), bustling (9), safe (9), vibrant (9), modern (9), lively (9), perfect (9), old (9), crowded (9), bad (9), relaxing (6), charming (6), stunning (6)",1526
Westminster,St James's Park,Park,51.502967,-0.1339534,4.7,0.7214672485987346,0.0,0.2,0.8,"Accessibility, Noise, Atmosphere, Aesthetics, Traffic, General","peaceful (36), beautiful (27), parking (24), crowded (18), walking (18), wonderful (18), pretty (18), relaxing (12), good (12), calm (9), lovely (9), lively (9), perfect (9), great (9), quiet (9), near (9), safe (6), flow (6), maintained (3)",59529
Westminster,Buckingham Palace Garden,Tourist Attraction,51.50112020000001,-0.1460413,4.6,0.6579874952634176,0.0,0.3333333333333333,0.6666666666666666,"Accessibility, Noise, Comfort, Cleanliness, Atmosphere, Maintenance, Aesthetics, Traffic, General","peaceful (36), beautiful (27), maintained (27), walking (15), safe (12), pleasant (9), stunning (9), flow (9), serene (9), perfect (9), relaxing (9), bustling (9), accessible (9), disappointing (9), lovely (6), quiet (3)",2928
Westminster,Hanning Recruitment,Park,51.5092118,-0.1438322,4.3,0.611897740761439,0.0,0.5333333333333333,0.4666666666666667,"Accessibility, Noise, Atmosphere, Aesthetics, Traffic, General","peaceful (18), great (9), central (9), noisy (9), good (9), busy (9), lovely (6), crowded (6), quiet (6), safe (3), parking (3), walking (3)",503
Westminster,Victoria Tower Gardens South,Park,51.4970105,-0.1248746,4.6,0.5428812841574351,0.2,0.4,0.4,"Cleanliness, Atmosphere, Traffic, Aesthetics, General","parking (18), beautiful (18), relaxing (12), good (9), lovely (9), safe (6), messy (5), walking (4), flow (3), clean (3)",3701
Westminster,Bonnington Square Pleasure Garden,Park,51.4842993,-0.120288,4.7,0.5531261473894119,0.13333333333333333,0.4666666666666667,0.4,"Accessibility, Noise, Atmosphere, Aesthetics, Traffic, General","great (15), chaotic (9), good (9), central (9), beautiful (9), quiet (9), busy (9), amazing (6), near (6), lovely (3), parking (3)",121
Westminster,Vauxhall Pleasure Gardens,Park,51.4874385,-0.1209093,4.3,0.5862325668334961,0.0,0.6,0.4,"Accessibility, Noise, Cleanliness, Atmosphere, Aesthetics, Traffic, General","parking (15), safe (12), neat (12), tidy (9), crowded (9), relaxing (9), far (9), great (9), good (9), quiet (9), beautiful (9), peaceful (9), walking (9), dark (3), dead (3), near (3), new (3)",1486
Westminster,Golden Square,Park,51.51165830000001,-0.1371694,4.3,0.6169526914755503,0.0,0.4666666666666667,0.5333333333333333,"Accessibility, Noise, Cleanliness, Atmosphere, Maintenance, Aesthetics, Traffic, General","peaceful (18), quiet (18), pretty (18), relaxing (12), flow (12), near (12), parking (9), beautiful (9), amazing (9), gorgeous (9), safe (9), pristine (9), lovely (9), busy (9), walking (3), messy (3), charming (3), appealing (3)",1308
Westminster,Riverside Walk Gardens,Tourist Attraction,51.4892359,-0.1278912,4.5,0.6122593979040781,0.0,0.4,0.6,"Accessibility, Comfort, Cleanliness, Maintenance, Aesthetics, General","lovely (21), walking (9), near (9), good (9), modern (9), pleasant (9), maintained (9), great (9), safe (6), relaxing (3)",210
Westminster,Warwick Square,Park,51.4907006,-0.141277,4.1,0.5809839804967244,0.0,0.7333333333333333,0.26666666666666666,"Noise, Cleanliness, Atmosphere, Maintenance, Aesthetics, Traffic, General","lovely (27), quiet (24), maintained (18), stunning (9), busy (9), good (9), perfect (9), calm (9), safe (9), parking (4)",152
Westminster,St James's Park Drinking Fountain,Park,51.5011805,-0.1340947,4.7,0.533175112803777,0.06666666666666667,0.7333333333333333,0.2,"Noise, Cleanliness, Atmosphere, Aesthetics, Traffic, General","parking (30), beautiful (18), safe (15), scenic (9), charming (9), elegant (9), vibrant (9), serene (9), clean (9), bad (9), great (9), quiet (9), good (9), amazing (6), tidy (3)",61
Westminster,The National Police Memorial,Tourist Attraction,51.50577859999999,-0.1300462,4.5,0.6394997239112854,0.2,0.13333333333333333,0.6666666666666666,"Safety, Noise, Cleanliness, Atmosphere, Maintenance","police (21), quiet (9), neglected (9), tidy (3)",61
Westminster,Belgrave Square,Park,51.4991595,-0.1534458,4.4,0.5075403233369191,0.3333333333333333,0.26666666666666666,0.4,General,"great (9), noisy (3), safe (3), dead (3), lovely (3)",617
Westminster,Urban Oasis Plants,Park,51.4917818,-0.1187617,4.8,0.6179795801639557,0.0,0.5333333333333333,0.4666666666666667,General,"good (36), amazing (9), great (9), safe (6), messy (3)",56
Westminster,Royal Artillery Memorial,Transit Station,51.50259759999999,-0.1517873,4.3,0.5672544737656912,0.0,0.6,0.4,"Maintenance, Accessibility, General","parking (12), great (9), near (9), new (9)",13
Westminster,Victoria,Transit Station,51.4952103,-0.1438979,4.3,0.6458944161732991,0.2,0.4,0.4,"Accessibility, Safety, Comfort, Cleanliness, Atmosphere, Maintenance, Aesthetics, Traffic, General","good (33), safe (24), clean (18), tidy (18), modern (18), busy (12), beautiful (9), lovely (9), pretty (9), accessible (9), spacious (9), old (9), new (9), maintained (9), crowded (9), security (9), surveillance (9), charming (3)",4907
Westminster,Victoria Coach Station,Transit Station,51.4922333,-0.1482793,3.4,0.578416117032369,0.0,0.8,0.2,"Accessibility, Safety, Noise, Comfort, Cleanliness, Atmosphere, Maintenance, Traffic, Aesthetics, General","walking (18), tidy (18), messy (12), clean (12), safe (9), busy (9), pleasant (9), horrible (9), shouting (9), traffic (9), dirty (9), easy (9), crowded (9), security (9), ugly (9), good (9), convenient (9), near (3), roomy (3), upgraded (3)",987
Westminster,Waterloo,Transit Station,51.5032466,-0.112293,4.3,0.6259726623694102,0.0,0.6,0.4,"Accessibility, Noise, Comfort, Cleanliness, Atmosphere, Maintenance, Aesthetics, Traffic, General","beautiful (18), convenient (18), easy (18), clean (18), connected (18), modern (18), safe (12), busy (12), lively (9), near (9), updated (9), bustling (9), central (9), crowded (9), dirty (9), excellent (9), spacious (6), tidy (3), charming (3)",3756
Westminster,Charing Cross,Train Station,51.5081373,-0.1247624,4.1,0.6915526032447815,0.0,0.4,0.6,"Accessibility, Safety, Cleanliness, Atmosphere, Aesthetics, Traffic, General","clean (27), fantastic (18), pretty (18), good (12), central (9), busy (9), lighting (7), safe (3), updated (3)",710
Westminster,Embankment,Subway Station,51.5072554,-0.1221937,4.3,0.5230023622512817,0.0,0.6666666666666666,0.3333333333333333,"Accessibility, Noise, Cleanliness, Atmosphere, Maintenance, Aesthetics, Traffic, General","busy (18), great (18), near (15), excellent (9), peaceful (9), convenient (9), maintained (9), central (9), calm (9), scenic (9), clean (9), connected (9), good (9), amazing (9), new (9), charming (3), noisy (3), dark (3), dead (3), crowded (3), safe (3)",368
Westminster,Fitness First - Great Marlborough Street,Bus Station,51.5148191,-0.1389422,4.8,0.5787001311779022,0.2,0.2,0.6,"Safety, Comfort, Cleanliness, Maintenance, General","great (36), good (21), clean (18), dark (9), new (9), welcoming (9), tidy (6), safe (3), lovely (3), messy (3), roomy (3)",10
Westminster,Pimlico Station,Transit Station,51.488872,-0.1317473,5.0,0.7675386932161119,0.0,0.3333333333333333,0.6666666666666666,"Accessibility, General","good (9), easy (9), great (9)",5
Westminster,St. James's Park,Subway Station,51.499479,-0.1337107,4.5,0.6123951574166616,0.0,0.4666666666666667,0.5333333333333333,"Aesthetics, Noise, Cleanliness, Atmosphere","parking (12), clean (12), tidy (12), empty (9), stunning (9), quiet (9), safe (6), lovely (6), noisy (3), messy (3), charming (3)",262
Westminster,Westminster,Subway Station,51.50134299999999,-0.1248413,4.5,0.688514232635498,0.0,0.4666666666666667,0.5333333333333333,"Accessibility, Atmosphere, Maintenance, Aesthetics, Traffic, General","great (18), busy (18), pretty (9), central (9), far (9), modern (9), amazing (9), near (9), good (9), beautiful (9), tidy (3), crowded (1)",1016
Westminster,Pimlico,Subway Station,51.4892548,-0.133332,4.1,0.5942549665768941,0.0,0.6,0.4,"Accessibility, Noise, Comfort, Cleanliness, Atmosphere, General","clean (18), near (12), good (12), safe (9), easy (9), excellent (9), tidy (9), poor (9), comfortable (9), quiet (9), walking (3), bad (3), busy (3), lively (3), noisy (3), messy (3)",389
Westminster,Green Park,Subway Station,51.5069327,-0.1428838,4.3,0.6121667007605235,0.0,0.6,0.4,"Accessibility, Safety, Cleanliness, Atmosphere, Aesthetics, Traffic, General","safe (24), good (21), walking (15), busy (12), convenient (12), parking (12), clean (12), excellent (9), wonderful (9), great (9), easy (9), pretty (9), near (6), connected (3), tidy (3)",458
Westminster,Hyde Park Corner,Subway Station,51.50302629999999,-0.1523499,4.4,0.5532837271690368,0.0,0.7333333333333333,0.26666666666666666,"Accessibility, Noise, Atmosphere, Traffic, Aesthetics, General","busy (18), good (9), quiet (9), convenient (9), parking (9), lovely (9), walking (7), great (3), safe (3)",273
Westminster,Haymarket / Jermyn Street (Stop R),Transit Station,51.509669,-0.1326892,2.5,0.7340348561604818,0.0,0.5,0.5,"Noise, Aesthetics, General","lovely (9), good (9), music (9), worst (9)",4
Westminster,Charing Cross,Subway Station,51.5084994,-0.1258604,4.2,0.605663788318634,0.0,0.6,0.4,"Accessibility, Noise, Cleanliness, Atmosphere, Maintenance, General","clean (18), easy (18), great (18), tidy (12), good (12), far (9), crowded (9), near (9), rubbish (9), safe (9), bustling (9), maintained (9), walking (6), convenient (3), central (3), updated (3)",229
Westminster,Piccadilly Circus,Subway Station,51.510121,-0.1341683,4.5,0.6851420640945435,0.0,0.4,0.6,"Accessibility, Noise, Atmosphere, Aesthetics, General","vibrant (27), bustling (27), safe (21), crowded (18), buzzing (9), easy (9), central (9), pretty (9), good (9), excellent (9), lively (9), perfect (9), dark (3), dead (3), walking (3), convenient (3), near (3)",2210
Westminster,Trocadero / Haymarket (Stop H),Transit Station,51.5105826,-0.1341763,3.0,0.4668019811312358,0.6666666666666666,0.0,0.3333333333333333,,,2
Westminster,Waterloo Station,Bus Station,51.50305409999999,-0.115668,3.7,0.48387131094932556,0.25,0.3333333333333333,0.4166666666666667,"Noise, Traffic, General","busy (21), traffic (18), poor (9), great (9), safe (3)",10
Westminster,"Avenue Q, West End Musical",Bus Station,51.5110988,-0.1272925,3.5,0.5138202061255773,0.16666666666666666,0.6666666666666666,0.16666666666666666,General,"great (6), lovely (3)",2
Westminster,Dover Street Detectives,Bus Station,51.50783489999999,-0.1414687,5.0,0.8279836177825928,0.0,0.0,1.0,General,"great (9), excellent (9)",1
Westminster,St James's Park Station (Stop SD),Bus Station,51.4975613,-0.1348334,3.8,0.5264149655898412,0.16666666666666666,0.3333333333333333,0.5,"Maintenance, General","great (9), new (3), busy (3)",4
Westminster,Westminster City Hall (Stop SB),Bus Station,51.4970518,-0.1378019,3.6,0.5572854578495026,0.0,0.75,0.25,"Cleanliness, General","busy (15), good (9), clean (6), safe (3)",7
Westminster,Westminster Cathedral (Stop N),Bus Station,51.4969842,-0.1396413,4.6,0.5990110476811726,0.13333333333333333,0.4666666666666667,0.4,"Atmosphere, Traffic, Aesthetics, Accessibility","beautiful (18), busy (12), near (9), walking (3), good (3)",8
Westminster,Westminster Abbey (Stop S),Bus Station,51.4992168,-0.1304844,4.8,0.4853518456220627,0.25,0.6666666666666666,0.08333333333333333,"Maintenance, Aesthetics, General","lovely (6), beautiful (3), amazing (3)",5
Westminster,Westminster Abbey (Stop X),Bus Station,51.49896990000001,-0.1297213,4.8,0.6499053617318471,0.13333333333333333,0.4,0.4666666666666667,"Aesthetics, Atmosphere, Traffic, General","good (18), walking (9), amazing (9), beautiful (9), busy (9), poor (9), lighting (1)",6
Westminster,Victoria Bus Station (Stop B),Bus Station,51.496033,-0.143998,3.3,0.5969204306602478,0.0,0.5,0.5,General,"busy (18), good (12)",3
Westminster,Victoria Bus Station (Stop A),Bus Station,51.49596,-0.143987,3.7,0.5885318650139703,0.1111111111111111,0.5555555555555556,0.3333333333333333,"Cleanliness, General","clean (9), bad (9), busy (3)",6
Westminster,Grosvenor Gardens (Stop Q),Bus Station,51.4969054,-0.1456428,3.9,0.5312788844108581,0.6,0.0,0.4,"Aesthetics, General","perfect (9), beautiful (9), busy (6), parking (3)",9
Westminster,Abingdon Street (Stop L),Bus Station,51.4976427,-0.1255464,4.0,0.6154896020889282,0.0,0.3333333333333333,0.6666666666666666,General,"good (9), parking (3)",1
Westminster,Vauxhall,Subway Station,51.4862901,-0.1235781,4.2,0.5711571792761485,0.13333333333333333,0.26666666666666666,0.6,"Accessibility, Safety, Cleanliness, Atmosphere, Maintenance, Aesthetics, Traffic, General","easy (27), busy (25), modern (9), maintained (9), convenient (9), near (9), clean (9), great (9), safe (9), connected (9), lovely (9), police (9), crowded (6), tidy (6), neat (6), new (6), good (3), messy (3), cozy (3), walking (3)",169
Westminster,Sloane Square,Subway Station,51.4923519,-0.1564328,4.3,0.551103123029073,0.13333333333333333,0.6666666666666666,0.2,"Accessibility, Safety, Comfort, Atmosphere, Maintenance, Aesthetics, Traffic, General","good (15), beautiful (9), charming (9), busy (9), great (9), safe (9), convenient (9), amazing (9), tidy (9), new (9), comfortable (9), flow (3), dangerous (3)",203
Westminster,Waterloo,Subway Station,51.5030796,-0.1151239,4.3,0.5629202604293824,0.2,0.4,0.4,"Accessibility, Safety, Noise, Cleanliness, Atmosphere, Maintenance, Traffic, General","busy (27), safe (24), easy (18), good (12), pedestrian (12), clean (9), traffic (9), new (9), vehicle (6), near (3), messy (3), walking (3), old (3)",509
Westminster,Leicester Square,Subway Station,51.511451,-0.128144,4.3,0.6027197817961375,0.0,0.5333333333333333,0.4666666666666667,"Accessibility, Atmosphere, Aesthetics, Traffic, General","crowded (18), lovely (12), central (9), convenient (9), good (9), busy (9), easy (9), safe (6), tidy (6)",668
Westminster,Lambeth North,Subway Station,51.4989177,-0.1121086,4.1,0.6145478586355845,0.0,0.4,0.6,"Accessibility, Atmosphere, Maintenance, Traffic, Aesthetics, General","busy (18), beautiful (18), messy (15), lovely (12), safe (9), noisy (9), good (9), tidy (9), central (9), walking (9), easy (9), shouting (3), cozy (3), near (3)",116
Westminster,Covent Garden,Subway Station,51.51300070000001,-0.1241621,4.3,0.5624931871891021,0.0,0.6,0.4,"Accessibility, Cleanliness, Atmosphere, Aesthetics, Traffic, General","crowded (30), safe (24), walking (21), great (18), busy (18), vibrant (18), good (18), far (18), perfect (16), lively (9), beautiful (9), accessible (9), clean (6), dark (3), dead (3)",592
Westminster,Victoria,Subway Station,51.495665,-0.1437301,3.8,0.6506619850794474,0.0,0.26666666666666666,0.7333333333333333,"Accessibility, Safety, Noise, Comfort, Cleanliness, General","clean (18), safe (15), busy (9), spacious (9), worst (9), central (9), good (9), great (9), loud (9), walking (6), noisy (6), flow (3), far (3), bad (3)",46
Westminster,Knightsbridge,Subway Station,51.5015326,-0.1605382,4.2,0.5520633538564046,0.0,0.6,0.4,"Accessibility, Cleanliness, Atmosphere, Maintenance, Traffic, General","busy (36), clean (18), tidy (12), old (9), crowded (9), new (9), great (9), noisy (3), near (3), parking (3), good (3), upgraded (3)",144
Westminster,Cardinal Place,Shopping Mall,51.49710020000001,-0.141117,4.3,0.6086210290590922,0.0,0.4666666666666667,0.5333333333333333,"Accessibility, Noise, Atmosphere, Aesthetics, Traffic, General","great (27), lovely (21), wonderful (21), quiet (18), safe (9), beautiful (9), empty (9), fantastic (6), noisy (3), flow (3), near (3)",6733
Westminster,Burlington Arcade,Shopping Mall,51.5083408,-0.1395758,4.5,0.6083040694395702,0.06666666666666667,0.3333333333333333,0.6,"Accessibility, Safety, Comfort, Cleanliness, Maintenance, Aesthetics, General","lovely (27), old (21), charming (15), safe (15), great (9), welcoming (9), clean (9), secure (9), near (9), elegant (9), stunning (9), beautiful (9), security (9), parking (6), good (6), walking (3), busy (3), lighting (3), maintained (3), noisy (3), peaceful (3), easy (3)",2804
Westminster,Duke of York Square,Shopping Mall,51.4914045,-0.1597764,4.5,0.5344301680723826,0.13333333333333333,0.6666666666666666,0.2,"Accessibility, Atmosphere, Maintenance, Aesthetics, Traffic, General","great (45), new (36), safe (24), good (18), charming (15), crowded (12), lively (11), vibrant (9), accessible (9), perfect (9), easy (9), relaxing (3), lovely (3), flow (3)",4263
Westminster,Victoria Place,Shopping Mall,51.49471020000001,-0.14589,4.1,0.6861350258191427,0.0,0.4,0.6,"Accessibility, Cleanliness, Atmosphere, Aesthetics, Traffic, General","clean (18), attractive (9), perfect (9), central (9), noisy (6), safe (3), busy (3), vehicle (3), roomy (3)",5780
Westminster,Regent's Place,Shopping Mall,51.497135,-0.1396757,4.6,0.4906267391310798,0.3333333333333333,0.6666666666666666,0.0,"Cleanliness, General","clean (18), good (18), neat (6), near (6), new (6), busy (6)",5
Westminster,Piccadilly Arcade,Shopping Mall,51.5078201,-0.138863,4.5,0.7551705161730449,0.0,0.4,0.6,"Accessibility, Noise, Comfort, Cleanliness, Atmosphere, Maintenance, Aesthetics, Traffic, General","safe (12), beautiful (12), wonderful (9), elegant (9), fantastic (9), modern (9), peaceful (9), old (9), perfect (9), easy (9), clean (9), gorgeous (9), pleasant (9), walking (9), great (9), excellent (9), charming (6), lovely (6), messy (3), dark (3), dead (3), noisy (3)",723
Westminster,Covent Garden,Shopping Mall,51.512045,-0.1228254,4.6,0.760597284634908,0.0,0.4,0.6,"Accessibility, Noise, Comfort, Atmosphere, Maintenance, Aesthetics, Traffic, General","safe (45), vibrant (42), lively (42), charming (39), stunning (27), beautiful (27), perfect (21), walking (21), modern (18), music (18), elegant (18), fantastic (12), welcoming (9), accessible (9), convenient (9), cozy (9), walkable (9), easy (9), excellent (9), old (9), new (9), crowded (9), wonderful (6), noisy (3), far (3), near (3), tidy (3)",119034
Westminster,Orchard Place,Shopping Mall,51.4986998,-0.133107,4.3,0.4283079504966736,0.0,1.0,0.0,"Maintenance, Traffic, Safety","new (18), pedestrian (9), surveillance (9), safe (3)",3
Westminster,Victoria Station Arcade,Shopping Mall,51.4963957,-0.1437712,4.0,0.6149865786234537,0.0,0.5,0.5,"Noise, Atmosphere, Aesthetics","beautiful (9), quiet (6)",3
Westminster,Fountain Square,Shopping Mall,51.49374,-0.1458983,4.2,0.5694729924201966,0.13333333333333333,0.4666666666666667,0.4,"Cleanliness, General","great (18), bad (9), clean (6), busy (3)",41
Westminster,London's Peak,Shopping Mall,51.5072785,-0.1286947,3.0,0.0,0.0,0.0,0.0,,,2
Westminster,The Arches Shopping,Shopping Mall,51.50770120000001,-0.1245859,4.5,0.0,0.0,0.0,0.0,,,2
Westminster,Burlington Arcade Input,Shopping Mall,51.5096256,-0.1409806,5.0,0.0,0.0,0.0,0.0,,,1
Westminster,Quadrant Arcade,Shopping Mall,51.5102083,-0.1367348,4.3,0.654447203874588,0.2,0.2,0.6,"Safety, Atmosphere, Maintenance, Aesthetics, Traffic, General","busy (18), beautiful (9), great (9), amazing (9), walking (9), old (9), lighting (7), updated (3), safe (3), lovely (1)",147
Westminster,Old War Office Building,Tourist Attraction,51.5054188,-0.1259695,4.6,0.8319646159807841,0.0,0.0,1.0,"Maintenance, Aesthetics, General","beautiful (9), old (9), amazing (9), renovated (6), charming (3), messy (3), disappointing (3), roomy (3), tidy (3)",533
Westminster,Churchill War Rooms,Tourist Attraction,51.5021585,-0.1293572,4.6,0.6267909208933512,0.0,0.6,0.4,"Accessibility, Safety, Comfort, Cleanliness, Atmosphere, Aesthetics, Traffic, General","safe (30), cramped (18), good (12), perfect (12), great (9), pretty (9), neat (9), dark (9), wonderful (9), bad (9), busy (9), excellent (9), lovely (9), crowded (6), lighting (6), tidy (6), walking (6), roomy (3), noisy (3), convenient (3), relaxing (3)",14309
Westminster,Statue of Oliver Cromwell,Tourist Attraction,51.4998468,-0.1258289,4.1,0.5600526829560598,0.0,0.7333333333333333,0.26666666666666666,"Maintenance, Aesthetics","beautiful (9), parking (6), safe (3), walking (3), good (3), tidy (3)",123
Westminster,Bomber Command Memorial,Tourist Attraction,51.5033222,-0.1489698,4.7,0.7737067580223084,0.0,0.2,0.8,"Accessibility, Noise, Atmosphere, Maintenance, Traffic, General","amazing (18), near (9), busy (9), quiet (9), wonderful (9), worst (9), safe (6), noisy (3), disappointing (1)",533
Westminster,Machine Gun Corps Memorial,Tourist Attraction,51.50320869999999,-0.1507247,4.4,0.5889744857947031,0.13333333333333333,0.4666666666666667,0.4,"Maintenance, Accessibility","parking (9), new (9), old (9), safe (3), near (3)",39
Westminster,SEA LIFE London Aquarium,Aquarium,51.501558,-0.119506,4.3,0.6319968660672506,0.0,0.4,0.6,"Accessibility, Safety, Noise, Comfort, Cleanliness, Atmosphere, Maintenance, Traffic, Aesthetics, General","safe (36), walking (30), perfect (27), relaxing (18), great (18), excellent (18), good (15), near (12), tidy (12), clean (12), calm (9), easy (9), maintained (9), messy (9), pleasant (9), security (9), noisy (9), rubbish (9), uncomfortable (9), busy (9), stunning (9), wonderful (9), amazing (9), fantastic (9), vibrant (9), lively (6), lovely (3), quiet (3), dark (3), dead (3)",27069
Westminster,lastminute.com London Eye,Tourist Attraction,51.5031864,-0.1195192,4.5,0.649198458592097,0.0,0.4666666666666667,0.5333333333333333,"Accessibility, Noise, Comfort, Cleanliness, Atmosphere, Maintenance, Aesthetics, Traffic, General","safe (42), relaxing (21), stunning (18), spacious (18), great (18), calm (15), easy (9), busy (9), clean (9), welcoming (9), peaceful (9), far (9), lively (9), perfect (9), new (9), old (9), lovely (9), scenic (9), quiet (9), crowded (9), comfortable (9), tidy (6), near (6), noisy (3)",188522
Westminster,Buckingham Palace,Tourist Attraction,51.501364,-0.14189,4.5,0.7242540895938874,0.2,0.0,0.8,"Accessibility, Noise, Atmosphere, Traffic, Aesthetics, General","amazing (18), lovely (18), crowded (9), difficult (9), peaceful (9), great (9), beautiful (9), safe (3), flow (3)",182268
Westminster,The National Gallery,Art Gallery,51.508929,-0.128299,4.7,0.7199233770370483,0.0,0.4,0.6,"Accessibility, Noise, Comfort, Cleanliness, Atmosphere, Aesthetics, Traffic, General","beautiful (33), amazing (27), wonderful (18), safe (12), walking (12), easy (9), stunning (9), excellent (9), spacious (9), busy (9), quiet (9), lovely (9), clean (9), great (9), tidy (6), roomy (3), calm (3), attractive (3), perfect (3), lighting (3)",55049
Westminster,Westminster Abbey,Tourist Attraction,51.49936950000001,-0.1272993,4.6,0.7442901412645976,0.2,0.0,0.8,"Accessibility, Maintenance, Traffic, Aesthetics, General","stunning (18), walking (15), safe (12), tidy (9), beautiful (9), great (9), far (6), near (3), messy (3)",46515
Westminster,Big Ben,Tourist Attraction,51.50072919999999,-0.1246254,4.6,0.8756649613380432,0.0,0.0,1.0,"Accessibility, Noise, Cleanliness, Atmosphere, Maintenance, Aesthetics, General","safe (33), perfect (27), near (27), stunning (18), easy (18), great (18), charming (12), lively (9), clean (9), accessible (9), peaceful (9), beautiful (9), tidy (6), walking (6), messy (3), lighting (3), busy (3), crowded (1)",82345
Westminster,The London Dungeon,Tourist Attraction,51.50251189999999,-0.1187628,4.3,0.7349353591601054,0.0,0.2,0.8,"Accessibility, Safety, Noise, Atmosphere, Maintenance, General","dark (48), safe (27), amazing (15), good (12), fantastic (9), difficult (9), lighting (9), music (9), tidy (9), perfect (9), lively (6), messy (6), lovely (4), quiet (3), roomy (3), crime (3)",18917
Westminster,Tate Britain,Art Gallery,51.49106210000001,-0.1277886,4.7,0.6263676166534424,0.0,0.6,0.4,"Accessibility, Noise, Comfort, Atmosphere, Maintenance, Aesthetics, Traffic, General","wonderful (18), accessible (18), quiet (15), busy (9), pleasant (9), safe (9), modern (9), beautiful (9), peaceful (9), tidy (6), gorgeous (3), near (3), good (3)",20779
Westminster,Trafalgar Square,Tourist Attraction,51.508039,-0.128069,4.6,0.7167736053466797,0.0,0.4,0.6,"Accessibility, Noise, Comfort, Atmosphere, Aesthetics, Traffic, General","lively (30), music (27), stunning (27), safe (27), vibrant (27), relaxing (24), beautiful (24), pleasant (18), perfect (18), good (9), buzzing (9), central (9), walking (9), accessible (9), near (9), amazing (9), scenic (9), charming (6), tidy (3), messy (3), crowded (3)",130834
Westminster,National Portrait Gallery,Art Gallery,51.5094236,-0.1281216,4.7,0.6723820924758911,0.0,0.4666666666666667,0.5333333333333333,"Accessibility, Cleanliness, Atmosphere, Maintenance, Aesthetics, General","lovely (27), good (18), easy (18), great (18), safe (15), beautiful (12), crowded (9), pristine (9), old (9), modern (9), stunning (9), clean (9), wonderful (9), fantastic (9), tidy (3), walking (3), roomy (3), connected (3), spotless (3)",14598
Westminster,Wellington Arch,Tourist Attraction,51.5025925,-0.1508545,4.5,0.6679511487483978,0.0,0.4,0.6,"Noise, Comfort, Atmosphere, Aesthetics, General","safe (24), parking (21), pleasant (18), stunning (18), pretty (9), good (9), wonderful (9), bustling (9), scenic (9), gorgeous (9), great (9), tidy (6), messy (3), walking (3), peaceful (3)",4388
Westminster,Westminster Cathedral,Tourist Attraction,51.49580899999999,-0.13944,4.7,0.8004957516988118,0.0,0.0,1.0,"Accessibility, Noise, Atmosphere, Aesthetics, General","beautiful (33), safe (9), fantastic (9), gorgeous (9), amazing (9), noisy (9), lovely (9), peaceful (9), tidy (3), near (3)",9060
Westminster,Saint James's Park Lake,Natural Feature,51.5024844,-0.1340797,4.6,0.6741236428419749,0.0,0.13333333333333333,0.8666666666666667,"Accessibility, Noise, Cleanliness, Atmosphere, Maintenance, Aesthetics, Traffic, General","parking (18), great (18), beautiful (15), walking (9), calm (9), safe (9), peaceful (9), busy (9), lovely (9), quiet (9), maintained (9), pretty (9), convenient (9), clean (9), dangerous (3), good (3), near (3), relaxing (3), messy (3), tidy (3)",79
Westminster,The Serpentine,Natural Feature,51.50536349999999,-0.1662832,4.7,0.5825895428657532,0.0,0.4,0.6,"Accessibility, Noise, Atmosphere, Aesthetics, General","good (30), crowded (18), beautiful (15), parking (15), safe (12), central (9), great (9), pretty (9), easy (9), far (9), wonderful (9), peaceful (9), relaxing (9), fantastic (6), lively (3), near (3)",227
Westminster,River Westbourne,Natural Feature,51.485,-0.1538,4.8,0.4430382251739502,0.0,1.0,0.0,General,good (9),4
Westminster,Giro - the German Ambassador’s dog,Cemetery,51.5063335,-0.1318843,3.9,0.4361782868703206,0.26666666666666666,0.7333333333333333,0.0,"Maintenance, Cleanliness, Accessibility, General","safe (18), clean (18), near (12), central (9), good (9), poor (9), parking (9), amazing (6), maintained (3), tidy (3)",13
Westminster,Cemetery,Cemetery,51.4888731,-0.1563557,4.5,0.7969232300917307,0.0,0.3333333333333333,0.6666666666666666,"Aesthetics, General","elegant (9), bad (6), amazing (6), safe (3)",4
Westminster,Christ Church & Upton Chapel,Church,51.4983138,-0.1116668,4.7,0.8192631999651591,0.0,0.0,1.0,Maintenance,old (9),3
Westminster,St James's Piccadilly,Church,51.508607,-0.1369234,4.6,0.6429104487101237,0.0,0.4,0.6,"Noise, Comfort, Atmosphere, Aesthetics, Traffic, General","lovely (18), music (18), beautiful (15), fantastic (15), spacious (9), stunning (9), vibrant (9), bustling (9), busy (9), serene (9), perfect (7), wonderful (3), safe (3), calm (3), charming (3)",974
Westminster,St Margaret's Church,Tourist Attraction,51.49982209999999,-0.1266941,4.4,0.6086249609788259,0.0,0.6,0.4,"Accessibility, Safety, Noise, Atmosphere, Maintenance, Aesthetics, General","beautiful (27), safe (18), great (9), near (9), lovely (9), quiet (9), security (9), accessible (9), old (5), good (3), noisy (3)",397
Westminster,St Paul’s Church Covent Garden,Tourist Attraction,51.5115492,-0.1237595,4.6,0.5828910072644552,0.06666666666666667,0.5333333333333333,0.4,"Noise, Aesthetics, Accessibility, General","lovely (27), perfect (9), tidy (9), safe (9), near (9), good (6), music (6), wonderful (6), roomy (3), fantastic (3)",911
Westminster,Westminster Chapel,Church,51.498885,-0.138101,4.5,0.5520624577999115,0.26666666666666666,0.4666666666666667,0.26666666666666666,"Accessibility, Noise, Comfort, Atmosphere, Maintenance, Traffic, General","safe (21), great (18), new (18), music (18), amazing (15), parking (9), easy (9), far (9), pleasant (9), dead (9), bad (9), awful (9), noisy (6), near (3), tidy (3), lovely (3), improved (3), lighting (3)",201
Westminster,Emmanuel Centre,Church,51.4965184,-0.1290258,4.4,0.6148829480012258,0.0,0.4,0.6,"Accessibility, Comfort, Cleanliness, Maintenance, Aesthetics, Traffic, General","great (45), old (9), safe (9), tidy (9), uncomfortable (9), comfortable (9), amazing (9), walking (9), accessible (9), clean (6), lovely (6), fantastic (6), noisy (3), roomy (3), good (3)",573
Westminster,Our Lady of the Assumption & St. Gregory Church,Church,51.51122700000001,-0.1378805,4.7,0.6759510417779286,0.0,0.2,0.8,"Aesthetics, Traffic, Atmosphere, General","beautiful (39), walking (9), lovely (9), perfect (9), wonderful (9), calm (6), peaceful (3), amazing (3)",84
Westminster,Church of Notre Dame de France RC,Tourist Attraction,51.511399,-0.1298832,4.8,0.5557033995787303,0.2,0.6,0.2,"Accessibility, Noise, Atmosphere, Aesthetics, General","beautiful (27), safe (12), peaceful (12), good (9), near (9)",224
Westminster,"St Peter's Church, Eaton Square",Tourist Attraction,51.49780270000001,-0.1491852,4.6,0.625022276242574,0.13333333333333333,0.26666666666666666,0.6,"Accessibility, Cleanliness, Atmosphere, Maintenance, Traffic, Aesthetics, General","beautiful (27), safe (15), parking (12), lovely (9), calm (9), busy (9), maintained (9), modern (9), amazing (9), near (6), roomy (3)",241
Westminster,"St George's Church, Hanover Square",Tourist Attraction,51.51250659999999,-0.1430023,4.7,0.6585379918416341,0.0,0.4,0.6,"Noise, Atmosphere, Traffic, Aesthetics, General","beautiful (30), great (27), walking (13), safe (9), excellent (9), quiet (9), amazing (9), calm (6), lovely (3), lively (3), tidy (3), good (3)",180
Westminster,Corpus Christi Catholic Church,Tourist Attraction,51.5109193,-0.1225225,4.8,0.7468453168869018,0.0,0.2,0.8,"Accessibility, Noise, Atmosphere, Aesthetics, General","good (18), safe (15), beautiful (12), peaceful (9), fantastic (9), central (9), near (9), messy (6), calm (3)",305
Westminster,Roman Catholic Diocese of Westminster,Church,51.49471140000001,-0.1391785,4.7,0.7196843723456064,0.16666666666666666,0.0,0.8333333333333334,"Cleanliness, Aesthetics","clean (9), beautiful (9)",27
Westminster,"Holy Trinity Church, Sloane Square",Tourist Attraction,51.4931357,-0.1575201,4.7,0.6750806232293447,0.0,0.26666666666666666,0.7333333333333333,"Accessibility, Safety, Maintenance, Aesthetics, General","beautiful (36), great (36), good (21), amazing (15), old (12), near (9), fantastic (9), police (9), safe (3), noisy (3), cozy (3), damaged (3)",263
Westminster,Grosvenor Chapel,Tourist Attraction,51.5090125,-0.151356,4.7,0.5755416731039683,0.0,0.6666666666666666,0.3333333333333333,"Accessibility, Noise, Cleanliness, Atmosphere, Maintenance, Aesthetics, General","lovely (21), calm (18), beautiful (15), new (9), far (9), neat (9), great (9), fantastic (9), music (9), walking (6), messy (3), good (3)",109
Westminster,"Catholic Church of the Immaculate Conception, Mayfair",Tourist Attraction,51.5093755,-0.1489967,4.8,0.7611187239487965,0.0,0.4,0.6,"Accessibility, Noise, Comfort, Cleanliness, Atmosphere, Aesthetics, General","beautiful (36), safe (18), stunning (18), peaceful (12), near (9), connected (9), gorgeous (9), welcoming (9), clean (9), serene (9), inviting (9), quiet (9), good (9), excellent (9), walking (6), messy (3), far (3)",661
Westminster,The King’s Chapel of the Savoy,Tourist Attraction,51.510465,-0.1197333,4.7,0.654680589834849,0.0,0.4,0.6,"Accessibility, Noise, Atmosphere, Maintenance, Aesthetics, Traffic, General","stunning (18), fantastic (18), safe (15), busy (12), modern (9), accessible (9), old (9), central (9), easy (9), music (9), great (9), tidy (6), roomy (6), walking (3)",74
Westminster,"St George's Cathedral, Southwark",Tourist Attraction,51.4976601,-0.1075533,4.7,0.7290409048398335,0.0,0.2,0.8,"Maintenance, Comfort, Aesthetics, General","beautiful (36), comfortable (9), lovely (9), excellent (9), amazing (6), damaged (3)",826
Westminster,TITAN CAR PARKING,Parking,51.50936809999999,-0.1310563,2.7,0.45314088066418967,0.4,0.6,0.0,"Safety, Traffic, Accessibility, General","parking (24), cars (21), good (18), central (18), tidy (15), safe (12), perfect (9), poor (9), secure (9), roomy (3), noisy (3)",13
Westminster,Q-Park Chinatown,Parking,51.51235699999999,-0.129548,3.6,0.7651828646659851,0.0,0.0,1.0,"Accessibility, Safety, Maintenance, Traffic, General","parking (81), secure (27), broken (24), cars (21), great (18), safe (18), noisy (15), tidy (12), worst (9), near (9), security (9), accessible (9), disappointing (5), messy (3), vehicle (3), loud (3), easy (3)",658
Westminster,Euro Car Parks - The Mayfair Car Park,Parking,51.5048981,-0.1510791,3.3,0.6253906687100729,0.13333333333333333,0.4,0.4666666666666667,"General, Cleanliness, Traffic, Safety","parking (27), safe (12), clean (9), tidy (9), cars (9), good (9), terrible (9), secure (3), pretty (3), noisy (3), messy (3)",104
Westminster,Q-Park Burlington,Parking,51.510666,-0.140465,3.2,0.7605006217956543,0.2,0.0,0.8,"Accessibility, Safety, Maintenance, Traffic, General","parking (81), secure (54), broken (54), cars (36), pedestrian (36), security (27), tidy (18), police (18), great (18), easy (18), noisy (12), vehicle (12), connected (9), crime (9), safe (6), updated (6), walking (3), messy (3)",330
Westminster,Q-Park Knightsbridge,Parking,51.500237,-0.1566195,3.3,0.7958644549051921,0.0,0.2,0.8,"Maintenance, Traffic, Safety","parking (105), cars (81), safe (45), broken (42), secure (27), security (27), noisy (21), crime (12), tidy (9), police (9), pedestrian (9), vehicle (9), surveillance (9), messy (6), good (3)",101
Westminster,Q-Park Pimlico,Parking,51.490134,-0.146518,4.1,0.5841141800085704,0.2,0.4666666666666667,0.3333333333333333,"Accessibility, Comfort, Cleanliness, Atmosphere, Maintenance, Traffic, General","parking (45), vehicle (9), bad (9), maintained (9), fantastic (9), clean (9), empty (9), near (9), cars (9), difficult (9), tight (9), good (9), relaxing (3), safe (3), messy (2)",245
Westminster,St Martin's Lane Hotel,Parking,51.5106606,-0.1259362,3.8,0.5798261781533559,0.0,0.8,0.2,"Noise, Comfort, Cleanliness, Atmosphere, Traffic, Aesthetics, General","good (27), clean (9), spotless (9), quiet (9), amazing (9), roomy (9), busy (9), lovely (9), excellent (9), comfortable (9), fantastic (9), tight (9), great (9), safe (6), tidy (6), walking (3), lighting (3), noisy (3), perfect (3)",32
Westminster,Q-Park Soho,Parking,51.51435499999999,-0.137127,3.1,0.8086858113606771,0.0,0.0,1.0,"Accessibility, Safety, Comfort, Cleanliness, Maintenance, Traffic, Aesthetics, General","police (72), parking (56), security (54), secure (39), cars (36), tidy (21), clean (18), safe (12), good (12), broken (9), crime (9), vehicle (9), damaged (9), isolated (9), unpleasant (9), unsafe (9), far (9), maintained (9), noisy (6), neglected (3), poor (3), risky (3)",235
Westminster,Chelsea Bridge Wharf Car Park,Parking,51.48153560000001,-0.1484777,4.0,0.47168667713801066,0.13333333333333333,0.8666666666666667,0.0,"Accessibility, Safety, Noise, Cleanliness, Atmosphere, Maintenance, Traffic, Aesthetics, General","parking (84), good (33), cars (27), near (18), secure (15), quiet (9), pedestrian (9), difficult (9), great (9), clean (9), security (9), modern (9), beautiful (9), safe (6), tidy (6), amazing (6), messy (3), noisy (3)",83
Westminster,ParkBee Victoria - Greycoat Place,Parking,51.4964309,-0.1345392,2.8,0.5663252115249634,0.2,0.4,0.4,"Accessibility, Safety, Noise, Comfort, Atmosphere, Traffic, General","parking (48), cars (33), tight (14), difficult (9), bad (9), inconvenient (9), dangerous (9), traffic (9), empty (9), easy (9), convenient (9), central (9), safe (6), good (3), pretty (3), tidy (3), dark (3), dead (3)",11
Westminster,Horseferry Car Park,Parking,51.49561969999999,-0.1321182,3.3,0.5377499709526697,0.25,0.5,0.25,Accessibility,"easy (9), tidy (3)",12
Westminster,Q-Park Victoria,Parking,51.4955311,-0.131987,4.0,0.6448580046494802,0.2,0.4,0.4,"Accessibility, Safety, Comfort, Cleanliness, Traffic, General","parking (69), cars (26), good (21), easy (18), tidy (12), clean (9), worst (9), secure (9), tight (9), noisy (6), walking (3), pretty (3), safe (3)",159
Westminster,Q-Park Leicester Square,Parking,51.50951899999999,-0.131143,2.5,0.7711109598477681,0.0,0.0,1.0,"Accessibility, Safety, Comfort, Maintenance, Aesthetics, Traffic","parking (57), broken (45), noisy (33), cars (30), vehicle (21), security (18), messy (15), safe (9), far (9), secure (9), crime (9), near (9), improved (3), protected (3), peaceful (3), damaged (3), tight (3)",228
Westminster,Britannia Parking,Parking,51.4992258,-0.1157734,3.5,0.6907273530960083,0.0,0.4,0.6,"Accessibility, Safety, Atmosphere, Traffic, General","tidy (12), parking (12), safe (9), vehicle (9), dead (9), great (9), easy (9), appealing (6), messy (3), noisy (3)",232
Westminster,NCP London Knightsbridge,Parking,51.497898,-0.1579859,3.8,0.6539298097292582,0.0,0.4,0.6,"Accessibility, Safety, Comfort, Maintenance, Traffic, General","parking (69), cars (36), security (27), safe (21), great (18), easy (18), convenient (18), tight (18), good (15), near (12), secure (9), tidy (9), new (9), noisy (9), damaged (9), driving (9), ugly (3), perfect (3), pretty (3), risky (3)",211
Westminster,NCP London Soho Brewer Street,Parking,51.51215639999999,-0.1349719,2.5,0.6372181514898936,0.06666666666666667,0.3333333333333333,0.6,"Accessibility, Safety, Maintenance, Traffic, General","parking (84), noisy (15), vehicle (15), tidy (15), bad (12), messy (12), safe (12), worst (9), congested (9), great (9), driving (9), cars (9), amazing (9), secure (9), pretty (3), dark (3), dead (3), roomy (3), walking (3), good (3)",137
Westminster,Q-Park Park Lane,Parking,51.50915,-0.15591,4.1,0.8041429917017618,0.0,0.2,0.8,"Accessibility, Safety, Comfort, Maintenance, Traffic, General","parking (70), easy (57), cars (43), convenient (36), safe (18), great (9), spacious (9), tight (9), secure (9), central (9), congested (9), vehicle (6), terrible (6), pretty (3), repaired (3), good (3), tidy (3), walking (3), flow (3), far (3), awful (3), crowded (1)",271
Westminster,Car Park South Bank - London | APCOA,Parking,51.50609730000001,-0.1116173,4.0,0.6871590813000997,0.0,0.2,0.8,"Accessibility, Safety, Comfort, Aesthetics, Traffic, General","parking (48), cars (30), near (21), safe (9), vehicle (9), tight (9), good (9), pretty (9), convenient (9), tidy (3), messy (3)",301
Westminster,Pay And Display Parking,Parking,51.4997821,-0.1077433,3.0,0.2846149206161499,1.0,0.0,0.0,,,4
Westminster,London Pavilion Road,Parking,51.4997557,-0.1607627,3.3,0.6184030413627625,0.2,0.2,0.6,"Safety, Noise, Maintenance, Traffic, General","parking (51), cars (51), security (27), vehicle (18), messy (18), broken (12), tidy (9), traffic (9), old (9), police (9), great (9), awful (9), protected (9), noisy (6), walking (3), flow (3), far (3), dark (3), dead (3)",66
Westminster,The London Library,Library,51.5074152,-0.1366415,4.4,0.7496346990267436,0.0,0.0,1.0,"Accessibility, Noise, Comfort, Atmosphere, Aesthetics, General","perfect (18), quiet (18), loud (18), beautiful (15), peaceful (9), inviting (9), cozy (9), easy (9), good (9), wonderful (9), central (9), lovely (9), noisy (9), great (9), spacious (9), fantastic (6), amazing (6), messy (3), tidy (3), safe (3)",157
Westminster,The Royal Society,Library,51.5059347,-0.1323546,4.7,0.5052493135134379,0.2,0.4666666666666667,0.3333333333333333,"General, Aesthetics, Safety","good (18), stunning (9), dark (9), great (9), safe (3), tidy (3)",137
Westminster,Lambeth Palace Library,Library,51.4976651,-0.1182504,4.1,0.5393172482649485,0.0,0.6,0.4,"Accessibility, Safety, Noise, Comfort, Maintenance, Aesthetics, Traffic, General","music (33), security (27), new (24), walking (21), modern (18), poor (18), amazing (18), tidy (9), safe (9), wonderful (9), updated (9), disappointing (9), welcoming (9), great (9), accessible (9), inaccessible (9), noisy (6), secure (3), near (3), beautiful (3), messy (3), charming (3)",21
Westminster,Institute of International Visual Arts,Art Gallery,51.4904834,-0.1292983,5.0,0.5774512216448784,0.0,0.5833333333333334,0.4166666666666667,"Maintenance, Aesthetics, General","new (9), good (9), beautiful (3)",6
Westminster,Southbank Centre,Tourist Attraction,51.50602,-0.1164148,4.5,0.6968154629071553,0.0,0.06666666666666667,0.9333333333333333,"Accessibility, Noise, Atmosphere, Aesthetics, General","great (27), beautiful (18), safe (12), near (12), amazing (9), lively (9), roomy (9), accessible (9), scenic (9), relaxing (9), quiet (3), walking (3), tidy (3)",14611
Westminster,Westminster Reference Library,Library,51.5096593,-0.1298452,4.5,0.6808200240135193,0.0,0.26666666666666666,0.7333333333333333,"Noise, Atmosphere, Accessibility, General","good (63), central (18), fantastic (12), easy (9), quiet (9), loud (9), parking (3), wonderful (3), safe (3), near (3), lovely (3), music (3)",78
Westminster,The Buddhist Society,Library,51.4915597,-0.1439308,4.7,0.4911339415444268,0.3333333333333333,0.3333333333333333,0.3333333333333333,"Aesthetics, Maintenance, Atmosphere, General","great (9), excellent (9), attractive (9), good (9), safe (6)",12
Westminster,City of Westminster Archives Centre,Library,51.49750439999999,-0.1300415,4.5,0.612255420949724,0.3333333333333333,0.0,0.6666666666666666,"Maintenance, Comfort, Aesthetics","roomy (9), pleasant (9), lovely (6), noisy (3), good (3), easy (3)",6
Westminster,National Poetry Library,Library,51.50569890000001,-0.1168338,4.6,0.7722269535064697,0.0,0.2,0.8,"Noise, Comfort, Cleanliness, Atmosphere, Maintenance, Aesthetics, General","new (18), welcoming (9), amazing (9), broken (9), safe (9), tidy (9), quiet (9), cozy (9), beautiful (9), lovely (6), messy (3)",34
Westminster,RHS Lindley Library,Library,51.49447739999999,-0.1347394,4.6,0.6210524698098501,0.2,0.3333333333333333,0.4666666666666667,"Aesthetics, Accessibility, General","central (9), excellent (9), beautiful (9), far (9), great (9), good (9), wonderful (9), amazing (9), tidy (3)",14
Westminster,St Thomas' House Library,Library,51.498076,-0.1189543,3.9,0.472881647447745,0.16666666666666666,0.8333333333333334,0.0,Maintenance,"new (18), lovely (3)",8
Westminster,Heinz Archive and Library,Library,51.50962329999999,-0.1288798,5.0,0.5285614132881165,0.5,0.0,0.5,General,wonderful (9),2
Westminster,Victoria Library,Library,51.49275369999999,-0.1480054,4.0,0.5699237624804179,0.2,0.4666666666666667,0.3333333333333333,"Accessibility, Noise, Atmosphere, Maintenance, Aesthetics, General","old (18), beautiful (18), safe (9), quiet (9), bad (9), new (9), gorgeous (9), difficult (9), accessible (9), tidy (6), good (6), messy (6), lively (6), roomy (3), noisy (3), lovely (3), peaceful (3), loud (3), walking (3), neglected (3)",70
Westminster,Waterloo Library,Library,51.4981337,-0.1117888,3.5,0.5627375582853953,0.06666666666666667,0.3333333333333333,0.6,"Maintenance, Cleanliness, Aesthetics, General","great (18), new (9), clean (9), tidy (9), excellent (9), safe (6), good (6), lovely (6), dark (3), dead (3), noisy (3), relaxing (3), pretty (3)",16
Westminster,Franklin-Wilkins Library,Library,51.5057658,-0.1122962,4.4,0.7083082079887391,0.2,0.06666666666666667,0.7333333333333333,"Cleanliness, Atmosphere, Accessibility, General","great (18), safe (9), terrible (9), horrible (9), lovely (9), clean (9), accessible (9), crowded (9), good (3), pretty (3)",29
Westminster,Mayfair Library,Library,51.5093357,-0.1511669,4.4,0.5125529865423838,0.2,0.6666666666666666,0.13333333333333333,"Safety, Noise, Cleanliness, Atmosphere, Maintenance, Aesthetics, General","great (30), perfect (9), tidy (9), secure (9), safe (9), beautiful (9), clean (9), peaceful (9), good (9), loud (9), lovely (6), parking (3), pretty (3)",38
Westminster,Linnean Society of London,Library,51.508525,-0.139136,4.6,0.5935070991516114,0.0,0.6,0.4,"Accessibility, Maintenance, Traffic, Aesthetics, General","parking (12), fantastic (9), great (9), stunning (9), lovely (9), safe (6), near (3), cozy (3)",20
Westminster,Pimlico Library,Library,51.48800869999999,-0.1379291,4.1,0.7128340800603231,0.0,0.13333333333333333,0.8666666666666667,"Noise, Atmosphere, Maintenance, Aesthetics, General","quiet (21), great (18), good (18), lovely (9), amazing (9), noisy (9), old (9), relaxing (3), messy (3), tidy (3), lively (3)",113
Westminster,Charing Cross Library,Library,51.51025,-0.1280484,4.0,0.5721305668354034,0.06666666666666667,0.7333333333333333,0.2,"Accessibility, Noise, Atmosphere, Aesthetics, General","lovely (24), far (9), accessible (9), central (9), peaceful (9), excellent (9), safe (6), tidy (6), near (6)",61
Westminster,House of Commons Library,Library,51.49993620000001,-0.1246247,3.0,0.39045355717341107,1.0,0.0,0.0,,,3
Westminster,Queen Mother Sports Centre,Gym,51.493354,-0.1405451,3.4,0.6021105647087097,0.0,0.6,0.4,"Accessibility, Safety, Cleanliness, Atmosphere, Maintenance, Aesthetics, Traffic, General","amazing (27), awful (18), good (15), dark (15), clean (12), tidy (9), new (9), central (9), bad (9), great (9), lovely (9), lighting (9), disappointing (9), active (9), safe (9), busy (9), poor (9), messy (8), dead (6), roomy (3), dirty (3)",532
Westminster,Transcendental Meditation® Central London - Official,School,51.5083405,-0.1265981,5.0,0.6373087048530579,0.0,0.6,0.4,"Maintenance, Aesthetics, Accessibility, General","amazing (27), messy (24), good (12), easy (12), great (9), new (9), far (9)",10
Westminster,London Early Years Foundation,School,51.4930476,-0.1288189,3.7,0.6056237657864888,0.2,0.3333333333333333,0.4666666666666667,"Maintenance, Aesthetics, Safety, General","good (21), safe (18), roomy (9), fantastic (9), tidy (9), great (9), police (9), lovely (6), messy (3), old (3)",23
Westminster,Dancebuzz,School,51.5136455,-0.1377036,4.8,0.7491561730702718,0.0,0.2,0.8,"Maintenance, Noise, Accessibility, General","great (45), good (18), easy (9), far (9), new (9), music (9), safe (6), wonderful (6), fantastic (3)",91
Westminster,Nuffield Health Covent Garden Fitness and Wellbeing Gym,Gym,51.51383950000001,-0.1237129,3.2,0.6577295422554016,0.2,0.2,0.6,"Accessibility, Comfort, Cleanliness, Atmosphere, Maintenance, General","good (27), easy (18), broken (18), safe (12), clean (12), roomy (12), tidy (12), fantastic (9), enjoyable (9), great (9), welcoming (9), outdated (9), excellent (9), convenient (3), active (3)",145
Westminster,House of Sassoon Soho,Hair Care,51.51410720000001,-0.1306531,4.2,0.7557251274585723,0.0,0.26666666666666666,0.7333333333333333,"Maintenance, Accessibility, Safety, General","tidy (21), safe (18), good (12), perfect (9), far (9), damaged (9), unsafe (9), wonderful (9), old (9), great (9), terrible (9), messy (6), amazing (6), dark (6), dead (6), roomy (3), walking (3)",146
Westminster,Morley College London - Waterloo Centre for Adult Education,University,51.4980457,-0.1097722,4.2,0.6476197103659312,0.0,0.4,0.6,"Maintenance, Comfort, Accessibility, General","excellent (18), great (15), difficult (9), tight (9), amazing (9), old (9), comfortable (9), grimy (6), tidy (6), bad (3), safe (3), updated (3), good (3), messy (3), improved (3)",156
Westminster,Christie's Education,University,51.5066737,-0.1373875,5.0,0.0,0.0,0.0,0.0,,,3
Westminster,Abbey College,University,51.4973572,-0.1469486,5.0,0.8727918267250061,0.0,0.0,1.0,,,2
Westminster,Mosaic Soho (Capital City College - Soho centre),University,51.5127191,-0.134943,3.9,0.7216355085372925,0.0,0.4,0.6,"Safety, General","poor (18), tidy (12), good (12), fantastic (9), messy (9), bad (9), noisy (6), dark (3), dead (3), broken (3)",49
Westminster,Capital City College Westminster centre (formerly Westminster Kingsway College - Victoria Centre),University,51.4946935,-0.1352224,4.3,0.7818487564722697,0.0,0.2,0.8,"Safety, General","amazing (18), great (18), wonderful (15), good (12), fantastic (12), security (9), excellent (9), lovely (3), tidy (3)",96
Westminster,Media Diversity Institute,University,51.4925145,-0.1422247,1.0,0.36971281965573627,1.0,0.0,0.0,,,1
Westminster,Westminster Adult Education Service,University,51.48802449999999,-0.1380043,4.1,0.6588645974795023,0.3333333333333333,0.06666666666666667,0.6,"Maintenance, Aesthetics, Accessibility, General","good (30), messy (14), noisy (9), safe (9), poor (9), improved (9), difficult (9), tidy (6), amazing (6), easy (3), lively (3)",33
Westminster,Limkokwing University,University,51.5051022,-0.1466595,1.0,0.0,0.0,0.0,0.0,,,1
Westminster,"Ada, the National College for Digital Skills",University,51.4893175,-0.1471364,3.9,0.7586520791053772,0.0,0.13333333333333333,0.8666666666666667,"Comfort, General","excellent (27), amazing (15), safe (15), welcoming (9), good (9), great (9), fantastic (6), tidy (6), noisy (3), updated (3), roomy (3), improved (3)",39
Westminster,Klaspad Limited,University,51.5095744,-0.1411347,5.0,0.0,0.0,0.0,0.0,,,2
Westminster,King's College London Mathematics School,University,51.49588749999999,-0.1114662,4.6,0.6290029525756836,0.2,0.4,0.4,General,"amazing (9), poor (3)",27
Westminster,University of Notre Dame (USA) in England,University,51.5083137,-0.1303707,4.8,0.5510055422782898,0.06666666666666667,0.5333333333333333,0.4,"Aesthetics, Accessibility","safe (9), beautiful (9), near (3), dark (3), dead (3)",16
Westminster,King's College London Waterloo Campus,University,51.5056185,-0.113562,4.4,0.5958944261074066,0.0,0.5333333333333333,0.4666666666666667,"Safety, General","safe (9), security (9), amazing (9), messy (7), poor (6), tidy (3)",148
Westminster,James Clerk Maxwell Building,University,51.504925,-0.1127431,3.9,0.5731325229008992,0.2,0.4,0.4,"General, Accessibility, Safety","worst (18), safe (9), accessible (9), security (9)",9
Westminster,BPP London South (Waterloo),University,51.5051536,-0.1124391,3.9,0.7392941315968832,0.2,0.2,0.6,"Accessibility, Cleanliness, Maintenance, Aesthetics, General","good (18), messy (18), worst (18), bad (18), tidy (12), amazing (9), wonderful (9), far (9), safe (6), roomy (3), noisy (3)",124
Westminster,St Thomas' Hospital,Hospital,51.4991539,-0.1188859,4.2,0.644478460152944,0.0,0.4666666666666667,0.5333333333333333,"Accessibility, Safety, Cleanliness, Atmosphere, Maintenance, Aesthetics, Traffic, General","safe (39), modern (27), good (18), bad (9), excellent (9), great (9), clean (9), busy (9), central (9), tidy (6), messy (3), easy (3)",1444
Westminster,Millbank Medical Centre,Hospital,51.4941598,-0.1272069,3.4,0.5815652300914128,0.2,0.4,0.4,"Comfort, Atmosphere, Maintenance, Traffic, Aesthetics, General","bad (18), good (12), busy (9), tidy (9), modern (9), pleasant (9), messy (3), cozy (3), easy (3), roomy (3), noisy (3)",94
Westminster,"Lister Fertility Clinic, part of HCA Healthcare UK",Hospital,51.4865714,-0.150157,3.6,0.706750198205312,0.06666666666666667,0.3333333333333333,0.6,"Accessibility, Atmosphere, Maintenance, Aesthetics, General","tidy (45), messy (41), noisy (24), great (18), far (12), safe (12), disappointing (9), old (9), new (9), accessible (9), awful (9), poor (9), easy (9), fantastic (9), bad (9), terrible (9), connected (9), good (3), roomy (3)",106
Westminster,Cleveland Clinic London Hospital,Hospital,51.4994755,-0.1484996,3.7,0.8147627969582876,0.0,0.2,0.8,"Accessibility, Cleanliness, Maintenance, Aesthetics, General","wonderful (18), roomy (12), remote (9), terrible (9), disappointing (9), poor (9), clean (9), noisy (9), safe (9), far (9), excellent (9), difficult (9), fantastic (9), spotless (6), good (3), pretty (3), near (3), messy (3), tidy (3)",171
Westminster,London Doctors Clinic Private GP,Doctor,51.4934366,-0.1475373,3.9,0.5359840214252471,0.2,0.26666666666666666,0.5333333333333333,"Maintenance, Comfort, Accessibility, General","great (27), messy (9), difficult (9), easy (9), fantastic (9), new (9), welcoming (9), safe (6), tidy (3)",182
Westminster,Pimlico Podiatry,Hospital,51.4870916,-0.1365107,5.0,0.748979659875234,0.0,0.26666666666666666,0.7333333333333333,General,"fantastic (9), excellent (9), bad (9), great (9), messy (6), safe (3)",98
Westminster,Evelina London Children's Hospital,Hospital,51.4983258,-0.1184793,4.6,0.7669537723064422,0.0,0.2,0.8,"Accessibility, Comfort, Maintenance, Aesthetics, General","amazing (9), lovely (9), fantastic (9), old (9), walking (9), welcoming (9), connected (9), tidy (6), good (3)",238
Westminster,Guy's and St Thomas' NHS Foundation Trust,Hospital,51.50010759999999,-0.1182398,3.6,0.7752925395965576,0.0,0.2,0.8,"Cleanliness, Atmosphere, Maintenance, Aesthetics, Traffic, General","safe (21), busy (18), clean (18), great (18), roomy (15), pretty (9), good (9), improved (9), parking (9), excellent (9), messy (6), noisy (6), wonderful (3), easy (3)",134
Westminster,Gassiot House,Hospital,51.50004329999999,-0.1179776,4.2,0.5434773623943329,0.2,0.3333333333333333,0.4666666666666667,"Accessibility, Safety, Noise, Comfort, Cleanliness, Maintenance, Aesthetics, Traffic, General","clean (45), safe (33), roomy (24), secure (15), fantastic (9), security (9), old (9), spacious (9), pleasant (9), stunning (9), great (9), easy (9), soundproof (9), traffic (9), lovely (9), messy (6), good (3), walking (3), noisy (3)",31
Westminster,Belgrave Medical Centre,Hospital,51.49077409999999,-0.1511284,2.7,0.7339335938294729,0.0,0.4,0.6,General,"excellent (27), fantastic (9), terrible (9), easy (6), noisy (6), poor (6), safe (3), tidy (3)",87
Westminster,Wilbraham Place Practice,Hospital,51.494108,-0.1568985,3.7,0.8145996630191803,0.0,0.0,1.0,"Maintenance, General","tidy (12), dark (9), dead (9), terrible (9), awful (9), messy (6), good (3)",3
Westminster,Third Space Soho,Gym,51.5112699,-0.1357459000000001,4.8,0.7389427423477173,0.0,0.2,0.8,"Accessibility, Noise, Comfort, Cleanliness, Atmosphere, Aesthetics, General","great (36), spotless (27), fantastic (27), safe (18), welcoming (18), lovely (15), tidy (12), wonderful (9), inviting (9), quiet (9), excellent (9), calm (9), good (9), clean (6), beautiful (3), dark (3), dead (3), accessible (3), easy (1)",1409
Westminster,All About Spines,Hospital,51.48654119999999,-0.1505999,5.0,0.0,0.0,0.0,0.0,,,1
Westminster,Sloane Square Medical - Dr Victoria Owen,Hospital,51.4920424,-0.1577629,4.6,0.7631504674752553,0.06666666666666667,0.2,0.7333333333333333,"Maintenance, Accessibility, General","excellent (18), improved (9), difficult (9), fantastic (9), amazing (6), safe (6), noisy (3)",10
Westminster,Jewel Tower,Tourist Attraction,51.49845759999999,-0.1264205,4.0,0.5299315353234609,0.2,0.4,0.4,"Noise, Atmosphere, Maintenance, Aesthetics, General","safe (36), lovely (30), quiet (27), old (18), great (18), beautiful (9), wonderful (9), peaceful (9), walking (6), good (6), relaxing (3), tidy (3)",598
Westminster,Imperial War Museum,Museum,51.4958366,-0.1086584,4.7,0.7832037925720214,0.0,0.2,0.8,"Accessibility, Safety, Aesthetics, Traffic, General","fantastic (18), great (9), flow (9), stunning (9), amazing (9), protected (9), accessible (9), roomy (3), safe (3), tidy (3), good (3)",29107
Westminster,Benjamin Franklin House,Tourist Attraction,51.5076428,-0.1248886,4.2,0.6168099840482076,0.0,0.5333333333333333,0.4666666666666667,"Maintenance, Cleanliness, Accessibility, General","safe (27), near (21), excellent (9), difficult (9), great (6), noisy (3)",322
Westminster,Saatchi Gallery,Art Gallery,51.4906972,-0.1587165,4.5,0.5883061508337657,0.06666666666666667,0.6,0.3333333333333333,"Accessibility, Comfort, Cleanliness, Atmosphere, Maintenance, Traffic, Aesthetics, General","flow (21), tidy (18), clean (18), broken (18), safe (12), perfect (9), great (9), good (9), crowded (9), busy (9), enjoyable (9), easy (9), stunning (9), calm (9), walking (6), lovely (4), lively (3), near (3)",9360
Westminster,The Photographers' Gallery,Art Gallery,51.51492709999999,-0.1390605,4.6,0.6160031239191691,0.0,0.4,0.6,"Comfort, Aesthetics, General","safe (12), amazing (9), bad (9), good (9), stunning (9), enjoyable (9), fantastic (9), walking (3), lovely (3), wonderful (3), improved (3), poor (3)",2801
Westminster,The Guards Museum,Museum,51.5001244,-0.1361609,4.4,0.5900261004765829,0.0,0.8,0.2,"Maintenance, Aesthetics, General","good (30), safe (12), charming (9), pretty (3), loud (3), old (3)",555
Westminster,Spencer House,Tourist Attraction,51.5051673,-0.1402694,4.6,0.7298598607381185,0.0,0.3333333333333333,0.6666666666666666,"Maintenance, Aesthetics, General","wonderful (27), great (18), stunning (9), gorgeous (9), perfect (9), beautiful (9), good (9), renovated (7), safe (6), bad (3), tidy (3), lovely (3)",413
Westminster,Somerset House,Tourist Attraction,51.511059,-0.1171479999999999,4.4,0.6884017944335937,0.2,0.0,0.8,"Accessibility, Comfort, Atmosphere, Aesthetics, General","beautiful (27), welcoming (9), great (9), central (9), crowded (9), stunning (9), tidy (6), messy (3), safe (3)",1669
Westminster,"The King's Gallery, Buckingham Palace",Art Gallery,51.4998051,-0.1424367,4.5,0.6152921617031097,0.0,0.6,0.4,"General, Cleanliness, Aesthetics, Safety","security (18), great (15), beautiful (9), good (9), tidy (9), clean (9), safe (6), elegant (3)",4512
Westminster,Florence Nightingale Museum,Museum,51.499993,-0.1176597,4.4,0.6763079603513081,0.06666666666666667,0.2,0.7333333333333333,"Maintenance, General","good (15), safe (12), old (9), lovely (6), messy (3), noisy (3), tidy (3)",1026
Westminster,"The Royal Mews, Buckingham Palace",Tourist Attraction,51.49873170000001,-0.143629,4.5,0.6742480834325154,0.0,0.2,0.8,"Safety, Comfort, Cleanliness, Traffic, Aesthetics, General","wonderful (12), amazing (9), security (9), great (9), cars (9), clean (9), enjoyable (9), beautiful (6), noisy (3), tidy (3)",3590
Westminster,Apsley House,Museum,51.50347329999999,-0.1516714,4.6,0.696191817522049,0.0,0.2,0.8,"Comfort, Aesthetics, General","beautiful (18), amazing (18), safe (18), great (18), lovely (15), wonderful (9), messy (6), tidy (6), shouting (3), noisy (3), dark (3), dead (3)",1142
Westminster,Alison Jacques,Art Gallery,51.5102355,-0.141178,4.6,0.6876079082489014,0.0,0.2,0.8,"Maintenance, Comfort, Aesthetics, General","fantastic (18), welcoming (18), good (18), beautiful (9), modern (9), wonderful (9), great (9), bad (9), tidy (3)",52
Westminster,The Household Cavalry Museum,Museum,51.5049111,-0.1273704,4.5,0.6480778336524964,0.0,0.4666666666666667,0.5333333333333333,"Accessibility, Cleanliness, Atmosphere, Maintenance, Traffic, Aesthetics, General","great (18), safe (15), walking (12), easy (9), difficult (9), old (9), near (9), crowded (9), stunning (9), neat (9), perfect (3), parking (3), lively (3), messy (3), tidy (3)",3023
Westminster,Royal Academy of Arts,Art Gallery,51.5094426,-0.1398686,4.5,0.646494988600413,0.0,0.6,0.4,"Accessibility, Comfort, Atmosphere, Maintenance, Aesthetics, Traffic, General","safe (39), perfect (27), modern (27), great (27), stunning (18), beautiful (15), connected (9), inviting (9), calm (9), welcoming (9), spacious (9), easy (9), flow (9), fantastic (9), lovely (9), walking (6), roomy (3), far (3), dark (3), dead (3), charming (3), sketchy (3)",1764
Westminster,Hayward Gallery,Art Gallery,51.50620850000001,-0.1154442,4.6,0.6604633212089539,0.0,0.4,0.6,"Accessibility, Atmosphere, Maintenance, Aesthetics, General","good (36), great (18), old (18), lovely (12), crowded (9), amazing (9), easy (9), safe (9), accessible (9), tidy (6), lighting (3), messy (3)",1303
Westminster,Frith Street Gallery,Art Gallery,51.511282,-0.137002,4.4,0.5570171554883321,0.0,0.6,0.4,"Aesthetics, General, Atmosphere, Safety","lighting (18), good (9), excellent (9), calm (9), great (9), wonderful (6), lovely (3), safe (3), fantastic (3)",29
Westminster,Halcyon Gallery,Art Gallery,51.5113152,-0.1437024,4.7,0.6051749368508657,0.0,0.4666666666666667,0.5333333333333333,"Atmosphere, General","great (27), good (18), amazing (15), safe (12), wonderful (9), roomy (3), tidy (3), messy (3), noisy (3), easy (1)",453
Westminster,Century Club,Art Gallery,51.512069,-0.1321399,4.5,0.5739576578140259,0.0,0.8,0.2,"Noise, Aesthetics, Accessibility, General","good (36), great (27), safe (9), lovely (9), bad (9), music (9), convenient (9), central (9), walking (3), messy (3)",783
Westminster,John Martin Gallery,Art Gallery,51.50873600000001,-0.14178,4.7,0.7571153521537781,0.0,0.2,0.8,"General, Comfort, Aesthetics, Safety","inviting (9), lighting (9), welcoming (9), great (9), lovely (9), perfect (9), beautiful (6), safe (6)",14
Westminster,David Gill Gallery,Art Gallery,51.5067516,-0.1368602,4.1,0.6115449229876201,0.2,0.4,0.4,"Noise, Comfort, Maintenance, Aesthetics, General","good (30), messy (18), new (9), great (9), poor (9), comfortable (9), uncomfortable (9), silent (9), parking (3), bad (3)",25
Westminster,Beaconsfield Contemporary Art,Art Gallery,51.49209620000001,-0.1186856,4.7,0.6873333593209584,0.0,0.5333333333333333,0.4666666666666667,"Maintenance, Traffic, Aesthetics, General","lovely (18), wonderful (9), modern (9), great (9), bad (9), parking (9), amazing (6), good (3), safe (3)",41
Westminster,Hyde Park,Park,51.5073638,-0.1641135,4.7,0.6701603968938191,0.0,0.4,0.6,"Noise, Cleanliness, Atmosphere, Maintenance, Aesthetics, Traffic, General","parking (32), walking (28), beautiful (27), safe (24), busy (18), quiet (18), perfect (18), great (18), flow (12), calm (12), relaxing (12), lovely (12), amazing (9), peaceful (9), wonderful (9), maintained (9), crowded (9), bikes (6), tidy (6), messy (3), vehicle (3), easy (1)",135087
Westminster,Battersea Park,Park,51.4791075,-0.1564981,4.7,0.592525060971578,0.0,0.6,0.4,"Accessibility, Noise, Comfort, Cleanliness, Atmosphere, Maintenance, Aesthetics, Traffic, General","parking (59), beautiful (39), peaceful (33), safe (27), modern (27), perfect (21), old (21), scenic (18), great (18), clean (18), maintained (18), vibrant (18), music (18), walking (15), charming (12), serene (9), relaxing (9), central (9), cyclists (9), quiet (9), active (9), spacious (9), easy (9), fantastic (6), near (3), far (3), lighting (3), lively (3), cars (3), busy (3), flow (3), good (3), tidy (3)",22077
Westminster,Kensington Gardens,Park,51.506987,-0.179165,4.7,0.6744810819625855,0.0,0.3333333333333333,0.6666666666666666,"Safety, Noise, Cleanliness, Atmosphere, Aesthetics, Traffic, General","safe (30), perfect (27), relaxing (24), walking (21), peaceful (18), calm (18), busy (18), beautiful (18), quiet (15), parking (15), crowded (9), lovely (9), clean (9), great (9), bikes (6), tidy (3), fantastic (3), flow (3)",28981
Westminster,Chelsea Physic Garden,Tourist Attraction,51.48491720000001,-0.1627774,4.6,0.7500863571961721,0.06666666666666667,0.13333333333333333,0.8,"Noise, Atmosphere, Maintenance, Aesthetics, Traffic, General","beautiful (24), lovely (21), safe (21), great (18), bad (12), amazing (9), modern (9), traffic (9), driving (9), chaotic (9), excellent (9), old (3), tidy (3)",2033
Westminster,Battersea Park Children's Zoo,Zoo,51.4813528,-0.1565835,4.3,0.762712562084198,0.0,0.06666666666666667,0.9333333333333333,"Accessibility, Comfort, Cleanliness, Maintenance, Aesthetics, General","safe (33), clean (27), lovely (27), beautiful (18), maintained (18), great (18), easy (18), perfect (18), tidy (15), old (12), amazing (9), welcoming (9), parking (6), dark (6), dead (6), improved (3), relaxing (3)",2285
Westminster,Russell Square,Park,51.52175,-0.12589,4.5,0.6700658996899923,0.0,0.2,0.8,"Safety, Noise, Comfort, Cleanliness, Atmosphere, Maintenance, Traffic, Aesthetics, General","lovely (36), parking (18), beautiful (18), crowded (9), safe (9), good (9), clean (9), great (9), peaceful (9), pleasant (6), maintained (6), flow (3), relaxing (3), tidy (3), walking (3)",10152
Westminster,Postman's Park,Park,51.516767,-0.09771500000000002,4.6,0.6501495997111003,0.0,0.4,0.6,"Accessibility, Noise, Comfort, Cleanliness, Atmosphere, Maintenance, Aesthetics, Traffic, General","parking (18), lovely (18), amazing (18), safe (15), quiet (15), spacious (9), pleasant (9), central (9), maintained (9), great (9), tidy (9), scenic (9), beautiful (9), good (3), walking (3), flow (3)",1221
Westminster,Granville Square garden,Park,51.5276846,-0.1135453,4.2,0.6134713510672252,0.0,0.6,0.4,"Cleanliness, Maintenance, Traffic, Aesthetics, General","beautiful (27), parking (12), old (9), maintained (9), neat (9), wonderful (9), flow (3), tidy (3), relaxing (3), lively (2)",31
Westminster,Kennington Park,Park,51.4833853,-0.1092608,4.4,0.6894790490468343,0.0,0.2,0.8,"Accessibility, Noise, Cleanliness, Atmosphere, Maintenance, Traffic, Aesthetics, General","parking (24), peaceful (9), busy (9), easy (9), excellent (9), gorgeous (9), maintained (6), calm (6), flow (3), safe (3), convenient (3), good (3), grimy (3), lovely (3)",3719
Westminster,St Pancras International,Transit Station,51.53111620000001,-0.1258659,4.4,0.5168037990729014,0.2,0.6,0.2,"Accessibility, Safety, Comfort, Cleanliness, Atmosphere, Maintenance, Traffic","security (27), busy (9), clean (9), easy (9), safe (9), connected (9), convenient (9), modern (9), pleasant (9), tidy (6), good (3), pretty (3)",4816
Westminster,Albany Street Police Station,Bus Station,51.5265959,-0.1440576,3.0,0.5670061558485031,0.0,0.8333333333333334,0.16666666666666666,Safety,"police (9), noisy (6)",3
Westminster,Herbrand Street Car Park,Bus Station,51.5238788,-0.1254874,4.0,0.8124729990959167,0.0,0.0,1.0,"Comfort, Cleanliness, Safety","clean (9), spacious (9), security (9), walking (3), cars (3), parking (3)",1
Westminster,Euston,Transit Station,51.5280408,-0.1333271,3.9,0.5557090659936269,0.0,0.7333333333333333,0.26666666666666666,"Accessibility, Comfort, Cleanliness, Atmosphere, Maintenance, Traffic, General","busy (30), pleasant (18), easy (18), crowded (12), parking (9), bikes (9), tidy (9), dirty (9), bad (9), clean (9), broken (6), perfect (3), new (3), safe (3), updated (1)",3099
Westminster,Cannon Street,Subway Station,51.5110809,-0.09035030000000001,4.2,0.6686539451281229,0.0,0.26666666666666666,0.7333333333333333,"Accessibility, Noise, Cleanliness, Atmosphere, Aesthetics, Traffic, General","pretty (45), easy (27), clean (24), safe (18), central (9), good (9), rubbish (9), crowded (9), spotless (9), great (9), lovely (9), traffic (9), walking (9), wonderful (9), noisy (6), near (3), tidy (3)",99
Westminster,London Bridge,Transit Station,51.5042625,-0.08480240000000001,4.3,0.7818763176600139,0.0,0.0,1.0,"Accessibility, Safety, Comfort, Cleanliness, Atmosphere, Maintenance, Aesthetics, Traffic, General","modern (45), safe (21), easy (18), excellent (18), new (18), good (12), lovely (12), maintained (9), wonderful (9), near (9), spacious (9), accessible (9), welcoming (9), crowded (9), fantastic (6), walking (6), old (3), lighting (3), charming (3), busy (3)",2070
Westminster,Saint Dunstan in the East Church Tower,Transit Station,51.50979100000001,-0.0827674,4.7,0.5520656108856201,0.0,0.5,0.5,"Maintenance, Aesthetics","beautiful (9), old (9)",3
Westminster,Oxford Circus Station (Stop OH),Bus Station,51.5151717,-0.1434531,5.0,0.8417163491249084,0.0,0.0,1.0,Aesthetics,beautiful (9),3
Westminster,St John Street (Stop J),Bus Station,51.5226031,-0.1039438,4.8,0.4808932410346137,0.4444444444444444,0.2222222222222222,0.3333333333333333,General,great (9),5
Westminster,"Cobalt, The",Bus Station,51.512441,-0.150847,2.0,0.0,0.0,0.0,0.0,,,1
Westminster,Oxford Circus,Subway Station,51.5152117,-0.1418553,4.3,0.5266628245512645,0.0,0.8,0.2,"Accessibility, Safety, Noise, Atmosphere, Traffic, General","good (27), crowded (18), easy (18), safe (12), convenient (12), tidy (9), security (9), traffic (9), busy (9), great (9), bustling (9), connected (9), vibrant (9), messy (3)",1476
Westminster,Bond Street,Transit Station,51.5143352,-0.1488549,4.4,0.4757693588733673,0.26666666666666666,0.5333333333333333,0.2,"Accessibility, Comfort, Cleanliness, Atmosphere, Maintenance, Aesthetics, General","amazing (18), tidy (12), safe (12), roomy (12), clean (9), central (9), far (9), modern (9), easy (9), beautiful (9), crowded (9), messy (3), ugly (3)",779
Westminster,Temple,Subway Station,51.51099980000001,-0.1142932,4.2,0.489265372355779,0.2,0.6666666666666666,0.13333333333333333,"Maintenance, Aesthetics, Accessibility, General","old (27), safe (18), lovely (9), beautiful (9), great (9), bad (9), easy (9), dark (3), dead (3), near (3), busy (3), noisy (3), walking (3)",115
Westminster,Tottenham Court Road,Transit Station,51.5162811,-0.1300406,4.4,0.5871763785680135,0.0,0.6,0.4,"Accessibility, Safety, Noise, Comfort, Cleanliness, Atmosphere, Maintenance, Aesthetics, Traffic, General","central (36), modern (27), police (18), easy (18), cramped (18), clean (15), excellent (12), messy (9), safe (9), busy (9), lively (9), vibrant (9), cozy (9), new (9), convenient (9), uncomfortable (9), tidy (6), upgraded (3), charming (3), appealing (3), pretty (3), good (3), walking (3), music (3)",1128
Westminster,Southwark,Subway Station,51.50392600000001,-0.1049685,4.3,0.6071267584959666,0.0,0.4,0.6,"Accessibility, Noise, Comfort, Cleanliness, Atmosphere, Maintenance, Traffic, Aesthetics","modern (45), clean (18), busy (9), far (9), accessible (9), beautiful (9), quiet (9), spacious (9), renovated (9), near (6), crowded (6), walking (3), safe (3), ugly (3)",181
Westminster,One New Change,Shopping Mall,51.513924,-0.0954749,4.2,0.6869311074415843,0.0,0.4,0.6,"Accessibility, Noise, Atmosphere, Maintenance, Aesthetics, General","great (27), safe (21), new (18), modern (18), stunning (18), central (11), fantastic (9), perfect (9), amazing (9), lively (9), music (9), tidy (6), dark (6), dead (6)",7009
Westminster,The Brunswick Centre,Shopping Mall,51.5247596,-0.1240282,4.2,0.6688921014467876,0.13333333333333333,0.26666666666666666,0.6,"Safety, Comfort, Cleanliness, Atmosphere, Maintenance, Aesthetics, Traffic, General","lovely (21), good (12), amazing (9), clean (9), beautiful (9), parking (9), cozy (9), modern (9), busy (9), pretty (9), new (9), dark (9), great (9), flow (3), safe (3)",6312
Westminster,West One,Shopping Mall,51.5139278,-0.1492707,4.1,0.7726727763811747,0.0,0.06666666666666667,0.9333333333333333,"General, Accessibility, Safety","good (11), amazing (9), easy (9), worst (9), security (9), police (9), safe (6), noisy (6), poor (6), pretty (3)",831
Westminster,Tiendas Del Sur,Shopping Mall,51.4925875,-0.1006005,4.2,0.5820866366227467,0.06666666666666667,0.5333333333333333,0.4,"Noise, General","great (36), good (33), music (18), amazing (9), wonderful (9), tidy (6), dead (3), safe (3)",329
Westminster,BILLIONEARN LTD,Shopping Mall,51.5130167,-0.0943522,4.0,0.0,0.0,0.0,0.0,,,1
Westminster,Hay's Galleria,Shopping Mall,51.505661,-0.0834008,4.4,0.5430229226748149,0.0,0.6666666666666666,0.3333333333333333,"Accessibility, Comfort, Maintenance, Aesthetics, General","great (45), spacious (18), safe (18), modern (18), lovely (9), near (9), scenic (9), perfect (9), amazing (9), old (9), charming (3)",8229
Westminster,London Bridge Christmas Market,Shopping Mall,51.5063073,-0.08339320000000001,4.4,0.6028707186381023,0.0,0.5333333333333333,0.4666666666666667,"Comfort, Atmosphere, Aesthetics, Traffic, General","busy (18), disappointing (9), beautiful (9), cozy (9), safe (9), congested (9), good (9), crowded (6), lovely (6), charming (3), jammed (3), walking (3), tidy (3)",20
Westminster,The British Museum,Museum,51.5194133,-0.1269566,4.7,0.832726909716924,0.0,0.2,0.8,"Aesthetics, Atmosphere, Accessibility, General","great (18), beautiful (12), safe (12), amazing (9), far (9), poor (6), serene (6), modern (3), relaxing (3), calm (3)",164069
Westminster,Natural History Museum,Museum,51.49671499999999,-0.1763672,4.7,0.6870136817296346,0.0,0.13333333333333333,0.8666666666666667,"Accessibility, Noise, Atmosphere, Maintenance, Aesthetics, Traffic, General","beautiful (45), great (27), safe (21), amazing (18), perfect (18), pretty (18), easy (18), busy (18), tidy (15), wonderful (9), old (9), crowded (9), central (9), roomy (9), peaceful (9), dark (6), dead (6), lovely (3)",30305
Westminster,Crosby Moran Hall,Tourist Attraction,51.4825121,-0.1725873,4.5,0.5236621876557668,0.13333333333333333,0.4666666666666667,0.4,"Aesthetics, Accessibility, General","great (27), safe (15), near (12), beautiful (9), walking (9), lovely (6), parking (6)",74
Westminster,Victoria and Albert Museum,Tourist Attraction,51.4966392,-0.17218,4.7,0.8283074259757995,0.0,0.0,1.0,"Noise, Atmosphere, Maintenance, Aesthetics, General","amazing (27), beautiful (18), lovely (18), safe (18), stunning (18), great (18), tidy (12), peaceful (9), new (9), fantastic (9), old (9), noisy (3), walking (3), roomy (3), relaxing (3)",62101
Westminster,Boating Lake,Natural Feature,51.4796017,-0.1523555,4.8,0.43709161546495223,0.3333333333333333,0.6666666666666666,0.0,"Comfort, General","pleasant (9), great (9), safe (3)",6
Westminster,Boating Lake,Natural Feature,51.47796,-0.1523466,4.0,0.61869877576828,0.0,0.3333333333333333,0.6666666666666666,General,great (9),4
Westminster,Ladies Pond,Natural Feature,51.4785313,-0.1548287,4.7,0.5877099484205246,0.25,0.25,0.5,"Aesthetics, General","safe (9), lovely (9), amazing (9)",6
Westminster,The Long Water,Natural Feature,51.5078152,-0.1745726,4.9,0.5707957804203033,0.0,0.7333333333333333,0.26666666666666666,Aesthetics,"beautiful (18), lovely (9), parking (6), noisy (3), safe (2)",18
Westminster,River Fleet,Natural Feature,51.51085019999999,-0.1039077,3.9,0.45125489433606464,0.6,0.2,0.2,"Traffic, Aesthetics, Accessibility","safe (12), tidy (6), messy (6), near (6), noisy (3), flow (3)",26
Westminster,Boating Lake,Natural Feature,51.52836920000001,-0.1605325,4.7,0.6279258410135905,0.0,0.4666666666666667,0.5333333333333333,"Comfort, Atmosphere, Aesthetics, General","pretty (18), relaxing (18), lovely (12), amazing (9), pleasant (6), parking (3), safe (3), good (3), tidy (3), walking (3)",32
Westminster,River Walbrook,Natural Feature,51.5092916,-0.09269129999999999,4.0,0.44680793086687726,0.5,0.5,0.0,Traffic,flow (6),3
Westminster,Round Pond,Natural Feature,51.5059954,-0.1832047,4.6,0.5685780723889668,0.2,0.4,0.4,"Aesthetics, Traffic, Accessibility","easy (9), pretty (9), walking (7), peaceful (3), tidy (3)",78
Westminster,Sunken Garden Pond,Natural Feature,51.5056861,-0.1868794,4.8,0.5249325513839722,0.13333333333333333,0.6666666666666666,0.2,"Maintenance, Aesthetics","beautiful (15), lovely (9), walking (6), new (3)",19
Westminster,Cock Pond,Natural Feature,51.4622976,-0.1409762,4.6,0.6597320775190989,0.13333333333333333,0.2,0.6666666666666666,"Aesthetics, General","great (21), good (9), beautiful (9), lovely (3), noisy (3), dark (3), dead (3)",5
Westminster,Paddington Green,Natural Feature,51.5205463,-0.1740083,5.0,0.568605899810791,0.0,1.0,0.0,Aesthetics,lovely (9),3
Westminster,Fulham Road Jewish Cemetery,Cemetery,51.4895023,-0.1751934,4.7,0.4203704446554184,0.16666666666666666,0.8333333333333334,0.0,"Accessibility, Noise, Cleanliness, Maintenance, Aesthetics","dusty (9), isolated (9), silent (9), old (9), charming (9), busy (6), safe (6), lovely (3)",3
Westminster,Hyde Park Pet Cemetery,Cemetery,51.51178089999999,-0.1728345,2.9,0.5884214043617249,0.2,0.4,0.4,"Accessibility, Safety, Traffic, Aesthetics, General","parking (24), beautiful (18), safe (15), good (9), easy (9), walking (9), police (9), excellent (9), tidy (6), lovely (6), wonderful (3), far (3)",17
Westminster,Moravian Burial Ground,Cemetery,51.4834051,-0.1759775,4.0,0.5053042968114217,0.0,1.0,0.0,"Aesthetics, Maintenance, Noise, Atmosphere","quiet (18), safe (9), modern (9), beautiful (9), lovely (9), pretty (9), tidy (3), relaxing (3)",1
Westminster,St. Laurence Pountney Churchyard,Cemetery,51.5106071,-0.08858740000000001,5.0,0.4440983235836029,0.0,1.0,0.0,,safe (3),1
Westminster,Church of Saint John,Church,51.5231933,-0.1038242,4.3,0.6221526712179184,0.16666666666666666,0.08333333333333333,0.75,"Accessibility, Comfort, Atmosphere, Aesthetics, General","safe (9), near (9), pleasant (9), stunning (9), serene (9), perfect (9)",6
Westminster,St Michael's Church : Paternoster Royal,Church,51.51118719999999,-0.09223680000000001,5.0,0.600558743874232,0.06666666666666667,0.3333333333333333,0.6,"Maintenance, Aesthetics, General","lovely (18), beautiful (18), modern (9), great (9), damaged (9), safe (6), messy (3), peaceful (3)",25
Westminster,St. Paul's Cathedral,Tourist Attraction,51.51384530000001,-0.0983506,4.7,0.7647471865018208,0.0,0.2,0.8,"Noise, Atmosphere, Maintenance, Aesthetics, Traffic, General","safe (39), beautiful (36), gorgeous (18), elegant (9), tidy (9), great (9), stunning (9), calm (9), charming (9), perfect (7), quiet (3), flow (3), messy (3), good (3)",49922
Westminster,Temple Church,Tourist Attraction,51.5132637,-0.1102647,4.6,0.6424490173657735,0.06666666666666667,0.3333333333333333,0.6,"Accessibility, Noise, Atmosphere, Aesthetics, General","beautiful (30), peaceful (27), safe (15), amazing (9), good (9), great (9), central (9), active (9), quiet (9), perfect (9), near (9), walking (6), convenient (3)",2663
Westminster,Holy Trinity Brompton,Tourist Attraction,51.4978016,-0.169831,4.8,0.8541281263033549,0.0,0.0,1.0,"Accessibility, Noise, Maintenance, Aesthetics, General","wonderful (27), lovely (9), fantastic (9), music (9), new (9), central (9), messy (3), safe (3)",971
Westminster,St Mary-le-Bow Church,Tourist Attraction,51.513743,-0.0936438,4.6,0.49437990387280784,0.06666666666666667,0.9333333333333333,0.0,"Noise, Atmosphere, Maintenance, Aesthetics, Traffic, General","safe (36), beautiful (27), great (27), quiet (18), old (12), lovely (9), damaged (9), active (9), stunning (9), busy (9), modern (9), fantastic (6), tidy (3), peaceful (3)",238
Westminster,Catholic Church of Saint James,Tourist Attraction,51.5181906,-0.1525259,4.8,0.6405288656552632,0.0,0.4666666666666667,0.5333333333333333,"Safety, Noise, Comfort, Cleanliness, Atmosphere, Maintenance, Aesthetics, General","quiet (36), beautiful (33), peaceful (27), maintained (18), safe (15), wonderful (15), lighting (12), calm (9), welcoming (9), new (9), excellent (9), clean (9), tidy (6), buzzing (3), muddy (3), fantastic (3)",572
Westminster,London Oratory,Tourist Attraction,51.4970748,-0.1695205,4.7,0.6077934006849924,0.2,0.3333333333333333,0.4666666666666667,"Accessibility, Noise, Comfort, Atmosphere, Maintenance, Aesthetics, Traffic, General","beautiful (39), quiet (33), safe (27), peaceful (18), stunning (15), gorgeous (9), great (9), tidy (9), amazing (9), busy (9), welcoming (9), elegant (9), bustling (9), far (9), active (9), new (3), lighting (3), dark (3), dead (3), cozy (3), near (3), messy (3)",1390
Westminster,Southwark Cathedral,Tourist Attraction,51.5061009,-0.08959579999999999,4.7,0.7025887131690979,0.0,0.4666666666666667,0.5333333333333333,"Comfort, Atmosphere, Maintenance, Aesthetics, General","beautiful (39), welcoming (18), lovely (15), safe (15), modern (9), perfect (9), poor (9), stunning (9), calm (9), amazing (9), relaxing (9), good (9), dark (3), dead (3), roomy (3), charming (3), noisy (3)",3699
Westminster,St George the Martyr Church,Tourist Attraction,51.5209846,-0.1224565,4.6,0.6036685526371002,0.2,0.3333333333333333,0.4666666666666667,"Noise, Comfort, Cleanliness, Atmosphere, Maintenance, Aesthetics, Traffic, General","beautiful (18), safe (15), peaceful (9), great (9), modern (9), fantastic (9), elegant (9), dirty (9), wonderful (9), welcoming (9), lovely (3), dangerous (3)",30
Westminster,Russian Orthodox Cathedral of the Dormition,Tourist Attraction,51.5006178,-0.1692824,4.8,0.7449911872545878,0.06666666666666667,0.3333333333333333,0.6,"Atmosphere, Cleanliness, Aesthetics, Accessibility","beautiful (27), lovely (15), messy (12), crowded (9), relaxing (9), far (9), calm (6)",841
Westminster,St. Peter's Italian Catholic Church,Tourist Attraction,51.5221376,-0.1090398,4.8,0.6887718379497528,0.0,0.2,0.8,"Accessibility, Comfort, Maintenance, Aesthetics, General","beautiful (27), good (15), tidy (12), great (9), peaceful (9), difficult (9), far (9), welcoming (9), wonderful (9), stunning (9), safe (6), messy (3), lovely (3), lighting (3), dirty (3), easy (3), lively (3), connected (3)",638
Westminster,St Giles in the Fields,Tourist Attraction,51.51535639999999,-0.1285138,4.5,0.5702363014221191,0.06666666666666667,0.6,0.3333333333333333,"Accessibility, Noise, Comfort, Atmosphere, Maintenance, Aesthetics, General","beautiful (21), peaceful (18), calm (18), near (15), far (9), safe (9), new (9), poor (9), elegant (9), quiet (8), tidy (6), spacious (6), noisy (3), great (2)",176
Westminster,NCP London Bloomsbury Square,Parking,51.5188961,-0.1234354,3.4,0.898393444220225,0.0,0.0,1.0,"Accessibility, Safety, Cleanliness, Maintenance, Traffic, General","parking (58), cars (50), amazing (33), safe (27), secure (21), tidy (18), security (18), damaged (12), broken (11), new (9), clean (9), improved (9), vehicle (9), poor (9), worst (9), noisy (3), appealing (3), lovely (3), good (3), messy (3), difficult (3)",454
Westminster,Q-Park Oxford Street,Parking,51.5166622,-0.1443238,3.4,0.6796463509400685,0.2,0.2,0.6,"Accessibility, Safety, Comfort, Cleanliness, Atmosphere, Maintenance, Traffic, General","parking (84), security (54), cars (51), broken (36), secure (27), crime (27), bikes (27), dirty (18), noisy (15), safe (15), tidy (12), far (9), police (9), calm (9), vehicle (9), accessible (9), pedestrian (9), awful (9), unpleasant (9), poor (9), dark (6), dead (6), messy (3), near (3), updated (3)",355
Westminster,Express Car Parks Ltd,Parking,51.5150349,-0.1636377000000001,4.2,0.7236152946949005,0.0,0.4,0.6,"Accessibility, Safety, Cleanliness, Maintenance, Traffic, General","parking (63), cars (27), great (27), safe (24), fantastic (9), easy (9), clean (9), maintained (9), excellent (9), good (9), central (9), secure (9), vehicle (9), pretty (3), walking (3), messy (3)",53
Westminster,Amwell Street Car Park - Green Parking,Parking,51.5269716,-0.1091386,4.2,0.6709139962991079,0.0,0.3333333333333333,0.6666666666666666,"Accessibility, Comfort, Cleanliness, Maintenance, Traffic, Aesthetics, General","parking (60), cars (18), lovely (18), safe (12), easy (9), maintained (9), tight (9), great (9), pretty (9), good (9), welcoming (6), tidy (3)",25
Westminster,Chelsea London Car Park,Car Wash,51.4806008,-0.1800169,3.9,0.6068640927473704,0.0,0.6,0.4,"Accessibility, Safety, Comfort, Traffic, General","parking (39), safe (27), cars (12), security (9), pleasant (9), easy (9), excellent (9), secure (9), walking (6)",60
Westminster,Nell Gwynn Garages,Parking,51.4923009,-0.1649527,3.3,0.7396876712640127,0.0,0.16666666666666666,0.8333333333333334,"Maintenance, Comfort, Traffic, General","cars (36), good (18), noisy (9), comfortable (9), bad (9), damaged (9), tidy (6), parking (6), roomy (3), poor (3), messy (3)",6
Westminster,Senate House Library,Library,51.5211322,-0.1293625,4.6,0.6912597298622132,0.0,0.2,0.8,"Noise, Comfort, Atmosphere, General","quiet (24), great (9), comfortable (9), perfect (9), good (9), pleasant (9)",194
Westminster,Barbican Centre,Art Gallery,51.5202077,-0.09378639999999999,4.6,0.6571090499560038,0.0,0.4,0.6,"Aesthetics, Accessibility, General","good (39), great (27), fantastic (18), amazing (9), beautiful (9), stunning (9), near (3), cars (3), calm (3), cozy (3), tidy (3)",4287
Westminster,National Army Museum,Library,51.486405,-0.1604413,4.5,0.7766745805740356,0.0,0.0,1.0,"Comfort, Cleanliness, Atmosphere, Maintenance, General","excellent (18), good (18), great (18), safe (15), new (9), clean (9), modern (9), upgraded (9), welcoming (9), fantastic (9), noisy (3), messy (3)",2673
Westminster,Goethe-Institut London,Library,51.49957359999999,-0.1740761,4.5,0.7393237789471944,0.0,0.4,0.6,"Accessibility, Noise, Comfort, Cleanliness, Atmosphere, Maintenance, Aesthetics, General","good (30), great (27), spacious (15), messy (9), new (9), inviting (9), accessible (9), gorgeous (9), peaceful (9), music (9), lovely (9), clean (9), pretty (9), tidy (6), safe (3), parking (3), noisy (3)",33
Westminster,The Warburg Institute,Art Gallery,51.5233696,-0.1301902,4.3,0.570846297343572,0.0,0.8,0.2,"Maintenance, Aesthetics, Accessibility, General","great (18), good (18), easy (18), disappointing (9), lovely (9), beautiful (9), difficult (9), pretty (9), dark (3), dead (3), safe (3)",19
Westminster,The King's Fund,Library,51.5174854,-0.1452706,4.8,0.6412198543548584,0.0,0.4666666666666667,0.5333333333333333,"Accessibility, Safety, Comfort, Cleanliness, Aesthetics, General","easy (27), safe (15), good (9), great (9), clean (9), far (9), security (9), enjoyable (9), amazing (9), tidy (6), lovely (6), spotless (3), lighting (3)",20
Westminster,The Wiener Holocaust Library,Library,51.5215842,-0.1280363,4.8,0.5612081627051035,0.0,0.8666666666666667,0.13333333333333333,"Comfort, Safety, General","great (12), crime (9), pleasant (3), safe (3)",15
Westminster,Brandon Library,Library,51.4824546,-0.1029724,4.2,0.5956626216570536,0.0,0.5333333333333333,0.4666666666666667,"Noise, Comfort, Cleanliness, Atmosphere, General","great (27), quiet (18), ugly (9), welcoming (9), clean (9), peaceful (9), hectic (9), tidy (3), safe (3)",18
Westminster,LSE Library: The British Library of Political and Economic Science,Library,51.51467290000001,-0.1157158,4.0,0.6802481810251871,0.06666666666666667,0.26666666666666666,0.6666666666666666,"Accessibility, Safety, Noise, Maintenance, Aesthetics, Traffic, General","safe (36), silent (36), good (21), noisy (21), roomy (9), central (9), security (9), gorgeous (9), terrible (9), loud (9), walking (9), far (9), lovely (6), bad (3), tidy (3)",140
Westminster,National Art Library,Library,51.49666500000001,-0.172313,4.2,0.6348775029182434,0.0,0.3333333333333333,0.6666666666666666,"Accessibility, Safety, Noise, Atmosphere, Maintenance, Aesthetics, General","beautiful (18), security (9), difficult (9), calm (6), safe (3), roomy (3), lighting (3), walking (3), noisy (3), good (3), wonderful (3)",39
Westminster,"IOE, UCL's Faculty of Education and Society",University,51.52301629999999,-0.1279042,4.3,0.5309232195218404,0.3333333333333333,0.4,0.26666666666666666,"Atmosphere, Safety, General","great (18), tidy (9), bad (9), security (9), good (9), messy (6), lighting (3), noisy (3), calm (3), lovely (3), safe (3), roomy (3)",106
Westminster,Nuffield Health City Fitness & Wellbeing Gym,Gym,51.5099867,-0.09127799999999998,3.8,0.7949766675631206,0.0,0.2,0.8,"Accessibility, Comfort, Cleanliness, Atmosphere, Maintenance, Aesthetics, Traffic, General","clean (36), great (27), broken (24), busy (18), maintained (12), messy (9), lovely (9), spacious (9), good (9), far (9), noisy (6), safe (6), connected (3)",173
Westminster,City Lit,School,51.5149388,-0.1200873,4.2,0.6592202425003052,0.0,0.4,0.6,"Accessibility, Safety, Comfort, Cleanliness, Atmosphere, Maintenance, Aesthetics, General","safe (30), fantastic (18), tidy (15), new (15), lovely (12), noisy (12), amazing (9), clean (9), spacious (9), welcoming (9), convenient (9), good (9), accessible (9), great (9), easy (9), calm (9), dark (6), dead (6), difficult (6), roomy (3), messy (3), updated (3)",279
Westminster,European School of Economics,University,51.5166679,-0.1514397,4.3,0.7083266715208689,0.0,0.2,0.8,"Maintenance, Comfort, Safety, General","amazing (18), excellent (9), safe (9), comfortable (9), welcoming (9), new (9), modern (9), dark (6), dead (6), messy (6)",16
Westminster,Nuffield Health Bloomsbury Fitness & Wellbeing Gym,Gym,51.5240128,-0.1182221,3.4,0.6642309506734212,0.0,0.6,0.4,"Safety, Comfort, Cleanliness, Maintenance, General","great (36), clean (27), amazing (18), maintained (15), safe (15), dark (15), excellent (9), spacious (9), perfect (9), fantastic (9), deteriorating (9), tidy (9), noisy (6), dead (6), welcoming (6), roomy (6), disappointing (3), messy (3)",118
Westminster,Saint Giles Colleges (London Central),School,51.52146219999999,-0.1236851,4.0,0.4969632923603058,0.0,1.0,0.0,General,good (9),2
Westminster,"City of Westminster College, Paddington Green Campus",University,51.52104159999999,-0.1746649,3.2,0.7446216662724813,0.0,0.06666666666666667,0.9333333333333333,"General, Accessibility, Safety","tidy (42), noisy (30), good (30), crime (9), isolated (9), bad (9), terrible (9), lovely (3)",248
Westminster,London Waterloo Academy,University,51.50098680000001,-0.1041983,4.5,0.8602952202161153,0.0,0.0,1.0,"Safety, Accessibility, General","amazing (18), far (9), fantastic (9), excellent (9), messy (3), secure (3), safe (3)",92
Westminster,Park Sports Hyde Park,School,51.5025606,-0.1737329,4.3,0.6134574552377065,0.0,0.4,0.6,"Accessibility, Safety, Atmosphere, Aesthetics, Traffic, General","good (33), lovely (24), parking (15), safe (12), walking (12), easy (10), near (9), calm (9), central (9), perfect (9), excellent (9), great (9), flow (3), relaxing (3), lively (3), tidy (3), dark (3), dead (3)",497
Westminster,Stafford House London,School,51.5182969,-0.1218658,4.7,0.8320884823799133,0.0,0.0,1.0,"Maintenance, Comfort, Atmosphere, General","amazing (27), perfect (9), pleasant (9), fantastic (9), great (9), enjoyable (9), improved (3), messy (3), safe (3), lovely (3)",280
Westminster,University of Westminster Marylebone Hall,University,51.522048,-0.1549789,4.3,0.6262543817361196,0.0,0.4,0.6,"Accessibility, Comfort, Atmosphere, Maintenance, Aesthetics, Traffic, General","good (27), great (27), lovely (24), easy (18), renovated (9), upgraded (9), beautiful (9), perfect (9), crowded (9), comfortable (9), modern (9), busy (9), tidy (6), messy (3), parking (3)",220
Westminster,UCL Institute of Archaeology,University,51.52485069999999,-0.1317153,4.7,0.4773833801349004,0.0,1.0,0.0,General,great (9),6
Westminster,University of London,University,51.5229649,-0.1309067,4.3,0.7112471878528595,0.0,0.4,0.6,"Maintenance, Atmosphere, Accessibility, General","far (27), worst (9), noisy (9), inaccessible (9), poor (9), tidy (9), old (9), good (9), great (9), safe (6), pretty (3), lively (3), connected (3), messy (3)",623
Westminster,Imperial College London,University,51.49882220000001,-0.1748735,4.5,0.6921824634075164,0.06666666666666667,0.3333333333333333,0.6,"Accessibility, Safety, Maintenance, Traffic, General","good (27), safe (18), great (18), fantastic (12), driving (9), modern (9), new (9), central (9), tidy (6)",1216
Westminster,Oxford House College,University,51.51564899999999,-0.134586,4.3,0.706665861606598,0.0,0.06666666666666667,0.9333333333333333,"Maintenance, Comfort, Accessibility, General","great (18), good (15), disappointing (9), far (9), excellent (9), comfortable (9), new (9), poor (9), safe (6), difficult (3), tidy (3), noisy (3), messy (3)",124
Westminster,London South Bank University,University,51.4979199,-0.1017593,4.0,0.7210095067818959,0.06666666666666667,0.3333333333333333,0.6,"Accessibility, Atmosphere, Maintenance, Aesthetics, General","great (18), far (18), amazing (18), vibrant (9), scenic (9), lively (9), convenient (9), new (9), connected (9), walking (6), improved (3), safe (3), busy (3), messy (3), easy (3)",621
Westminster,Royal College of Surgeons of England,University,51.5153587,-0.1159651,4.4,0.6135538538297017,0.2,0.3333333333333333,0.4666666666666667,"Accessibility, Comfort, Cleanliness, Maintenance, Aesthetics, General","good (12), accessible (9), clean (9), beautiful (9), elegant (9), renovated (9), tidy (6), safe (6), welcoming (6), roomy (3)",131
Westminster,Royal College of Physicians,University,51.5257424,-0.145168,4.6,0.690651802221934,0.06666666666666667,0.2,0.7333333333333333,"Accessibility, Cleanliness, Maintenance, Aesthetics, General","wonderful (18), old (9), lovely (9), central (9), great (9), maintained (6), safe (3), tidy (3), neat (3), near (3), new (3)",184
Westminster,"Birkbeck, University of London",University,51.5219679,-0.1302543,4.0,0.5339797556400299,0.0,0.8,0.2,"Maintenance, Cleanliness, Aesthetics, General","noisy (21), safe (18), fantastic (12), messy (11), beautiful (9), disappointing (9), tidy (9), updated (9), poor (9), new (9), clean (9), modern (9), great (9), wonderful (6), walking (3)",359
Westminster,SOAS University of London,University,51.52235,-0.129259,4.2,0.5869377175966899,0.2,0.2,0.6,"Maintenance, Aesthetics, Accessibility, General","good (30), tidy (12), safe (12), central (9), pretty (9), stunning (9), beautiful (9), lovely (9), messy (6), appealing (3)",287
Westminster,University of the Arts London,University,51.51778840000001,-0.1163673,3.7,0.6405576606591542,0.2,0.0,0.8,"Maintenance, General","disappointing (27), noisy (15), tidy (9), messy (9), bad (9), terrible (9), safe (3), good (3)",126
Westminster,Royal College of Nursing,University,51.51590559999999,-0.1460412,3.7,0.7216618994871775,0.0,0.4,0.6,"General, Aesthetics, Accessibility, Safety","good (9), lighting (9), central (9), amazing (9), great (9), noisy (6), messy (6), tidy (3), ugly (3), roomy (3), lovely (3)",17
Westminster,Kensington College of Business,University,51.5195599,-0.1442533,4.3,0.7931739807128906,0.0,0.0,1.0,"Maintenance, Accessibility, General","good (36), great (27), excellent (18), wonderful (12), easy (9), amazing (9), messy (9), fantastic (9), improved (9), safe (6), bad (5), noisy (3), tidy (3)",36
Westminster,Royal College of Art,University,51.5011441,-0.1792847,4.1,0.5533871491750081,0.0,0.8,0.2,"Accessibility, General","safe (12), bad (9), fantastic (9), good (3), screaming (3)",150
Westminster,London School of Economics and Political Science,University,51.5144388,-0.1164513,4.4,0.7333757956822713,0.0,0.4,0.6,"Accessibility, Safety, Comfort, Maintenance, Aesthetics, General","excellent (27), beautiful (18), new (9), amazing (9), accessible (9), security (9), lovely (9), cozy (9), messy (9), good (6), safe (3), tidy (3)",842
Westminster,London Business School,University,51.5261617,-0.1607485,4.7,0.5807967960834504,0.4666666666666667,0.13333333333333333,0.4,"Maintenance, Accessibility","safe (18), old (18), near (9), parking (6), tidy (3)",378
Westminster,Great Ormond Street Hospital for Children,Hospital,51.5231639,-0.120741,4.6,0.6235539793968201,0.0,0.4666666666666667,0.5333333333333333,"Safety, Cleanliness, Atmosphere, Maintenance, Traffic, General","great (45), safe (36), tidy (21), clean (21), amazing (15), noisy (12), good (12), poor (9), new (9), busy (9), disappointing (9), wonderful (9), old (9), walking (9), messy (3), dark (3), dead (3), lovely (3), improved (3)",802
Westminster,St Bartholomew's Hospital,Hospital,51.51749599999999,-0.1000463,4.1,0.7489207943280538,0.0,0.2,0.8,"Aesthetics, General, Maintenance, Safety","amazing (36), good (30), messy (21), tidy (12), fantastic (9), safe (9), new (9), lovely (9), pretty (3)",495
Westminster,Bupa Health Centre Chancery Lane,Physiotherapist,51.5142736,-0.1113153,4.2,0.8307096401850382,0.0,0.0,1.0,"Aesthetics, Atmosphere, Accessibility, General","great (27), excellent (27), calm (9), wonderful (9), messy (9), charming (9), tidy (6), broken (3), noisy (3), near (3)",43
Westminster,Chelsea and Westminster Hospital,Hospital,51.4843947,-0.1817018,3.9,0.7548866748809815,0.2,0.0,0.8,"Accessibility, Safety, Comfort, Maintenance, Aesthetics, General","amazing (27), excellent (9), tidy (9), comfortable (9), near (6), safe (6), easy (3), lovely (3), messy (3), relaxing (3)",1004
Westminster,St Mary's Hospital,Hospital,51.5175558,-0.1742676,3.4,0.5974488039811452,0.2,0.4,0.4,"Accessibility, Safety, Noise, Atmosphere, Maintenance, Traffic, Aesthetics, General","safe (24), excellent (18), tidy (15), difficult (9), worst (9), amazing (9), great (9), walking (9), quiet (9), busy (9), lovely (9), messy (9), good (3), cars (3), calm (3), cozy (3), roomy (3), poor (3), easy (3), repaired (3), new (3), noisy (3), lighting (1)",1084
Westminster,Royal Brompton Hospital,Hospital,51.4891103,-0.1701254,4.2,0.7259398063023885,0.0,0.0,1.0,"Accessibility, Comfort, Cleanliness, Maintenance, Aesthetics, General","amazing (36), comfortable (27), wonderful (15), good (12), new (9), clean (9), easy (9), lovely (9), perfect (6), pleasant (6), pretty (3), noisy (3), tidy (3), messy (3), fantastic (3)",358
Westminster,Royal National Orthopaedic Hospital,Hospital,51.5230446,-0.142953,4.2,0.8405417084693909,0.0,0.2,0.8,"Noise, Comfort, Cleanliness, Atmosphere, Maintenance, Aesthetics, General","lovely (27), clean (27), amazing (18), modern (18), great (18), old (18), welcoming (9), comfortable (9), calm (9), peaceful (9), pleasant (9), good (9), excellent (9), improved (9), safe (3), roomy (3), walking (3), messy (3)",57
Westminster,The London Clinic,Hospital,51.5228881,-0.1507707,4.5,0.7087900241216024,0.0,0.4,0.6,"Comfort, Cleanliness, Maintenance, Aesthetics, Traffic, General","good (21), clean (18), maintained (9), pleasant (9), welcoming (9), spacious (9), messy (9), walking (9), excellent (9), bad (9), safe (6), roomy (6), tidy (3), lighting (3)",1346
Westminster,National Hospital for Neurology and Neurosurgery,Hospital,51.5222486,-0.1222765,4.2,0.8475713451703389,0.0,0.0,1.0,"Cleanliness, Accessibility, General","great (18), tidy (15), safe (9), amazing (9), good (9), difficult (9), excellent (9), messy (6), clean (3), near (2)",398
Westminster,London Bridge Hospital,Hospital,51.5062543,-0.08605189999999999,4.6,0.6110026419162751,0.0,0.4666666666666667,0.5333333333333333,"Accessibility, Comfort, Cleanliness, Atmosphere, Maintenance, General","great (27), clean (18), comfortable (18), roomy (9), good (9), modern (9), far (9), amazing (9), fantastic (9), serene (9), safe (6), relaxing (3), calm (3), lighting (3), tidy (3), pretty (3), messy (3)",691
Westminster,University College Hospital at Westmoreland Street,Hospital,51.5197137,-0.1497023,4.1,0.662384303410848,0.0,0.5333333333333333,0.4666666666666667,"Accessibility, Comfort, Atmosphere, Maintenance, Aesthetics, Traffic, General","lovely (39), safe (21), busy (18), messy (15), old (9), great (9), welcoming (9), wonderful (9), chaotic (9), pleasant (9), dark (6), dead (6), good (3), walking (3), tidy (3), cozy (3), calm (3), noisy (3), difficult (3), risky (3)",167
